{"data":{"site":{"pathPrefix":"/restaurant-inspections"},"postgres":{"establishment":[{"establishmentid":"4979","name":"Pathway Academy","address":"11340-43 E Jefferson Ave","zipcode":"48214","owner":"DPS","licenseNumber":"202852","licenseType":"Fixed Establishment","establishmentType":"Public School","establishmentStatus":"Open","riskCategory":"Medium","reviewFrequencyDays":"210.0","coords":"-83.13728,42.26311","geojson":{"id":"4979","type":"Feature","geometry":{"type":"Point","coordinates":[-83.137282233,42.2631072020001]},"properties":{"name":"Pathway Academy","owner":"DPS","address":"11340-43 E Jefferson Ave","zipcode":"48214","license_type":"Fixed Establishment","risk_category":"Medium","license_number":"202852","establishmentid":"4979","establishment_type":"Public School","establishment_status":"Open","review_frequency_days":"210.0","most_recent_license_date":"4/30/2018"}},"nearbyList":[{"establishmentid":"1879","name":"First Congregational Church","address":"33 E Forest Ave","zipcode":"48201"},{"establishmentid":"51622624","name":"Operation ABLE of Michigan Site #2","address":"33 E Forest Ave","zipcode":"48201"},{"establishmentid":"4165","name":"SEVA DETROIT","address":"66 E Forest Ave., Suite D","zipcode":"48201"},{"establishmentid":"5370","name":"The Griot Music Lounge","address":"66 E Forest Ave","zipcode":"48201"},{"establishmentid":"51622674","name":"Google Detroit Cafe","address":"52 E Henry St","zipcode":"48218"},{"establishmentid":"51622762","name":"D's Coney Island","address":"2626 S Schaefer Hwy","zipcode":"48217"},{"establishmentid":"617","name":"New Paradigm College Prep School","address":"2450  S Beatrice St ","zipcode":"48217"},{"establishmentid":"5062","name":"Bag Of Bonez","address":"1250 S Beatrice St","zipcode":"48221"},{"establishmentid":"2245","name":"Perfect Beat","address":"1941 Fort St S","zipcode":"48217"},{"establishmentid":"5222","name":"El Paisano ","address":"4370 6th Street","zipcode":"48229"}],"inspectionsByEstablishmentidList":[{"inspectionid":"44562","inspectionDate":"2018-12-20T00:00:00","inspectionType":"Routine Inspection","inCompliance":"Yes","violationsByInspectionidList":[]},{"inspectionid":"42432","inspectionDate":"2018-06-05T00:00:00","inspectionType":"Routine Inspection","inCompliance":"Yes","violationsByInspectionidList":[{"violationCode":"3-501.13","violationDescription":"POTENTIALLY HAZARDOUS FOOD (TIME/TEMPERATURE CONTROL FOR SAFETY FOOD)  shall be thawed:  Under refrigeration, or under cool running water (<70° F), or as part of cooking process, and total accumulated time above 41° F, for thawed portions, shall not exceed 4 hours.  Any thawing procedure may be used for immediate service for individual consumers order of READY-TO-EAT foods.\r\n","violationType":"Core","itemDescription":"Frozen food(s) for thawing","subItem":"","problemDescription":"Stored in water","subProblem":"That is standing","location":"KITCHEN","subLocation":"In the Prep sink","corrected":"Yes","daysToCorrect":"30.0","correctedDate":"2018-06-05T00:00:00","correctionDescription":"Use cool, running water with enough flow to remove particles."}]},{"inspectionid":"40574","inspectionDate":"2017-10-26T00:00:00","inspectionType":"Routine Inspection","inCompliance":"Yes","violationsByInspectionidList":[{"violationCode":"4-204.112","violationDescription":"(A)  In a mechanically refrigerated or hot FOOD storage unit, the sensor of a TEMPERATURE MEASURING DEVICE shall be located to measure the air temperature in the warmest part of a mechanically refrigerated unit and in the coolest part of a hot FOOD storage unit.\r\n(B)  Cold or hot holding EQUIPMENT used for POTENTIALLY HAZARDOUS FOOD shall be designed to include and shall be equipped with at least one integral or permanently affixed TEMPERATURE MEASURING DEVICE that is located to allow easy viewing of the device's temperature display (EXCEPT, heat lamps, cold plates, steam tables, or other equipment where it is not practical).\r\n(C)  TEMPERATURE MEASURING DEVICES shall be designed to be easily readable.\r\n(D)  FOOD TEMPERATURE MEASURING DEVICES and water TEMPERATURE MEASURING DEVICES on WAREWASHING machines shall have a numerical scale, printed record, or digital readout in increments no greater than 1C or 2F in the intended range of use. (Pf)\r\n\r\n","violationType":"Core","itemDescription":"Thermometer(s)","subItem":"refrigeration","problemDescription":"Broken","subProblem":"","location":"KITCHEN","subLocation":"At the Cooler (milk)","corrected":"Not required","daysToCorrect":"10.0","correctedDate":null,"correctionDescription":"Repair/replace."}]},{"inspectionid":"38949","inspectionDate":"2017-06-09T00:00:00","inspectionType":"Routine Inspection","inCompliance":"No","violationsByInspectionidList":[{"violationCode":"4-302.14","violationDescription":"A test kit or other device that accurately measures the concentration in mg/L of SANITIZING solutions shall be provided. (Pf)\r\n","violationType":"Foundation","itemDescription":"Sanitizer test kit","subItem":"quaternary ammonia","problemDescription":"Damaged","subProblem":"","location":"KITCHEN","subLocation":"At the Test strips","corrected":"No","daysToCorrect":"10.0","correctedDate":null,"correctionDescription":"Replace."}]},{"inspectionid":"37468","inspectionDate":"2016-12-22T00:00:00","inspectionType":"Routine Inspection","inCompliance":"Yes","violationsByInspectionidList":[]}]}],"maxInspectionDate":[{"inspectionDate":"2019-01-31T00:00:00"}]}},"pageContext":{"eid":"4979"}}