{"data":{"postgres":{"establishment":[{"establishmentid":"51622662","name":"Wingstop","address":"1331 W Eight Mile Rd","zipcode":"48203","owner":"Wing It North Michigan LLC","licenseNumber":"221935","licenseType":"Fixed Establishment","establishmentType":"Food Service Establishment","establishmentStatus":"Open","riskCategory":null,"reviewFrequencyDays":"90.0","coords":"-83.11999,42.44440","geojson":{"id":"51622662","type":"Feature","geometry":{"type":"Point","coordinates":[-83.119986091,42.4443979230001]},"properties":{"name":"Wingstop","owner":"Wing It North Michigan LLC","address":"1331 W Eight Mile Rd","zipcode":"48203","license_type":"Fixed Establishment","risk_category":null,"license_number":"221935","establishmentid":"51622662","establishment_type":"Food Service Establishment","establishment_status":"Open","review_frequency_days":"90.0","most_recent_license_date":null}},"nearbyList":[{"establishmentid":"4496","name":"Motown Coney Island","address":"1936 E Eight Mile Rd","zipcode":"48325"},{"establishmentid":"270","name":"Stonehouse Bar","address":"19803 Ralston","zipcode":"48203"},{"establishmentid":"225","name":"Renaissance Bowling Center","address":"19600 Woodward Ave","zipcode":"48203"},{"establishmentid":"5032","name":"Tasty World","address":"19102 Woodward","zipcode":"48201"},{"establishmentid":"993","name":"Palmer Park Golf Course 3216","address":"19013 Woodward Ave","zipcode":"48203"},{"establishmentid":"4065","name":"Ms. E-Vee's Soul Food","address":"201 W Eight Mile Ave","zipcode":"48203"},{"establishmentid":"51622678","name":"Holy Moly Donut Shop","address":"201 W Eight Mile Rd","zipcode":"48203"},{"establishmentid":"3191","name":"Sullaf Restaurant","address":"814 W Seven Mile Rd","zipcode":"48203"},{"establishmentid":"51622461","name":"Magic City of Detroit-Dreams","address":"141 W Eight Mile","zipcode":"48203"},{"establishmentid":"4151","name":"Greenfield Union Elementary","address":"19150 Blake St","zipcode":"48207"},{"establishmentid":"1122","name":"Greenfield Union Annex","address":"420 W Seven Mile Rd","zipcode":"48238"},{"establishmentid":"2742","name":"Golden Gate Cafe","address":"18700 Woodward Ave","zipcode":"48203"},{"establishmentid":"382","name":"Centerfold","address":"20222 John R St","zipcode":"48203"},{"establishmentid":"292","name":"Detroit Golf Club Inc.","address":"17911 Hamilton  St","zipcode":"48203"},{"establishmentid":"51622469","name":"Detroit One Coney Island","address":"5 W Seven Mile Rd","zipcode":"48203"},{"establishmentid":"4266","name":"Baker's Keyboard Lounge","address":"20510 Livernois Ave","zipcode":"48221"},{"establishmentid":"4356","name":"We Will Cook For You","address":"20504 Livernois Ave","zipcode":"48221"},{"establishmentid":"51622720","name":"Durdens Catering LLC","address":"20504 Livernois","zipcode":"48221"},{"establishmentid":"5190","name":"D and D Cuisine LLC","address":"17521 Livernois Ave","zipcode":"48221"},{"establishmentid":"2110","name":"Hangover's Lounge","address":"20143 Livernois Ave","zipcode":"48221"}],"inspectionsByEstablishmentidList":[{"inspectionid":"41365","inspectionDate":"2018-02-02T00:00:00","inspectionType":"Routine Inspection","inCompliance":"Yes","violationsByInspectionidList":[{"violationCode":"2-301.14","violationDescription":"FOOD EMPLOYEES shall clean their hands and exposed portions of their arms as specified under § 2-301.12 immediately before engaging in FOOD preparation including working with exposed FOOD, clean EQUIPMENT and UTENSILS, and unwrapped SINGLE-SERVICE and SINGLE-USE ARTICLES (P) and:\r\n(A)     After touching bare human body parts other than clean hands and clean, exposed portions of arms; (P)\r\n(B)     After using the toilet room; (P)\r\n(C)     After caring for or handling SERVICE ANIMALS or aquatic animals as specified in ¶ 2-403.11(B); (P).\r\n(D)     Except as specified in ¶ 2-401.11(B), after coughing, sneezing, using a handkerchief or disposable tissue, using tobacco, eating, or drinking; (P)\r\n(E)     After handling soiled EQUIPMENT or UTENSILS; (P)\r\n(F)     During FOOD preparation, as often as necessary to remove soil and contamination and to prevent cross contamination when changing tasks; (P)\r\n(G)     When switching between working with raw FOOD and working with READY-TO-EAT FOOD; (P)\r\n(H)     Before donning gloves for working with FOOD; (P) and\r\n(I)      After engaging in other activities that contaminate the hands. (P)","violationType":"Priority","itemDescription":"Employee(s)","subItem":"","problemDescription":"Did not wash hands","subProblem":"during food prep to prevent cross contamination","location":"GRILL AREA","subLocation":"","corrected":"Yes","daysToCorrect":"10.0","correctedDate":"2018-02-02T00:00:00","correctionDescription":"Hands shall be washed with hot water and soap for at least 20 seconds after contamination."},{"violationCode":"4-501.11","violationDescription":"EQUIPMENT shall be maintained in a state of repair and condition that meets the requirements of the code.\r\n","violationType":"Core","itemDescription":"Equipment","subItem":"","problemDescription":"In poor repair","subProblem":"","location":"TOP LOADER","subLocation":"","corrected":"Not required","daysToCorrect":"30.0","correctedDate":null,"correctionDescription":"Repair"}]}]}]}},"pageContext":{"eid":"51622662"}}