{"data":{"site":{"pathPrefix":null},"postgres":{"establishment":[{"establishmentid":"1140","name":"Masonic Temple","address":"500 Temple","zipcode":"48201","owner":"Masonic Temple Assoc. of Det.","licenseNumber":"035221","licenseType":"Fixed Establishment","establishmentType":"Food Service Establishment","establishmentStatus":"Open","riskCategory":"Medium","reviewFrequencyDays":"365.0","coords":"-83.06013,42.34175","geojson":{"id":"1140","type":"Feature","geometry":{"type":"Point","coordinates":[-83.060132462,42.3417517980001]},"properties":{"name":"Masonic Temple","owner":"Masonic Temple Assoc. of Det.","address":"500 Temple","zipcode":"48201","license_type":"Fixed Establishment","risk_category":"Medium","license_number":"035221","establishmentid":"1140","establishment_type":"Food Service Establishment","establishment_status":"Open","review_frequency_days":"365.0","most_recent_license_date":"4/30/2018"}},"nearbyList":[{"establishmentid":"51622606","name":"Founders Brewing Company","address":"456 Charlotte St","zipcode":"48201"},{"establishmentid":"692","name":"Temple Bar","address":"2906 Cass","zipcode":"48201"},{"establishmentid":"5094","name":"Peterboro","address":"420 Peterboro ","zipcode":"48201"},{"establishmentid":"1405","name":"Mariner's Inn","address":"445 Ledyard","zipcode":"48201"},{"establishmentid":"51622714","name":"-320 Coffee & Creamery","address":"474 Peterboro Street #201","zipcode":"48201"},{"establishmentid":"5359","name":"Detroit Shipping Company- Bars","address":"474 Peterboro St","zipcode":"48201"},{"establishmentid":"51622705","name":"Brujo","address":"474 Peterboro St #105","zipcode":"48201"},{"establishmentid":"51622643","name":"Bangkok 96","address":"474 Peterboro Street #103","zipcode":"48201"},{"establishmentid":"51622644","name":"Coop","address":"474 Peterboro St #104","zipcode":"48201"},{"establishmentid":"3598","name":"Cass Technical High School","address":"2501 Second Ave","zipcode":"48201-34"}],"inspectionsByEstablishmentidList":[{"inspectionid":"43584","inspectionDate":"2018-09-21T00:00:00","inspectionType":"Complaint","inCompliance":"Yes","violationsByInspectionidList":[]},{"inspectionid":"42525","inspectionDate":"2018-06-12T00:00:00","inspectionType":"Routine Inspection","inCompliance":"Yes","violationsByInspectionidList":[{"violationCode":"4-602.13","violationDescription":"NonFOOD-CONTACT SURFACES of EQUIPMENT shall be cleaned at a frequency necessary to preclude accumulation of soil residues.\r\n","violationType":"Core","itemDescription":"Nonfood contact surface(s)","subItem":"","problemDescription":"Soiled","subProblem":"","location":"KITCHEN","subLocation":"","corrected":"Not required","daysToCorrect":"30.0","correctedDate":null,"correctionDescription":"Keep clean."},{"violationCode":"4-601.11","violationDescription":"(A) EQUIPMENT FOOD-CONTACT SURFACES and UTENSILS shall be clean to sight and touch. (Pf)\r\n(B) The FOOD-CONTACT SURFACES of cooking EQUIPMENT and pans shall be kept free of encrusted grease deposits and other soil accumulations. \r\n(C) NonFOOD-CONTACT SURFACES of EQUIPMENT shall be kept free of an accumulation of dust, dirt, FOOD residue, and other debris. \r\n","violationType":"Core","itemDescription":"Non-food contact surface(s)","subItem":"counters","problemDescription":"Soiled","subProblem":"","location":"KITCHEN","subLocation":"","corrected":"Not required","daysToCorrect":"10.0","correctedDate":null,"correctionDescription":"Clean."}]},{"inspectionid":"38780","inspectionDate":"2017-05-10T00:00:00","inspectionType":"Routine Inspection","inCompliance":"Yes","violationsByInspectionidList":[{"violationCode":"6-501.112","violationDescription":"Dead or trapped birds, insects, rodents, and other pests shall be removed from control devices and the PREMISES at a frequency that prevents their accumulation,  decomposition, or the attraction of pests.\r\n","violationType":"Core","itemDescription":"Dead/trapped pest(s)","subItem":"","problemDescription":"Not removed from facility","subProblem":"","location":"KITCHEN","subLocation":"","corrected":"Not required","daysToCorrect":"30.0","correctedDate":null,"correctionDescription":"Remove from facility/premises."},{"violationCode":"6-202.11","violationDescription":"Except as otherwise approved, light bulbs shall be shielded, coated, or otherwise shatter-resistant in areas where there is exposed FOOD; clean EQUIPMENT, UTENSILS, and LINENS; or unwrapped SINGLE-SERVICE and SINGLE-USE ARTICLES.\r\n","violationType":"Core","itemDescription":"Light shielding","subItem":"","problemDescription":"Not provided","subProblem":"In service area","location":"SERVICE AREA","subLocation":"Lights","corrected":"Not required","daysToCorrect":"30.0","correctedDate":null,"correctionDescription":"Provide adequate light shields and end caps or shatter-proof bulbs."},{"violationCode":"4-602.13","violationDescription":"NonFOOD-CONTACT SURFACES of EQUIPMENT shall be cleaned at a frequency necessary to preclude accumulation of soil residues.\r\n","violationType":"Core","itemDescription":"Nonfood contact surface(s)","subItem":"","problemDescription":"With accumulation of debris","subProblem":"","location":"KITCHEN","subLocation":"Walk-in freezer","corrected":"Not required","daysToCorrect":"30.0","correctedDate":null,"correctionDescription":"Keep clean."}]}]}]}},"pageContext":{"eid":"1140"}}