{"data":{"site":{"pathPrefix":"/restaurant-inspections"},"postgres":{"establishment":[{"establishmentid":"815","name":"Abicks Bar","address":"3500 Gilbert St","zipcode":"4821","owner":"Eric Lakeman","licenseNumber":"034843","licenseType":"Fixed Establishment","establishmentType":"Food Service Establishment","establishmentStatus":"Open","riskCategory":"Low","reviewFrequencyDays":"365","coords":"-83.11871,42.32694","geojson":{"id":"815","type":"Feature","geometry":{"type":"Point","coordinates":[-83.118706527,42.326939828]},"properties":{"name":"Abicks Bar","owner":"Eric Lakeman","address":"3500 Gilbert St","zipcode":"4821","license_type":"Fixed Establishment","risk_category":"Low","license_number":"034843","establishmentid":"815","establishment_type":"Food Service Establishment","establishment_status":"Open","review_frequency_days":"365","most_recent_license_date":"5/4/2015"}},"nearbyList":[{"establishmentid":"51622462","name":"Better Woodman","address":"3700 Gilbert Street","zipcode":"4821"},{"establishmentid":"3526","name":"St. Peter & Paul Orthodox Cathedral","address":"3700 Gilbert Street","zipcode":"4821"},{"establishmentid":"5354","name":"Kaleidoscope Catering","address":"3700 Gilbert","zipcode":"4821"},{"establishmentid":"51622860","name":"Pietrzyk Pierogi","address":"3700 Gilbert Street","zipcode":"4821"},{"establishmentid":"4069","name":"Pupuseria Y Restaurant Sal","address":"3149 Livernois Ave","zipcode":"4821"},{"establishmentid":"802","name":"Tommy T's Pub","address":"3511 Clippert St","zipcode":"4821"},{"establishmentid":"51623120","name":"Academy of the Americas Elementary","address":"3811 Cicotte St","zipcode":"48217"},{"establishmentid":"968","name":"Escuela Avancemos/Logan Elementary","address":"3811 Cicotte St","zipcode":"48217"},{"establishmentid":"51622797","name":"Avdolli Adis Coney Island","address":"6171 Michigan Avenue","zipcode":"4821"},{"establishmentid":"3553","name":"Adi's Coney Island ","address":"6171 Michigan Ave","zipcode":"4821"}],"inspectionsByEstablishmentidList":[{"inspectionid":"50772","inspectionDate":"2020-02-13T00:00:00","inspectionType":"Routine Inspection","inCompliance":"Yes","violationsByInspectionidList":[{"violationCode":"5-205.11","violationDescription":"(A) A HANDWASHING SINK shall be maintained so that it is accessible at all times for EMPLOYEE use and used for no other purpose. (Pf)\r\n(B)  An automatic handwashing facility shall be used in accordance with manufacturer's instructions. (Pf)\r\n","violationType":"Foundation","itemDescription":"Handwashing sink(s)","subItem":"","problemDescription":"Not easily accessible","subProblem":"Items stored In","location":"BAR","subLocation":"Handsink","corrected":"Yes","daysToCorrect":"10","correctedDate":"2020-02-13T00:00:00","correctionDescription":"Remove items from handsink.  Do not store items at handsink."},{"violationCode":"MFL289.6141","violationDescription":"Sec. 6141. (1) A food service establishment in which solid foods are sold and consumed on the premises shall prominently display a poster in the kitchen area of the food service establishment diagramming and explaining the antichoking techniques safe for both adults and children approved by the department for dislodging foreign obstacles caught in the throat of a choking person.","violationType":"Core","itemDescription":null,"subItem":"","problemDescription":null,"subProblem":"","location":"FRONT AREA","subLocation":"SIGNAGE","corrected":"Not required","daysToCorrect":"30","correctedDate":null,"correctionDescription":null},{"violationCode":"5-205.15","violationDescription":"A PLUMBING SYSTEM shall be:\r\n(A) Repaired according to LAW; (P) and\r\n(B) Maintained in good repair.\r\n","violationType":"Core","itemDescription":"Drainage system","subItem":"drain lines","problemDescription":null,"subProblem":"","location":"BAR","subLocation":"Handsink","corrected":"Not required","daysToCorrect":"10","correctedDate":null,"correctionDescription":null}]},{"inspectionid":"44921","inspectionDate":"2019-01-18T00:00:00","inspectionType":"Routine Inspection","inCompliance":"Yes","violationsByInspectionidList":[{"violationCode":"5-501.17","violationDescription":"A toilet room used by females shall be provided with a covered receptacle for sanitary napkins.\r\n","violationType":"Core","itemDescription":"Covered waste receptacle(s)","subItem":"in ladies restroom","problemDescription":"Not provided","subProblem":"","location":"RESTROOM (WOMEN'S PUBLIC)","subLocation":"Covered waste container","corrected":"Not required","daysToCorrect":"30","correctedDate":null,"correctionDescription":"Provide."}]},{"inspectionid":"37777","inspectionDate":"2017-01-25T00:00:00","inspectionType":"Routine Inspection","inCompliance":"Yes","violationsByInspectionidList":[]}]}],"maxInspectionDate":[{"inspectionDate":"2020-10-30T00:00:00"}]}},"pageContext":{"eid":"815"}}