{"data":{"site":{"pathPrefix":"/restaurant-inspections"},"postgres":{"establishment":[{"establishmentid":"51623208","name":"LeCulture Cafe","address":"1452 Brush St","zipcode":"48226","owner":"Drew Matthes","licenseNumber":"VT021420","licenseType":"Fixed Establishment","establishmentType":"Food Service Establishment","establishmentStatus":"Open","riskCategory":null,"reviewFrequencyDays":"90.0","coords":"-83.04504,42.33683","geojson":{"id":"51623208","type":"Feature","geometry":{"type":"Point","coordinates":[-83.045043111,42.336829613]},"properties":{"name":"LeCulture Cafe","owner":"Drew Matthes","address":"1452 Brush St","zipcode":"48226","license_type":"Fixed Establishment","risk_category":null,"license_number":"VT021420","establishmentid":"51623208","establishment_type":"Food Service Establishment","establishment_status":"Open","review_frequency_days":"90.0","most_recent_license_date":null}},"nearbyList":[{"establishmentid":"4897","name":"Asaysia","address":"1452 Brush St","zipcode":"48226"},{"establishmentid":"1106","name":"Music Hall Center","address":"350 Madison Ave","zipcode":"48226"},{"establishmentid":"3925","name":"La Casa De La Habana Detroit","address":"1502 Randolph St","zipcode":"48226"},{"establishmentid":"2007","name":"Subway #44796","address":"1401 Beaubien St","zipcode":"48226"},{"establishmentid":"1681","name":"Hilton Garden Inn/ American Grill","address":"351 Gratiot Ave","zipcode":"48226"},{"establishmentid":"322","name":"Twentieth Century Club, (Gem Theatre)","address":"333 Madison Ave","zipcode":"48226"},{"establishmentid":"5140","name":"Basement Burger Bar","address":"1326 Brush St ","zipcode":"48226"},{"establishmentid":"4106","name":"Detroit Seafood Market","address":"1435 Randolph","zipcode":"48226"},{"establishmentid":"4844","name":"Centre Park Restaurant","address":"1407 Randolph","zipcode":"48226"},{"establishmentid":"4317","name":"Colors","address":"311 E Grand River Ave","zipcode":"48226"}],"inspectionsByEstablishmentidList":[{"inspectionid":"50778","inspectionDate":"2020-02-14T00:00:00","inspectionType":"Routine Inspection","inCompliance":"Yes","violationsByInspectionidList":[{"violationCode":"4-501.114","violationDescription":"A chemical SANITIZER used in a SANITIZING solution for a manual or\r\nmechanical operation shall meet these limits or as otherwise approved: (P)\r\n\tChlorine        ppm           pH<10             pH<8\r\n\t\t      25              120 F              120 F\r\n\t\t      50              100 F              75 F\r\n\t\t     100              55 F               55 F\r\n                 Iodine           a concentration of between 12.5 and 25 ppm and minimum temp of 75 F and pH of 5 or less or meets manufacturer's specifications. (P)\r\n\r\n                Quats            minimum temperature of 75 F, hardness of 500 ppm or less and meet manufacturers use directions. (P)\r\n","violationType":"Priority","itemDescription":"Chlorine solution concentration","subItem":"","problemDescription":"Below 25 ppm","subProblem":"","location":"PREP AREA(S)","subLocation":"","corrected":"Yes","daysToCorrect":"10","correctedDate":"2020-02-14T00:00:00","correctionDescription":null},{"violationCode":"3-302.12","violationDescription":"Except for containers holding FOOD that can be readily and unmistakably recognized such as dry pasta, working containers holding FOOD or FOOD ingredients that are removed from their original packages for use in the FOOD ESTABLISHMENT, such as cooking oils, flour, herbs, potato flakes, salt, spices, and sugar shall be identified with the common name of the FOOD.","violationType":"Core","itemDescription":"Food item(s)","subItem":"","problemDescription":"Not identified","subProblem":"","location":"KITCHEN","subLocation":"","corrected":"Yes","daysToCorrect":"30","correctedDate":"2020-02-14T00:00:00","correctionDescription":"Label containers with common name."},{"violationCode":"6-501.14","violationDescription":"(A) Intake and exhaust air ducts shall be cleaned and filters changed so they are not a source of contamination by dust, dirt, and other materials. \r\n(B) If vented to the outside, ventilation systems may not create a public health HAZARD or nuisance or unLAWful discharge.\r\n","violationType":"Core","itemDescription":"Ventilation system","subItem":"","problemDescription":"Not clean","subProblem":"","location":"KITCHEN","subLocation":"","corrected":"Not required","daysToCorrect":"30","correctedDate":null,"correctionDescription":"Clean"}]}]}],"maxInspectionDate":[{"inspectionDate":"2020-10-30T00:00:00"}]}},"pageContext":{"eid":"51623208"}}