{"data":{"site":{"pathPrefix":"/restaurant-inspections"},"postgres":{"establishment":[{"establishmentid":"51622461","name":"Magic City of Detroit-Dreams","address":"141 W Eight Mile","zipcode":"48203","owner":"Nancy Halcim","licenseNumber":"218094","licenseType":"Fixed Establishment","establishmentType":"Food Service Establishment","establishmentStatus":"Open","riskCategory":"High","reviewFrequencyDays":"180.0","coords":"-83.10498,42.44666","geojson":{"id":"51622461","type":"Feature","geometry":{"type":"Point","coordinates":[-83.104983299,42.4466632040001]},"properties":{"name":"Magic City of Detroit-Dreams","owner":"Nancy Halcim","address":"141 W Eight Mile","zipcode":"48203","license_type":"Fixed Establishment","risk_category":"High","license_number":"218094","establishmentid":"51622461","establishment_type":"Food Service Establishment","establishment_status":"Open","review_frequency_days":"180.0","most_recent_license_date":null}},"nearbyList":[{"establishmentid":"4065","name":"Ms. E-Vee's Soul Food","address":"201 W Eight Mile Ave","zipcode":"48203"},{"establishmentid":"51622678","name":"Holy Moly Donut Shop","address":"201 W Eight Mile Rd","zipcode":"48203"},{"establishmentid":"382","name":"Centerfold","address":"20222 John R St","zipcode":"48203"},{"establishmentid":"1461","name":"Bert's Market Place -Jazz Bar/Food Court","address":"2727-31 Russell St","zipcode":"48207"},{"establishmentid":"4636","name":"Bert's Market Place--Commissary","address":"2739 Russell St","zipcode":"48207"},{"establishmentid":"4637","name":"Bert's Market Place--Outdoor Cafe","address":"2727-39 Russell St","zipcode":"48207"},{"establishmentid":"672","name":"Shelly's Smoking Sausage","address":"2727-31 Russell St","zipcode":"48207"},{"establishmentid":"4635","name":"Bert's Warehouse Theater","address":"2739 Russell St","zipcode":"48207"},{"establishmentid":"1122","name":"Greenfield Union Annex","address":" 19150 Blake St","zipcode":"48238"},{"establishmentid":"51622469","name":"Detroit One Coney Island","address":"5 W Seven Mile Rd","zipcode":"48203"}],"inspectionsByEstablishmentidList":[{"inspectionid":"45650","inspectionDate":"2019-03-20T00:00:00","inspectionType":"Routine Inspection","inCompliance":"Yes","violationsByInspectionidList":[{"violationCode":"4-602.13","violationDescription":"NonFOOD-CONTACT SURFACES of EQUIPMENT shall be cleaned at a frequency necessary to preclude accumulation of soil residues.\r\n","violationType":"Core","itemDescription":"Nonfood contact surface(s)","subItem":"","problemDescription":"With accumulation of debris","subProblem":"","location":"KITCHEN","subLocation":"","corrected":"Yes","daysToCorrect":"30.0","correctedDate":"2019-03-20T00:00:00","correctionDescription":null}]},{"inspectionid":"44070","inspectionDate":"2018-11-07T00:00:00","inspectionType":"Routine Inspection","inCompliance":"Yes","violationsByInspectionidList":[{"violationCode":"4-501.11","violationDescription":"EQUIPMENT shall be maintained in a state of repair and condition that meets the requirements of the code.\r\n","violationType":"Core","itemDescription":"Equipment","subItem":"","problemDescription":"In poor repair","subProblem":"","location":"FREEZER","subLocation":"","corrected":"Yes","daysToCorrect":"30.0","correctedDate":"2019-03-20T00:00:00","correctionDescription":"Repair"},{"violationCode":"4-602.12","violationDescription":"(A) The FOOD-CONTACT SURFACES of cooking and baking EQUIPMENT shall be cleaned at least every 24 hours. This section does not apply to hot oil cooking and filtering EQUIPMENT if it is cleaned as specified in Subparagraph 4-602.11(D)(6).   \r\n(B) The cavities and door seals of microwave ovens shall be cleaned at least every 24 hours by using the manufacturer's recommended cleaning procedure.","violationType":"Core","itemDescription":"Baking and cooking equipment","subItem":"","problemDescription":"Not cleaned","subProblem":"","location":"FRYER AREA","subLocation":"","corrected":"Yes","daysToCorrect":"30.0","correctedDate":"2018-03-20T00:00:00","correctionDescription":"Clean as required above."}]},{"inspectionid":"41816","inspectionDate":"2018-03-15T00:00:00","inspectionType":"Routine Inspection","inCompliance":"Yes","violationsByInspectionidList":[{"violationCode":"6-301.12","violationDescription":"Each HANDWASHING SINK or group of adjacent HANDWASHING SINKS shall be provided with:\r\n(A) Individual, disposable towels; (Pf)\r\n(B) A continuous towel system that supplies the user with a clean towel;(Pf) or \r\n(C) A heated-air hand drying device.(Pf)\r\n(D) A hand drying device that employs an air-knife system that delivers high velocity pressurized air at ambient temperatures.(Pf)\r\n","violationType":"Foundation","itemDescription":"Sanitary hand drying provisions","subItem":"","problemDescription":"Not provided","subProblem":"","location":"HANDSINK(S)","subLocation":"","corrected":"Yes","daysToCorrect":"10.0","correctedDate":"2018-03-15T00:00:00","correctionDescription":"Provide."},{"violationCode":"5-205.15","violationDescription":"A PLUMBING SYSTEM shall be:\r\n(A) Repaired according to LAW; (P) and\r\n(B) Maintained in good repair.\r\n","violationType":"Core","itemDescription":"Plumbing system","subItem":"","problemDescription":"Not maintained","subProblem":"","location":"DISH MACHINE","subLocation":"","corrected":"Not required","daysToCorrect":"10.0","correctedDate":null,"correctionDescription":"Maintain in good repair"}]}]}],"maxInspectionDate":[{"inspectionDate":"2019-04-30T00:00:00"}]}},"pageContext":{"eid":"51622461"}}