{"data":{"site":{"pathPrefix":"/restaurant-inspections"},"postgres":{"establishment":[{"establishmentid":"1067","name":"Barton Elementary","address":"8530 Joy Rd","zipcode":"48204","owner":"Detroit Board of Education","licenseNumber":"238008","licenseType":"Fixed Establishment","establishmentType":"Public School","establishmentStatus":"Open","riskCategory":null,"reviewFrequencyDays":"210.0","coords":"-83.15430,42.35964","geojson":{"id":"1067","type":"Feature","geometry":{"type":"Point","coordinates":[-83.15429741,42.3596376360001]},"properties":{"name":"Barton Elementary","owner":"Detroit Board of Education","address":"8530 Joy Rd","zipcode":"48204","license_type":"Fixed Establishment","risk_category":null,"license_number":"238008","establishmentid":"1067","establishment_type":"Public School","establishment_status":"Open","review_frequency_days":"210.0","most_recent_license_date":"4/15/2019"}},"nearbyList":[{"establishmentid":"4833","name":"GFFD Community Center Northwest","address":"8530 Joy Rd","zipcode":"48204"},{"establishmentid":"4887","name":"Clara's Place","address":"8505 Joy Rd","zipcode":"48204"},{"establishmentid":"425","name":" Dairy Queen Inc.","address":"9151 Wyoming ","zipcode":"48204"},{"establishmentid":"51622892","name":"Dairy Queen","address":"9151 Wyoming Ave","zipcode":"48204"},{"establishmentid":"51623121","name":"Holy Temple","address":"8590 Esper Blvd","zipcode":"48204"},{"establishmentid":"51623115","name":"Graham's (Oakland Co.)","address":"8223 Wyoming","zipcode":"48224"},{"establishmentid":"598","name":"Elmer's LLC","address":"8515 W Chicago W","zipcode":"48204"},{"establishmentid":"4150","name":"Grace Bible Chapel","address":"5440 Oakman Blvd","zipcode":"48204"},{"establishmentid":"635","name":"Deb's Place","address":"8748 Tireman Ave","zipcode":"48204"},{"establishmentid":"4337","name":"MacKenzie PK-8","address":"10147 W Chicago Ave","zipcode":"48208"}],"inspectionsByEstablishmentidList":[{"inspectionid":"49664","inspectionDate":"2019-09-25T00:00:00","inspectionType":"Routine Inspection","inCompliance":"Yes","violationsByInspectionidList":[{"violationCode":"5-202.12","violationDescription":"(A) A handwashing sink shall be equipped to provide water at a temperature of at least 38°C (100°F) through a mixing valve or combination faucet. (Pf)  \r\n(B) A steam mixing valve may not be used at a handwashing sink.  \r\n(C) A self-closing, slow-closing, or metering faucet shall provide a flow of water for at least 15 seconds without the need to reactivate the faucet.   \r\n(D) An automatic handwashing facility shall be installed in accordance with manufacturer's instructions.\r\n","violationType":"Priority","itemDescription":"Handwashing facility","subItem":"","problemDescription":"Lack of hot water","subProblem":"","location":"KITCHEN","subLocation":"","corrected":"Yes","daysToCorrect":"10.0","correctedDate":"2019-10-29T00:00:00","correctionDescription":null},{"violationCode":"6-301.12","violationDescription":"Each HANDWASHING SINK or group of adjacent HANDWASHING SINKS shall be provided with:\r\n(A) Individual, disposable towels; (Pf)\r\n(B) A continuous towel system that supplies the user with a clean towel;(Pf) or \r\n(C) A heated-air hand drying device.(Pf)\r\n(D) A hand drying device that employs an air-knife system that delivers high velocity pressurized air at ambient temperatures.(Pf)\r\n","violationType":"Foundation","itemDescription":"Sanitary hand drying provisions","subItem":"","problemDescription":"Not provided","subProblem":"","location":"KITCHEN","subLocation":"","corrected":"Yes","daysToCorrect":"10.0","correctedDate":"2019-09-25T00:00:00","correctionDescription":null},{"violationCode":"4-302.14","violationDescription":"A test kit or other device that accurately measures the concentration in mg/L of SANITIZING solutions shall be provided. (Pf)\r\n","violationType":"Foundation","itemDescription":"Sanitizer test kit","subItem":"","problemDescription":"Not provided","subProblem":"","location":"KITCHEN","subLocation":"","corrected":"Yes","daysToCorrect":"10.0","correctedDate":"2019-10-29T00:00:00","correctionDescription":null},{"violationCode":"6-301.11","violationDescription":"Each HANDWASHING SINK or group of 2 adjacent HANDWASHING SINKS shall be provided with a supply of hand cleaning liquid, powder, or bar soap. (Pf)\r\n","violationType":"Foundation","itemDescription":"Soap","subItem":"","problemDescription":"Not provided","subProblem":"","location":"KITCHEN","subLocation":"","corrected":"Yes","daysToCorrect":"10.0","correctedDate":"2019-09-25T00:00:00","correctionDescription":null},{"violationCode":"6-301.14","violationDescription":"A sign or poster that notifies FOOD EMPLOYEES to wash their hands shall be provided at all HANDWASHING SINKS used by FOOD EMPLOYEES and shall be clearly visible to FOOD EMPLOYEES.\r\n","violationType":"Core","itemDescription":"Handwashing signage","subItem":"","problemDescription":"Not provided","subProblem":"","location":"KITCHEN","subLocation":"","corrected":"Yes","daysToCorrect":"30.0","correctedDate":"2019-10-29T00:00:00","correctionDescription":null}]}]}],"maxInspectionDate":[{"inspectionDate":"2019-10-31T00:00:00"}]}},"pageContext":{"eid":"1067"}}