{"data":{"site":{"pathPrefix":"/restaurant-inspections"},"postgres":{"establishment":[{"establishmentid":"1580","name":"Diamond Jack-Blue Water Exploration","address":"13000 Denmark St","zipcode":"48217","owner":"Patricia Hoey-Carrothers","licenseNumber":"035835","licenseType":"Mobile Food Establishment","establishmentType":"LHD - Mobile Food Establishmen","establishmentStatus":"Seasonal","riskCategory":null,"reviewFrequencyDays":"395.0","coords":"-83.14471,42.29268","geojson":{"id":"1580","type":"Feature","geometry":{"type":"Point","coordinates":[-83.1447060839999,42.2926819300001]},"properties":{"name":"Diamond Jack-Blue Water Exploration","owner":"Patricia Hoey-Carrothers","address":"13000 Denmark St","zipcode":"48217","license_type":"Mobile Food Establishment","risk_category":null,"license_number":"035835","establishmentid":"1580","establishment_type":"LHD - Mobile Food Establishmen","establishment_status":"Seasonal","review_frequency_days":"395.0","most_recent_license_date":"4/19/2018"}},"nearbyList":[{"establishmentid":"3931","name":"Blue Water Exploration Commissary","address":"13000 Denmark St","zipcode":"48217"},{"establishmentid":"1818","name":"Diamond Belle-Blue Water Exploration","address":"13000 Denmark St","zipcode":"48217"},{"establishmentid":"3115","name":"Diamond Queen-Blue Water Exploration","address":"13000 Denmark St","zipcode":"48217"},{"establishmentid":"1021","name":"Giovanni's Ristorante","address":"330 Oakwood Blvd S","zipcode":"48217"},{"establishmentid":"51622922","name":"Charmed","address":"403 S Dix St","zipcode":"48217"},{"establishmentid":"2823","name":"Power Strip","address":"403 S Dix Ave. ","zipcode":"48217"},{"establishmentid":"506","name":"Carbon Athletics Club","address":"111 Gates St N","zipcode":"48209"},{"establishmentid":"51622804","name":"Mutiny Bar ","address":"4654 Vernor St","zipcode":"48209"},{"establishmentid":"5409","name":"PizzaPlex","address":"4454-58 Vernor Rd","zipcode":"48214"},{"establishmentid":"5062","name":"Bag Of Bonez","address":"1250 S Beatrice St","zipcode":"48221"}],"inspectionsByEstablishmentidList":[{"inspectionid":"43060","inspectionDate":"2018-08-03T00:00:00","inspectionType":"Mobile Inspection","inCompliance":"Yes","violationsByInspectionidList":[]},{"inspectionid":"39109","inspectionDate":"2017-06-27T00:00:00","inspectionType":"Mobile Inspection","inCompliance":"Yes","violationsByInspectionidList":[{"violationCode":"6-301.14","violationDescription":"A sign or poster that notifies FOOD EMPLOYEES to wash their hands shall be provided at all HANDWASHING SINKS used by FOOD EMPLOYEES and shall be clearly visible to FOOD EMPLOYEES.\r\n","violationType":"Core","itemDescription":"Handwashing signage","subItem":"","problemDescription":"Not provided","subProblem":"","location":"RESTROOM(S)","subLocation":"Missing Hand washing signage","corrected":"Not required","daysToCorrect":"30.0","correctedDate":null,"correctionDescription":"Provide as required"}]},{"inspectionid":"36123","inspectionDate":"2016-08-11T00:00:00","inspectionType":"Mobile Inspection","inCompliance":"Yes","violationsByInspectionidList":[{"violationCode":"4-602.13","violationDescription":"NonFOOD-CONTACT SURFACES of EQUIPMENT shall be cleaned at a frequency necessary to preclude accumulation of soil residues.\r\n","violationType":"Core","itemDescription":"Nonfood contact surface(s)","subItem":"","problemDescription":"Soiled","subProblem":"","location":"GALLEY","subLocation":"Inside the Microwave Oven(s)","corrected":"Not required","daysToCorrect":"30.0","correctedDate":null,"correctionDescription":"Keep clean."},{"violationCode":"4-501.11","violationDescription":"EQUIPMENT shall be maintained in a state of repair and condition that meets the requirements of the code.\r\n","violationType":"Core","itemDescription":"Equipment components","subItem":"","problemDescription":"In poor repair","subProblem":"","location":"GALLEY","subLocation":"At the Freezer (chest)","corrected":"Not required","daysToCorrect":"30.0","correctedDate":null,"correctionDescription":null},{"violationCode":"4-204.112","violationDescription":"(A)  In a mechanically refrigerated or hot FOOD storage unit, the sensor of a TEMPERATURE MEASURING DEVICE shall be located to measure the air temperature in the warmest part of a mechanically refrigerated unit and in the coolest part of a hot FOOD storage unit.\r\n(B)  Cold or hot holding EQUIPMENT used for POTENTIALLY HAZARDOUS FOOD shall be designed to include and shall be equipped with at least one integral or permanently affixed TEMPERATURE MEASURING DEVICE that is located to allow easy viewing of the device's temperature display (EXCEPT, heat lamps, cold plates, steam tables, or other equipment where it is not practical).\r\n(C)  TEMPERATURE MEASURING DEVICES shall be designed to be easily readable.\r\n(D)  FOOD TEMPERATURE MEASURING DEVICES and water TEMPERATURE MEASURING DEVICES on WAREWASHING machines shall have a numerical scale, printed record, or digital readout in increments no greater than 1C or 2F in the intended range of use. (Pf)\r\n\r\n","violationType":"Core","itemDescription":"Thermometer(s)","subItem":"refrigeration","problemDescription":"Not provided","subProblem":"","location":"BOAT","subLocation":"Inside the Refrigerator","corrected":"Not required","daysToCorrect":"10.0","correctedDate":null,"correctionDescription":"Provide as required"}]}]}],"maxInspectionDate":[{"inspectionDate":"2019-03-31T00:00:00"}]}},"pageContext":{"eid":"1580"}}