{"data":{"site":{"pathPrefix":"/restaurant-inspections"},"postgres":{"establishment":[{"establishmentid":"4248","name":"Detroit Institute of Arts-Kresge Court","address":"5200 Woodward Ave","zipcode":"48202","owner":"Detroit Institute of Arts","licenseNumber":"070310","licenseType":"Fixed Establishment","establishmentType":"Food Service Establishment","establishmentStatus":"Open","riskCategory":"Medium","reviewFrequencyDays":"365.0","coords":"-83.06480,42.35820","geojson":{"id":"4248","type":"Feature","geometry":{"type":"Point","coordinates":[-83.064802557,42.3581964570001]},"properties":{"name":"Detroit Institute of Arts-Kresge Court","owner":"Detroit Institute of Arts","address":"5200 Woodward Ave","zipcode":"48202","license_type":"Fixed Establishment","risk_category":"Medium","license_number":"070310","establishmentid":"4248","establishment_type":"Food Service Establishment","establishment_status":"Open","review_frequency_days":"365.0","most_recent_license_date":"4/25/2019"}},"nearbyList":[{"establishmentid":"4247","name":"Detroit Institute of Arts-Crystal Galler","address":"5200 Woodward Ave","zipcode":"48202"},{"establishmentid":"2330","name":"Detroit Institute of Arts -Cafe DIA","address":"5200 Woodward Ave","zipcode":"48202"},{"establishmentid":"4388","name":"The Potato Place","address":"107 W Warren Ave","zipcode":"48201-34"},{"establishmentid":"2411","name":"Epicurus Place","address":"111 W Warren Ave","zipcode":"48201"},{"establishmentid":"1161","name":"Olympic Grill","address":"119 W Warren Ave","zipcode":"48201"},{"establishmentid":"1718","name":"Cathedral Church of St. Paul","address":"4800 Woodward Ave","zipcode":"48201"},{"establishmentid":"5158","name":"Red Pepper Foods","address":"4800 Woodward Ave","zipcode":"48201"},{"establishmentid":"611","name":"Scarab Club of Detroit","address":"217 Farnsworth St","zipcode":"48202"},{"establishmentid":"51622770","name":"Small World Kitchen","address":"111 E Kirby St","zipcode":"48202"},{"establishmentid":"2607","name":"International Kitchen","address":"111 E Kirby St","zipcode":"48202"}],"inspectionsByEstablishmentidList":[{"inspectionid":"45177","inspectionDate":"2018-07-26T00:00:00","inspectionType":"Routine Inspection","inCompliance":"Yes","violationsByInspectionidList":[{"violationCode":"3-304.12","violationDescription":"During pauses in FOOD preparation or dispensing, UTENSILS shall be stored:\r\n(A) In the FOOD with their handles above the top of the FOOD and the container;\r\n(B) In FOOD that is not POTENTIALLY HAZARDOUS with their handles above the      top of the FOOD within containers or EQUIPMENT that can be closed, such as      bins of sugar, flour, or cinnamon;\r\n(C) On a clean portion of the FOOD preparation table or cooking EQUIPMENT\r\n(D)  In running water, such as dipper well.\r\n(E)  In a clean, protected location if the UTENSILS, such as ice scoops, are   used only with a FOOD that is not POTENTIALLY HAZARDOUS; or\r\n(F)  In a container of water maintained at a temperature of at least 135Â° F.\r\n","violationType":"Core","itemDescription":"Dispensing utensil(s)","subItem":"","problemDescription":"Improperly stored","subProblem":"In standing water No dipper well","location":"COFFEE BAR","subLocation":"","corrected":"Yes","daysToCorrect":"30.0","correctedDate":"2018-07-26T00:00:00","correctionDescription":"Provide properly installed dipper well."}]},{"inspectionid":"41106","inspectionDate":"2017-12-08T00:00:00","inspectionType":"Routine Inspection","inCompliance":"Yes","violationsByInspectionidList":[{"violationCode":"6-501.18","violationDescription":"PLUMBING FIXTURES such as HANDWASHING SINKS, toilets, and urinals shall be cleaned as often as necessary to keep them clean. \r\n","violationType":"Core","itemDescription":"sink","subItem":"handwash","problemDescription":null,"subProblem":"","location":"KITCHEN","subLocation":"Hand sink(s)","corrected":"Not required","daysToCorrect":"30.0","correctedDate":null,"correctionDescription":"Clean"},{"violationCode":"6-501.12","violationDescription":"(A) PHYSICAL FACILITIES shall be cleaned as often as necessary to keep them clean.\r\n(B) Except spill cleanup, cleaning shall be done during periods when the least amount of FOOD is exposed such as after closing. ","violationType":"Core","itemDescription":"Physical facilities/structures","subItem":"","problemDescription":"Soiled","subProblem":"","location":"KITCHEN","subLocation":"Floor","corrected":"Not required","daysToCorrect":"30.0","correctedDate":null,"correctionDescription":"Clean."}]},{"inspectionid":"37163","inspectionDate":"2016-11-09T00:00:00","inspectionType":"Routine Inspection","inCompliance":"Yes","violationsByInspectionidList":[]}]}],"maxInspectionDate":[{"inspectionDate":"2019-03-31T00:00:00"}]}},"pageContext":{"eid":"4248"}}