{"data":{"postgres":{"establishment":[{"establishmentid":"1134","name":"Burger King #4724","address":"1425 W Lafayette","zipcode":"48216","owner":"Excel Services, Inc.","licenseNumber":"035213","licenseType":"Fixed Establishment","establishmentType":"Food Service Establishment","establishmentStatus":"Open","riskCategory":null,"reviewFrequencyDays":"365.0","coords":"-83.06147,42.32548","geojson":{"id":"1134","type":"Feature","geometry":{"type":"Point","coordinates":[-83.061466517,42.325482084]},"properties":{"name":"Burger King #4724","owner":"Excel Services, Inc.","address":"1425 W Lafayette","zipcode":"48216","license_type":"Fixed Establishment","risk_category":null,"license_number":"035213","establishmentid":"1134","establishment_type":"Food Service Establishment","establishment_status":"Open","review_frequency_days":"365.0","most_recent_license_date":"4/19/2018"}},"nearbyList":[{"establishmentid":"51622455","name":"Sheiba Express","address":"1366 W Fort","zipcode":"48226"},{"establishmentid":"2406","name":"Haz Subs & Salads","address":"1360 W Fort St","zipcode":"48226"},{"establishmentid":"1507","name":"Coney King Coney Island","address":"1350 W Fort St","zipcode":"48226"},{"establishmentid":"5124","name":"Mercy Education Project","address":"1450 Howard St","zipcode":"48216"},{"establishmentid":"4013","name":"Le Petit Zinc","address":"1055 Trumbull","zipcode":"48216"},{"establishmentid":"1082","name":"Salvation Army","address":"1627 W Fort St","zipcode":"48216"},{"establishmentid":"1349","name":"Mudgie's","address":"1300 Porter St","zipcode":"48226"},{"establishmentid":"4939","name":"Batch Brewing Company","address":"1408 Porter St","zipcode":"48216"},{"establishmentid":"51622514","name":"Burroughs","address":"1331 Trumbull","zipcode":"48216"},{"establishmentid":"5174","name":"Red Dunn/ Events","address":"1331 Trumbull","zipcode":"48216"},{"establishmentid":"918","name":"Most Holy Trinity School","address":"1229 LaBrosse St","zipcode":"48226"},{"establishmentid":"3093","name":"Subway","address":"1001 W Fort St","zipcode":"48226"},{"establishmentid":"5072","name":"Bucharest Catering ","address":"1697 Abbott St","zipcode":"48216"},{"establishmentid":"5416","name":"Lady of the House, LLC","address":"1426 Bagley Ave","zipcode":"48216"},{"establishmentid":"3163","name":"Detroit Public Safety Academy","address":"1250 Rosa Parks Blvd","zipcode":"48216"},{"establishmentid":"51622591","name":"The Farmer's Hand LLC /DBA Folk","address":"1701 Trumbull Ste B","zipcode":"48216"},{"establishmentid":"51622639","name":"Meta Physica Wellness Center","address":"1701 Trumbull Ste 3","zipcode":"48216"},{"establishmentid":"3451","name":"Signature Grill","address":"250 Riverfront Drive","zipcode":"48226"},{"establishmentid":"429","name":"PJ's Lager House","address":"1254 Michigan Ave","zipcode":"48226"},{"establishmentid":"2675","name":"Brooklyn Street Local","address":"1266 Michigan Ave","zipcode":"48226"}],"inspectionsByEstablishmentidList":[{"inspectionid":"41990","inspectionDate":"2017-12-21T00:00:00","inspectionType":"Routine Inspection","inCompliance":"Yes","violationsByInspectionidList":[{"violationCode":"3-501.16","violationDescription":"Except during preparation, cooking, or cooling, or when time is used as the public health control POTENTIALLY HAZARDOUS FOOD (TIME/TEMPERATURE CONTROL FOR SAFETY FOOD) shall be maintained:\r\n(A)  135ºF or above, except that roasts properly cooked and cooled may be held              at a temperature of 130ºF; or (P)\r\n(B)   At 41ºF or less (P)\r\n","violationType":"Priority","itemDescription":"Cold food item(s)","subItem":"","problemDescription":"Stored above 41 degrees F","subProblem":"","location":"WALK-IN COOLER","subLocation":"","corrected":"Yes","daysToCorrect":"10.0","correctedDate":"2017-12-21T00:00:00","correctionDescription":"Store below 41 degrees F."},{"violationCode":"2-402.11","violationDescription":"FOOD EMPLOYEES shall wear hair restraints such as hats, hair coverings or nets, beard restraints, and clothing that covers body hair, that are designed and worn to effectively keep their hair from contacting exposed FOOD; clean EQUIPMENT, UTENSILS, and LINENS; or unwrapped SINGLE-SERVICE or SINGLE-USE ARTICLES.","violationType":"Core","itemDescription":"Hair restraint","subItem":"hair/beard net","problemDescription":"Not worn on face","subProblem":"","location":"EMPLOYEE(S)","subLocation":"","corrected":"Not required","daysToCorrect":"30.0","correctedDate":null,"correctionDescription":"Provide beard net."}]},{"inspectionid":"38825","inspectionDate":"2017-04-18T00:00:00","inspectionType":"Routine Inspection","inCompliance":"Yes","violationsByInspectionidList":[{"violationCode":"7-201.11","violationDescription":"POISONOUS OR TOXIC MATERIAL shall be stored so they can not contaminate FOOD, EQUIPMENT, UTENSILS, LINENS, AND SINGLE-SERVICE AND SINGLE-USE ARTICLES by:   \r\n(A) Separating the POISONOUS OR TOXIC MATERIAL by spacing or partitioning; (P) and   \r\n(B) Locating the POISONOUS OR TOXIC MATERIAL in an area that is not above FOOD, EQUIPMENT, UTENSILS, LINENS, AND SINGLE-SERVICE AND SINGLE-USE ARTICLES.  This paragraph does not apply to EQUIPMENT and UTENSIL cleaners and sanitizers that are stored in WAREWASHING areas for availability and convenience if the materials are stored to prevent contamination of FOOD, EQUIPMENT, UTENSILS, LINENS, AND SINGLE-SERVICE and SINGLE-USE ARTICLES. (P)","violationType":"Priority","itemDescription":"Poisonous/toxic material(s)","subItem":"","problemDescription":"Stored over/with","subProblem":"Equipment/utensils","location":"3 COMPARTMENT SINK AREA","subLocation":"","corrected":"Yes","daysToCorrect":"10.0","correctedDate":"2017-04-18T00:00:00","correctionDescription":"Store toxics below and away from all other items."},{"violationCode":"4-602.13","violationDescription":"NonFOOD-CONTACT SURFACES of EQUIPMENT shall be cleaned at a frequency necessary to preclude accumulation of soil residues.\r\n","violationType":"Core","itemDescription":"Nonfood contact surface(s)","subItem":"","problemDescription":"Soiled","subProblem":"","location":"FACILITY","subLocation":"","corrected":"Not required","daysToCorrect":"30.0","correctedDate":null,"correctionDescription":"Clean."},{"violationCode":"6-501.12","violationDescription":"(A) PHYSICAL FACILITIES shall be cleaned as often as necessary to keep them clean.\r\n(B) Except spill cleanup, cleaning shall be done during periods when the least amount of FOOD is exposed such as after closing. ","violationType":"Core","itemDescription":"Physical facilities/structures","subItem":"floors","problemDescription":"Soiled","subProblem":"","location":"WALK-IN COOLER & FREEZER","subLocation":"","corrected":"Not required","daysToCorrect":"30.0","correctedDate":null,"correctionDescription":"Clean."}]}]}]}},"pageContext":{"eid":"1134"}}