{"data":{"site":{"pathPrefix":"/restaurant-inspections"},"postgres":{"establishment":[{"establishmentid":"51622464","name":"Burger Grille LLC","address":"15539 Schoolcraft","zipcode":"48227","owner":"Andrea N. Christian","licenseNumber":"217922","licenseType":"Fixed Establishment","establishmentType":"Food Service Establishment","establishmentStatus":"Open","riskCategory":null,"reviewFrequencyDays":"180.0","coords":"-83.19889,42.38671","geojson":{"id":"51622464","type":"Feature","geometry":{"type":"Point","coordinates":[-83.1988877109999,42.3867145630001]},"properties":{"name":"Burger Grille LLC","owner":"Andrea N. Christian","address":"15539 Schoolcraft","zipcode":"48227","license_type":"Fixed Establishment","risk_category":null,"license_number":"217922","establishmentid":"51622464","establishment_type":"Food Service Establishment","establishment_status":"Open","review_frequency_days":"180.0","most_recent_license_date":null}},"nearbyList":[{"establishmentid":"5228","name":"All Star Fish & Seafood Inc.","address":"13585 Greenfield Rd","zipcode":"48227"},{"establishmentid":"1463","name":"Rikshaw House","address":"14135 Greenfield Rd","zipcode":"48227"},{"establishmentid":"5215","name":"Showtime Ice Cream","address":"12874 Greenfield Rd","zipcode":"48227"},{"establishmentid":"641","name":"Korner Coney Island ","address":"14253 Greenfield Rd","zipcode":"48227"},{"establishmentid":"340","name":"Little Caesar's Pizza #59","address":"14301 Greenfield Rd","zipcode":"48227"},{"establishmentid":"358","name":"Great Wall","address":"14307 Greenfield Rd","zipcode":"48227"},{"establishmentid":"4838","name":"Bread Basket Deli","address":"15603 Grand River Ave","zipcode":"48227"},{"establishmentid":"5051","name":"Seven Days Fish and Chicken Inc.","address":"15370 Grand River Ave","zipcode":"48227"},{"establishmentid":"5379","name":"Seven Days Fish & Grill Inc.","address":"15370 Grand River Ave","zipcode":"48227"},{"establishmentid":"5385","name":"Yum Yumz Snack Shack LLC","address":"15400 Grand River","zipcode":"48227"},{"establishmentid":"5229","name":"Big Star Fish & Seafood Inc.","address":"15540 Grand River","zipcode":"48227"},{"establishmentid":"2393","name":"Cosmos Coney Island","address":"14551 Greenfield Rd","zipcode":"48227"},{"establishmentid":"435","name":"Chita's Nefertiti's Bar","address":"15942 Grand River Ave","zipcode":"48227"},{"establishmentid":"2078","name":"Universal Coney Island","address":"15951 Grand River Ave","zipcode":"48227"},{"establishmentid":"870","name":"Burns Elementary- Middle School","address":"14350 Terry St","zipcode":"48227"},{"establishmentid":"1308","name":"Detroit Roller Wheels","address":"16611 Schoolcraft Rd","zipcode":"48227"},{"establishmentid":"4483","name":"Grand River Fuel LLC","address":"14458 Grand River Ave","zipcode":"48227"},{"establishmentid":"51622776","name":"Taco Palace","address":"14458 Grand River Ave","zipcode":"48227"},{"establishmentid":"1127","name":"Dossin Elementary","address":"16650 Glendale","zipcode":"48227"},{"establishmentid":"1582","name":"Communication and Media Arts School","address":"14771 Mansfield","zipcode":"48227"}],"inspectionsByEstablishmentidList":[{"inspectionid":"44249","inspectionDate":"2018-11-29T00:00:00","inspectionType":"Routine Inspection","inCompliance":"Yes","violationsByInspectionidList":[{"violationCode":"7-202.12","violationDescription":"POISONOUS OR TOXIC MATERIALS shall be:    \r\n(A) Used according to:      \r\n(1) LAW and this Code,   \r\n(2) Manufacturer's use directions included in labeling, and, for a pesticide, manufacturer's label instructions that state that use is allowed in a FOOD ESTABLISHMENT, (P)   \r\n(3) The conditions of certification, if certification is required, for use of the pest control materials, (P) and   \r\n(4) Additional conditions that may be established by the REGULATORY AUTHORITY; and\r\n(B) Applied so that:      \r\n(1) A HAZARD to EMPLOYEES or other PERSONS is not constituted, (P) and   \r\n(2) Contamination including toxic residues due to drip, drain, fog, splash or spray on FOOD, EQUIPMENT, UTENSILS, LINENS, AND SINGLE-SERVICE AND SINGLE-USE ARTICLES is prevented, and for a RESTRICTED USE PESTICIDE, this is achieved by: (P)      \r\n(a) Removing the items, (P)   \r\n(b) Covering the items with impermeable covers, (P) or   \r\n(c) Taking other appropriate preventive actions, (P) and   \r\n(d) Cleaning and SANITIZING EQUIPMENT and UTENSILS after the application. (P)  \r\n(C) A RESTRICTED USE PESTICIDE shall be applied only by an applicator certified as defined in 7 USC 136 Definitions, (e) Certified Applicator, of the Federal Insecticide, Fungicide, and Rodenticide Act, or a PERSON under the direct supervision of a certified applicator. (Pf)","violationType":"Priority","itemDescription":"Poisonous/toxic material(s)","subItem":"","problemDescription":"Not used according to manufacturer's label instructions","subProblem":"","location":"BACK DOOR","subLocation":"","corrected":"Yes","daysToCorrect":"10.0","correctedDate":"2018-11-29T00:00:00","correctionDescription":"Use according to manufacturer label directions."}]},{"inspectionid":"42423","inspectionDate":"2018-06-05T00:00:00","inspectionType":"Routine Inspection","inCompliance":"Yes","violationsByInspectionidList":[{"violationCode":"3-302.11","violationDescription":"(A) FOOD shall be protected from cross contamination by:  \r\n(1) Except as specified in (1)(c) below, separating raw animal FOODS during         storage, preparation, holding, and display from:\r\n(a) Raw READY-TO-EAT FOOD including other raw animal FOOD such as FISH for sushi or MOLLUSCAN SHELLFISH, or other raw READY-TO-EAT FOOD such as fruits and vegetables,(P) and\r\n(b) Cooked READY-TO-EAT FOOD; (P)\r\n(c) Frozen, commercially processed and packaged raw animal FOOD may be          stored or displayed with or above frozen, commercially processed and           packaged, ready-to-eat food.\r\n(2) Except when combined as ingredients, separating types of raw animal FOODS    from each other such as beef, FISH, lamb, pork, and POULTRY during storage,        preparation, holding, and display by:\r\n(a) Using separate EQUIPMENT for each type, (P) or\r\n(b) Arranging each type of FOOD in EQUIPMENT so that cross contamination of one type with another is prevented, (P) and\r\n(c) Preparing each type of FOOD at different times or in separate areas; (P)\r\n","violationType":"Priority","itemDescription":"Raw animal food(s)","subItem":"","problemDescription":"Stored over/next to","subProblem":"","location":"COOKING AREA","subLocation":"","corrected":"Yes","daysToCorrect":"10.0","correctedDate":"2018-06-05T00:00:00","correctionDescription":"Store raw animal foods below and away from foods needing little or no further prep."}]},{"inspectionid":"40801","inspectionDate":"2017-11-09T00:00:00","inspectionType":"Routine Inspection","inCompliance":"Yes","violationsByInspectionidList":[{"violationCode":"4-903.11","violationDescription":"Cleaned EQUIPMENT and UTENSILS, laundered LINENS, and SINGLE-SERVICE and SINGLE-USE ARTICLES shall be stored in an approved manner and location.\r\n","violationType":"Core","itemDescription":"Single-service/single-use article(s)","subItem":"","problemDescription":"Stored on floor or less than 6 inches above floor","subProblem":"","location":"BACK AREA","subLocation":"","corrected":"Yes","daysToCorrect":"30.0","correctedDate":"2017-11-09T00:00:00","correctionDescription":"Store at least 6 inches above the floor."}]},{"inspectionid":"38363","inspectionDate":"2017-03-29T00:00:00","inspectionType":"Routine Inspection","inCompliance":"Yes","violationsByInspectionidList":[]}]}]}},"pageContext":{"eid":"51622464"}}