{"data":{"site":{"pathPrefix":"/restaurant-inspections"},"postgres":{"establishment":[{"establishmentid":"51623103","name":"Detroit Grill & Chill","address":"8009 E Jefferson Ave","zipcode":"48214","owner":"Yousef Alagi","licenseNumber":"PR19129A","licenseType":"Fixed Establishment","establishmentType":"Food Service Establishment","establishmentStatus":"Open","riskCategory":"High","reviewFrequencyDays":"180","coords":"-82.99484,42.35221","geojson":{"id":"51623103","type":"Feature","geometry":{"type":"Point","coordinates":[-82.994840154,42.352214245]},"properties":{"name":"Detroit Grill & Chill","owner":"Yousef Alagi","address":"8009 E Jefferson Ave","zipcode":"48214","license_type":"Fixed Establishment","risk_category":"High","license_number":"PR19129A","establishmentid":"51623103","establishment_type":"Food Service Establishment","establishment_status":"Open","review_frequency_days":"180","most_recent_license_date":"1/13/2020"}},"nearbyList":[{"establishmentid":"1870","name":"Belle Isle Pizza (fka) Garalino's Pizza","address":"7869 E Jefferson Ave","zipcode":"48214"},{"establishmentid":"4984","name":"Four Seasons Catering LLC","address":"8000 E Jefferson","zipcode":"48214"},{"establishmentid":"51623013","name":"Ms. Ruth's Catering","address":"8000 E Jefferson Ave","zipcode":"48214"},{"establishmentid":"1091","name":"River Towers Apartments","address":"7800 E Jefferson Ave","zipcode":"48214"},{"establishmentid":"4817","name":"Craft Work","address":"8047 Agnes St","zipcode":"48214"},{"establishmentid":"4765","name":"Detroit Vegan Soul, LLC","address":"8029 Agnes St","zipcode":"48214"},{"establishmentid":"4953","name":"The Red Hook, Detroit, LLC","address":"8025 Agnes St","zipcode":"48214"},{"establishmentid":"51622473","name":"Yum Village Food Truck Works Detroit","address":"1415 Parker St #867 ","zipcode":"48214"},{"establishmentid":"2497","name":"8330 on the River","address":"8330 E Jefferson Ave","zipcode":"48214"},{"establishmentid":"51622951","name":"Snack Camp","address":"1464 Van Dyke Ave","zipcode":"48214"}],"inspectionsByEstablishmentidList":[{"inspectionid":"50622","inspectionDate":"2020-01-27T00:00:00","inspectionType":"Routine Inspection","inCompliance":"Yes","violationsByInspectionidList":[{"violationCode":"4-302.12","violationDescription":"(A) FOOD TEMPERATURE MEASURING DEVICES shall be provided and readily accessible for use in ensuring attainment and maintenance of FOOD temperatures as specified under Chapter 3. (Pf)   \r\n(B) A TEMPERATURE MEASURING DEVICE with a suitable small-diameter probe that is designed to measure the temperature of thin masses shall be provided and readily accessible to accurately measure the temperature in thin FOODS such as MEAT patties and FISH filets. (Pf)\r\n","violationType":"Foundation","itemDescription":"Food thermometer(s)","subItem":"","problemDescription":"Not provided","subProblem":"","location":"RESTAURANT","subLocation":"Missing Digital Thermometer","corrected":"Yes","daysToCorrect":"10","correctedDate":"2020-02-03T00:00:00","correctionDescription":null},{"violationCode":"2-402.11","violationDescription":"FOOD EMPLOYEES shall wear hair restraints such as hats, hair coverings or nets, beard restraints, and clothing that covers body hair, that are designed and worn to effectively keep their hair from contacting exposed FOOD; clean EQUIPMENT, UTENSILS, and LINENS; or unwrapped SINGLE-SERVICE or SINGLE-USE ARTICLES.","violationType":"Core","itemDescription":"Hair restraint","subItem":"hair/beard net","problemDescription":"Not worn on face","subProblem":"","location":"ESTABLISHMENT","subLocation":"Missing Beard Net","corrected":"Yes","daysToCorrect":"30","correctedDate":"2020-01-30T00:00:00","correctionDescription":"Provide beard net."}]}]}],"maxInspectionDate":[{"inspectionDate":"2020-05-29T00:00:00"}]}},"pageContext":{"eid":"51623103"}}