{"data":{"postgres":{"establishment":[{"establishmentid":"1595","name":"Rabaut's Cafe","address":"18536 E Warren Ave","zipcode":"48236","owner":"Christopher W. Rabaut","licenseNumber":"035867","licenseType":"Fixed Establishment","establishmentType":"Food Service Establishment","establishmentStatus":"Open","riskCategory":null,"reviewFrequencyDays":"180.0","coords":"-82.91376,42.41192","geojson":{"id":"1595","type":"Feature","geometry":{"type":"Point","coordinates":[-82.913759684,42.4119198670001]},"properties":{"name":"Rabaut's Cafe","owner":"Christopher W. Rabaut","address":"18536 E Warren Ave","zipcode":"48236","license_type":"Fixed Establishment","risk_category":null,"license_number":"035867","establishmentid":"1595","establishment_type":"Food Service Establishment","establishment_status":"Open","review_frequency_days":"180.0","most_recent_license_date":"4/26/2018"}},"nearbyList":[{"establishmentid":"51622780","name":"Side Dish","address":"18441 Mack Ave","zipcode":"48236"},{"establishmentid":"2266","name":"Dish","address":"18441 Mack Ave","zipcode":"48236"},{"establishmentid":"4405","name":"McDonald's","address":"18201 Mack Ave","zipcode":"48236"},{"establishmentid":"51622566","name":"ESH Ice Arena","address":"4831 Canyon","zipcode":"48236"},{"establishmentid":"3273","name":"Mack Ave. Subway Foods, LLC","address":"18743 Mack Ave","zipcode":"48236"},{"establishmentid":"4985","name":"Papa John's Pizza","address":"19001 Mack Ave","zipcode":"48236"},{"establishmentid":"4325","name":"Cleopatra","address":"19027 Mack Ave","zipcode":"48236"},{"establishmentid":"987","name":"National Coney Island","address":"19019 Mack Ave","zipcode":"48236"},{"establishmentid":"51622460","name":"Starbuck's Coffee Company","address":"18051 Mack Ave","zipcode":"48224"},{"establishmentid":"1572","name":"Buddy's West, Inc","address":"19163 Mack Ave","zipcode":"48236"}],"inspectionsByEstablishmentidList":[{"inspectionid":"43569","inspectionDate":"2018-09-27T00:00:00","inspectionType":"Routine Inspection","inCompliance":"Yes","violationsByInspectionidList":[]},{"inspectionid":"41964","inspectionDate":"2018-04-18T00:00:00","inspectionType":"Routine Inspection","inCompliance":"Yes","violationsByInspectionidList":[]},{"inspectionid":"40888","inspectionDate":"2017-11-20T00:00:00","inspectionType":"Routine Inspection","inCompliance":"Yes","violationsByInspectionidList":[{"violationCode":"3-101.11","violationDescription":"FOOD shall be safe, unADULTERATED and honestly presented. (P)\r\n","violationType":"Priority","itemDescription":"Food","subItem":"","problemDescription":"Not safe","subProblem":"","location":"REAR STORAGE AREA","subLocation":"Inside the Cooler (upright)","corrected":"Yes","daysToCorrect":"10.0","correctedDate":"2017-11-20T00:00:00","correctionDescription":"Discard."},{"violationCode":"6-501.11","violationDescription":"PHYSICAL FACILITIES shall be maintained in good repair.\r\n","violationType":"Core","itemDescription":"Physical facilities","subItem":"wall(s)","problemDescription":"In poor repair","subProblem":"","location":"REAR AREA","subLocation":"Next to the Handsink","corrected":"Not required","daysToCorrect":"30.0","correctedDate":null,"correctionDescription":null}]},{"inspectionid":"38876","inspectionDate":"2017-06-06T00:00:00","inspectionType":"Routine Inspection","inCompliance":"Yes","violationsByInspectionidList":[{"violationCode":"4-501.11","violationDescription":"EQUIPMENT shall be maintained in a state of repair and condition that meets the requirements of the code.\r\n","violationType":"Core","itemDescription":"Equipment components","subItem":"seals","problemDescription":"In poor repair","subProblem":"","location":"REAR AREA","subLocation":"At the Cooler (4 door)","corrected":"Not required","daysToCorrect":"30.0","correctedDate":null,"correctionDescription":null},{"violationCode":"6-501.12","violationDescription":"(A) PHYSICAL FACILITIES shall be cleaned as often as necessary to keep them clean.\r\n(B) Except spill cleanup, cleaning shall be done during periods when the least amount of FOOD is exposed such as after closing. ","violationType":"Core","itemDescription":"Physical facilities/structures","subItem":"walls","problemDescription":"Not clean","subProblem":"","location":"MOP SINK AREA","subLocation":"At the Electrical outlet wall cover","corrected":"Not required","daysToCorrect":"30.0","correctedDate":null,"correctionDescription":"Clean"}]},{"inspectionid":"37215","inspectionDate":"2016-11-21T00:00:00","inspectionType":"Routine Inspection","inCompliance":"Yes","violationsByInspectionidList":[]}]}]}},"pageContext":{"eid":"1595"}}