{"data":{"site":{"pathPrefix":"/restaurant-inspections"},"postgres":{"establishment":[{"establishmentid":"51622554","name":"Brome Modern Eatery","address":"607 Shelby St","zipcode":"48226","owner":"Sam Abbas","licenseNumber":"226567","licenseType":"Fixed Establishment","establishmentType":"Food Service Establishment","establishmentStatus":"Open","riskCategory":"High","reviewFrequencyDays":"180.0","coords":"-83.04840,42.32928","geojson":{"id":"51622554","type":"Feature","geometry":{"type":"Point","coordinates":[-83.0483959159999,42.329277889]},"properties":{"name":"Brome Modern Eatery","owner":"Sam Abbas","address":"607 Shelby St","zipcode":"48226","license_type":"Fixed Establishment","risk_category":"High","license_number":"226567","establishmentid":"51622554","establishment_type":"Food Service Establishment","establishment_status":"Open","review_frequency_days":"180.0","most_recent_license_date":"8/7/2012"}},"nearbyList":[{"establishmentid":"5298","name":"White House Night Club","address":"625 Shelby","zipcode":"48226"},{"establishmentid":"3513","name":"Blue Star Cafe","address":"239 W Congress St","zipcode":"48226"},{"establishmentid":"1538","name":"Subway","address":"220 W Congress","zipcode":"48226"},{"establishmentid":"3496","name":"The Bean Bar","address":"249 W Congress St","zipcode":"48226"},{"establishmentid":"51622749","name":"Trust Night Club","address":"205 W Congress","zipcode":"4821"},{"establishmentid":"5149","name":"Epitome Lounge","address":"205 W Congress","zipcode":"48226"},{"establishmentid":"4837","name":"Zoom Coney Restaurant","address":"211 W Fort","zipcode":"48226"},{"establishmentid":"5194","name":"The Caucus Club","address":"150 W Congress","zipcode":"48226"},{"establishmentid":"4032","name":"London Chop House","address":"155 W Congress Ste 10","zipcode":"48226"},{"establishmentid":"51622489","name":"Foundation Hotel- Employee Dining","address":"250 W Larned","zipcode":"48226"},{"establishmentid":"5396","name":"Foundation Hotel- Apparatus Room","address":"250 W Larned","zipcode":"48226"},{"establishmentid":"51622490","name":"Foundation Hotel- Chef's Table","address":"250 W Larned","zipcode":"48226"},{"establishmentid":"51622491","name":"Foundation Hotel- Banquet","address":"250 W Larned","zipcode":"48226"},{"establishmentid":"4371","name":"Flat 151","address":"151 W Congress St","zipcode":"48226"},{"establishmentid":"5110","name":"Which Wich? Superior Sandwiches","address":"645 Griswold St Ste. 1300","zipcode":"48226"},{"establishmentid":"4449","name":"Carnival Fresh Mex","address":"645 Griswold St  Ste. 56 ","zipcode":"48226"},{"establishmentid":"4799","name":"Drive Table Tennis Social Club","address":"645 Griswold St ","zipcode":"48226"},{"establishmentid":"3859","name":"Fastbreak Donut (Detroit Donut)","address":"645 Griswold St","zipcode":"48226"},{"establishmentid":"51622865","name":"Lucky's Noble BBQ/Fort Street Galley","address":"160 W Fort St","zipcode":"48226"},{"establishmentid":"51622819","name":"Fort Street Galley (Bar)","address":"160 W Fort St","zipcode":"48226"}],"inspectionsByEstablishmentidList":[{"inspectionid":"43599","inspectionDate":"2018-10-01T00:00:00","inspectionType":"Routine Inspection","inCompliance":"No","violationsByInspectionidList":[{"violationCode":"5-202.12","violationDescription":"(A) A handwashing sink shall be equipped to provide water at a temperature of at least 38°C (100°F) through a mixing valve or combination faucet. (Pf)  \r\n(B) A steam mixing valve may not be used at a handwashing sink.  \r\n(C) A self-closing, slow-closing, or metering faucet shall provide a flow of water for at least 15 seconds without the need to reactivate the faucet.   \r\n(D) An automatic handwashing facility shall be installed in accordance with manufacturer's instructions.\r\n","violationType":"Priority","itemDescription":"Handwashing facility","subItem":"back","problemDescription":"Lack of hot water","subProblem":"","location":"HANDSINK(S)","subLocation":"","corrected":"Yes","daysToCorrect":"10.0","correctedDate":"2018-10-19T00:00:00","correctionDescription":"Provide hot water."},{"violationCode":"4-302.14","violationDescription":"A test kit or other device that accurately measures the concentration in mg/L of SANITIZING solutions shall be provided. (Pf)\r\n","violationType":"Foundation","itemDescription":"Sanitizer test kit","subItem":"chlorine","problemDescription":"Not provided","subProblem":"","location":"FACILITY","subLocation":"","corrected":"No","daysToCorrect":"10.0","correctedDate":null,"correctionDescription":"Provide."},{"violationCode":"4-602.13","violationDescription":"NonFOOD-CONTACT SURFACES of EQUIPMENT shall be cleaned at a frequency necessary to preclude accumulation of soil residues.\r\n","violationType":"Core","itemDescription":"Nonfood contact surface(s)","subItem":"","problemDescription":"Soiled","subProblem":"","location":"DISH MACHINE","subLocation":"","corrected":"Yes","daysToCorrect":"30.0","correctedDate":"2018-10-19T00:00:00","correctionDescription":"Clean."}]},{"inspectionid":"45024","inspectionDate":"2018-05-09T00:00:00","inspectionType":"Preopening/New","inCompliance":"Yes","violationsByInspectionidList":[]}]}]}},"pageContext":{"eid":"51622554"}}