{"data":{"postgres":{"establishment":[{"establishmentid":"340","name":"Little Caesar's Pizza #59","address":"14301 Greenfield Rd","zipcode":"48227","owner":"Little Caesar Enterprises, Inc","licenseNumber":"034041","licenseType":"Fixed Establishment","establishmentType":"Food Service Establishment","establishmentStatus":"Open","riskCategory":null,"reviewFrequencyDays":"365.0","coords":"-83.19893,42.39204","geojson":{"id":"340","type":"Feature","geometry":{"type":"Point","coordinates":[-83.198929423,42.3920442790001]},"properties":{"name":"Little Caesar's Pizza #59","owner":"Little Caesar Enterprises, Inc","address":"14301 Greenfield Rd","zipcode":"48227","license_type":"Fixed Establishment","risk_category":null,"license_number":"034041","establishmentid":"340","establishment_type":"Food Service Establishment","establishment_status":"Open","review_frequency_days":"365.0","most_recent_license_date":"5/11/2018"}},"nearbyList":[{"establishmentid":"641","name":"Korner Coney Island ","address":"14253 Greenfield Rd","zipcode":"48227"},{"establishmentid":"4838","name":"Bread Basket Deli","address":"15603 Grand River Ave","zipcode":"48227"},{"establishmentid":"5385","name":"Yum Yumz Snack Shack LLC","address":"15400 Grand River","zipcode":"48227"},{"establishmentid":"5379","name":"Seven Days Fish & Grill Inc.","address":"15370 Grand River Ave","zipcode":"48227"},{"establishmentid":"5051","name":"Seven Days Fish and Chicken Inc.","address":"15370 Grand River Ave","zipcode":"48227"},{"establishmentid":"1463","name":"Rikshaw House","address":"14135 Greenfield Rd","zipcode":"48227"},{"establishmentid":"5229","name":"Big Star Fish & Seafood Inc.","address":"15540 Grand River","zipcode":"48227"},{"establishmentid":"2393","name":"Cosmos Coney Island","address":"14551 Greenfield Rd","zipcode":"48227"},{"establishmentid":"435","name":"Chita's Nefertiti's Bar","address":"15942 Grand River Ave","zipcode":"48227"},{"establishmentid":"2078","name":"Universal Coney Island","address":"15951 Grand River Ave","zipcode":"48227"},{"establishmentid":"4801","name":"Hot Toppings","address":"15539 Schoolcraft","zipcode":"48227"},{"establishmentid":"51622464","name":"Burger Grille LLC","address":"15539 Schoolcraft","zipcode":"48227"},{"establishmentid":"5228","name":"All Star Fish & Seafood Inc.","address":"13585 Greenfield Rd","zipcode":"48227"},{"establishmentid":"870","name":"Burns Elementary- Middle School","address":"14350 Terry St","zipcode":"48227"},{"establishmentid":"5215","name":"Showtime Ice Cream","address":"12874 Greenfield Rd","zipcode":"48227"},{"establishmentid":"1582","name":"Communication and Media Arts School","address":"14771 Mansfield","zipcode":"48227"},{"establishmentid":"51622734","name":"Club Caribbean Bar & Grill","address":"15331 Fenkell Ave","zipcode":"48227"},{"establishmentid":"4610","name":"Captain Jay's Fish & Chicken #110","address":"15321 Greenfield Rd","zipcode":"48227"},{"establishmentid":"5165","name":"Papa's Pizza","address":"16501 Grand River","zipcode":"48227"},{"establishmentid":"1501","name":"Tubby's Sub Shop #75","address":"16543 Grand River Ave","zipcode":"48227"}],"inspectionsByEstablishmentidList":[{"inspectionid":"42934","inspectionDate":"2018-07-17T00:00:00","inspectionType":"Routine Inspection","inCompliance":"No","violationsByInspectionidList":[{"violationCode":"6-301.12","violationDescription":"Each HANDWASHING SINK or group of adjacent HANDWASHING SINKS shall be provided with:\r\n(A) Individual, disposable towels; (Pf)\r\n(B) A continuous towel system that supplies the user with a clean towel;(Pf) or \r\n(C) A heated-air hand drying device.(Pf)\r\n(D) A hand drying device that employs an air-knife system that delivers high velocity pressurized air at ambient temperatures.(Pf)\r\n","violationType":"Foundation","itemDescription":"Sanitary hand drying provisions","subItem":"disposable, paper towels","problemDescription":"Not provided","subProblem":"At hand sink","location":"HANDSINK(S)","subLocation":"","corrected":"Yes","daysToCorrect":"10.0","correctedDate":"2018-07-17T00:00:00","correctionDescription":"Provide"},{"violationCode":"4-302.14","violationDescription":"A test kit or other device that accurately measures the concentration in mg/L of SANITIZING solutions shall be provided. (Pf)\r\n","violationType":"Foundation","itemDescription":"Sanitizer test kit","subItem":"quaternary ammonia","problemDescription":"Not provided","subProblem":"","location":"3 COMPARTMENT SINK AREA","subLocation":"","corrected":"No","daysToCorrect":"10.0","correctedDate":null,"correctionDescription":"Provide."}]},{"inspectionid":"39232","inspectionDate":"2017-07-05T00:00:00","inspectionType":"Routine Inspection","inCompliance":"Yes","violationsByInspectionidList":[{"violationCode":"5-205.11","violationDescription":"(A) A HANDWASHING SINK shall be maintained so that it is accessible at all times for EMPLOYEE use and used for no other purpose. (Pf)\r\n(B)  An automatic handwashing facility shall be used in accordance with manufacturer's instructions. (Pf)\r\n","violationType":"Foundation","itemDescription":"Handwashing sink(s)","subItem":"","problemDescription":"Not easily accessible","subProblem":"Items stored In","location":"KITCHEN","subLocation":"","corrected":"Yes","daysToCorrect":"10.0","correctedDate":"2017-07-05T00:00:00","correctionDescription":"Remove items from handsink.  Do not store items at handsink."}]}]}]}},"pageContext":{"eid":"340"}}