{"data":{"site":{"pathPrefix":"/restaurant-inspections"},"postgres":{"establishment":[{"establishmentid":"1050","name":"Detroit Robin Inc./Red Robin ","address":"18650 Ford Rd","zipcode":"48228","owner":"Ansara Restaurant Group","licenseNumber":"035110","licenseType":"Fixed Establishment","establishmentType":"Food Service Establishment","establishmentStatus":"Open","riskCategory":"High","reviewFrequencyDays":"180","coords":"-83.22242,42.32929","geojson":{"id":"1050","type":"Feature","geometry":{"type":"Point","coordinates":[-83.222420209,42.329294579]},"properties":{"name":"Detroit Robin Inc./Red Robin ","owner":"Ansara Restaurant Group","address":"18650 Ford Rd","zipcode":"48228","license_type":"Fixed Establishment","risk_category":"High","license_number":"035110","establishmentid":"1050","establishment_type":"Food Service Establishment","establishment_status":"Open","review_frequency_days":"180","most_recent_license_date":null}},"nearbyList":[{"establishmentid":"1515","name":"Pizzaplace Dearborn, Inc","address":"18706 Ford Rd","zipcode":"48228"},{"establishmentid":"1121","name":"Club 228","address":"18728 Ford Rd","zipcode":"48228"},{"establishmentid":"1444","name":"Ford Patio Bar & Grill (Mustang)","address":"18490 Ford Rd","zipcode":"48228"},{"establishmentid":"3673","name":"Tijuana's Authenic Mexican Kitchen","address":"18940 Ford Rd","zipcode":"48228"},{"establishmentid":"1801","name":"Wendy's ","address":"18430 Ford Rd","zipcode":"48228"},{"establishmentid":"1401","name":"Chili's Grill & Bar","address":"5707 Southfield Rd","zipcode":"48228"},{"establishmentid":"1380","name":"Doubletree Detroit/Dearborn","address":"5801 Southfield Rd","zipcode":"48228"},{"establishmentid":"1237","name":"Carver Elementary- Middle School","address":"18701 Paul St","zipcode":"48228"},{"establishmentid":"4284","name":"Detroit Leadership Academy","address":"5845 Auburn St","zipcode":"48228"},{"establishmentid":"442","name":"Adam's Apple","address":"18931 W Warren Ave","zipcode":"48228"}],"inspectionsByEstablishmentidList":[{"inspectionid":"45341","inspectionDate":"2019-02-28T00:00:00","inspectionType":"Routine Inspection","inCompliance":"Yes","violationsByInspectionidList":[{"violationCode":"3-501.18","violationDescription":"A FOOD specified in ¶ 3-501.17(A) or (B) shall be discarded if it:  \r\n    (1) Exceeds the temperature and time combination specified in ¶ 3-501.17(A),              except time that the product is frozen; (P)\r\n    (2) Is in a container or PACKAGE that does not bear a date or day; (P) or\r\n    (3) Is appropriately marked with a date or day that exceeds a temperature and              time combination as specified in ¶ 3-501.17(A). (P)  \r\n\r\n","violationType":"Priority","itemDescription":"Ready to eat, potentially hazardous food(s)","subItem":"","problemDescription":"Beyond consume by date","subProblem":"","location":"WALK-IN COOLER","subLocation":"","corrected":"Yes","daysToCorrect":"10","correctedDate":"2019-02-28T00:00:00","correctionDescription":"Discard."},{"violationCode":"3-501.16","violationDescription":"Except during preparation, cooking, or cooling, or when time is used as the public health control POTENTIALLY HAZARDOUS FOOD (TIME/TEMPERATURE CONTROL FOR SAFETY FOOD) shall be maintained:\r\n(A)  135ºF or above, except that roasts properly cooked and cooled may be held              at a temperature of 130ºF; or (P)\r\n(B)   At 41ºF or less (P)\r\n","violationType":"Priority","itemDescription":"Cold food item(s)","subItem":"","problemDescription":"Stored above 41 degrees F","subProblem":"","location":"COOK LINE AREA","subLocation":"","corrected":"Yes","daysToCorrect":"10","correctedDate":"2019-02-28T00:00:00","correctionDescription":"Store below 41 degrees F."},{"violationCode":"6-301.12","violationDescription":"Each HANDWASHING SINK or group of adjacent HANDWASHING SINKS shall be provided with:\r\n(A) Individual, disposable towels; (Pf)\r\n(B) A continuous towel system that supplies the user with a clean towel;(Pf) or \r\n(C) A heated-air hand drying device.(Pf)\r\n(D) A hand drying device that employs an air-knife system that delivers high velocity pressurized air at ambient temperatures.(Pf)\r\n","violationType":"Foundation","itemDescription":"Sanitary hand drying provisions","subItem":"","problemDescription":"Not provided","subProblem":"","location":"COOK LINE AREA","subLocation":"","corrected":"Yes","daysToCorrect":"10","correctedDate":"2019-02-28T00:00:00","correctionDescription":"Provide adequate sanitary hand drying aids/devices."}]},{"inspectionid":"43219","inspectionDate":"2018-08-21T00:00:00","inspectionType":"Routine Inspection","inCompliance":"No","violationsByInspectionidList":[{"violationCode":"3-501.16","violationDescription":"Except during preparation, cooking, or cooling, or when time is used as the public health control POTENTIALLY HAZARDOUS FOOD (TIME/TEMPERATURE CONTROL FOR SAFETY FOOD) shall be maintained:\r\n(A)  135ºF or above, except that roasts properly cooked and cooled may be held              at a temperature of 130ºF; or (P)\r\n(B)   At 41ºF or less (P)\r\n","violationType":"Priority","itemDescription":"Cold food item(s)","subItem":"","problemDescription":"Stored above 41 degrees F","subProblem":"","location":"COOK LINE AREA","subLocation":"","corrected":"No","daysToCorrect":"10","correctedDate":null,"correctionDescription":"Store below 41 degrees F."}]}]}],"maxInspectionDate":[{"inspectionDate":"2020-10-30T00:00:00"}]}},"pageContext":{"eid":"1050"}}