{"data":{"site":{"pathPrefix":"/restaurant-inspections"},"postgres":{"establishment":[{"establishmentid":"2327","name":"Wendy's ","address":"7850 Gratiot Ave","zipcode":"48213","owner":"Douglas Corp. Of Michigan","licenseNumber":"221956","licenseType":"Fixed Establishment","establishmentType":"Food Service Establishment","establishmentStatus":"Open","riskCategory":"Medium","reviewFrequencyDays":"365.0","coords":"-83.01444,42.37817","geojson":{"id":"2327","type":"Feature","geometry":{"type":"Point","coordinates":[-83.0144443619999,42.3781651260001]},"properties":{"name":"Wendy's ","owner":"Douglas Corp. Of Michigan","address":"7850 Gratiot Ave","zipcode":"48213","license_type":"Fixed Establishment","risk_category":"Medium","license_number":"221956","establishmentid":"2327","establishment_type":"Food Service Establishment","establishment_status":"Open","review_frequency_days":"365.0","most_recent_license_date":"5/2/2018"}},"nearbyList":[{"establishmentid":"1548","name":"Anani ","address":"7650 Gratiot Ave","zipcode":"48213"},{"establishmentid":"932","name":"Brewer's Party Room","address":"8225 Gratiot Ave","zipcode":"48213"},{"establishmentid":"51622687","name":"House of BBQ","address":"8300 Gratiot Ave","zipcode":"48213"},{"establishmentid":"4017","name":"Little Caesars Pizza","address":"7447 Gratiot Ave","zipcode":"48213"},{"establishmentid":"3555","name":"Friends of Detroit & Tri County","address":"8230 E Forest Ave","zipcode":"48214"},{"establishmentid":"4294","name":"King Fish Market","address":"1167 E Grand Blvd","zipcode":"48211"},{"establishmentid":"1302","name":"Krystal's Korner","address":"5700 Canton St","zipcode":"48211"},{"establishmentid":"1244","name":"Bethel Baptist Church East","address":"5715 Holcomb St","zipcode":"48213"},{"establishmentid":"4831","name":"Cesar Chavez Academy - East","address":"4130 Maxwell","zipcode":"48214"},{"establishmentid":"51622851","name":"Dilla's Delights LLC","address":"4731 Bellevue St","zipcode":"48207"}],"inspectionsByEstablishmentidList":[{"inspectionid":"42434","inspectionDate":"2018-06-06T00:00:00","inspectionType":"Routine Inspection","inCompliance":"Yes","violationsByInspectionidList":[{"violationCode":"4-501.11","violationDescription":"EQUIPMENT shall be maintained in a state of repair and condition that meets the requirements of the code.\r\n","violationType":"Core","itemDescription":"Equipment","subItem":"","problemDescription":"In poor repair","subProblem":"","location":"WALK-IN COOLER","subLocation":"Inside the WALK-IN COOLER","corrected":"Yes","daysToCorrect":"30.0","correctedDate":"2018-06-06T00:00:00","correctionDescription":null}]},{"inspectionid":"42433","inspectionDate":"2018-06-06T00:00:00","inspectionType":"Complaint","inCompliance":"Yes","violationsByInspectionidList":[]},{"inspectionid":"40894","inspectionDate":"2017-11-21T00:00:00","inspectionType":"Routine Inspection","inCompliance":"Yes","violationsByInspectionidList":[{"violationCode":"3-501.17","violationDescription":"(A)  READY-TO-EAT, POTENTIALLY HAZARDOUS FOOD (TIME/TEMPERATURE CONTROL FOR SAFETY FOOD)  prepared and held refrigerated for more than 24 hours in a FOOD ESTABLISHMENT  shall be clearly marked at the time of preparation to indicate the date or day by which the FOOD shall be consumed. (Pf)\r\n(B)  A container of refrigerated, commercially prepared READY-TO-EAT POTENTIALLY HAZARDOUS FOOD (TIME/TEMPERATURE CONTROL FOR SAFETY FOOD)  shall be clearly marked, at the time the original container is opened in a FOOD ESTABLISHMENT, to indicate the date or day by which the FOOD shall be consumed. (Pf)\r\n\r\nA date marking system that does not exceed 7 days, including date of preparation, or opening is to be used. (Pf)\r\n","violationType":"Foundation","itemDescription":"In house prepared ready-to-eat potentially hazardous  food(s)","subItem":"","problemDescription":"Improperly date marked","subProblem":"","location":"WALK-IN COOLER","subLocation":"On the Shelf","corrected":"Yes","daysToCorrect":"10.0","correctedDate":"2017-11-22T00:00:00","correctionDescription":"Discard."},{"violationCode":"5-205.15","violationDescription":"A PLUMBING SYSTEM shall be:\r\n(A) Repaired according to LAW; (P) and\r\n(B) Maintained in good repair.\r\n","violationType":"Core","itemDescription":"Plumbing system","subItem":"water line(s)","problemDescription":"Not maintained","subProblem":"","location":"WARE WASHING AREA","subLocation":"At the Three compartment sink","corrected":"Yes","daysToCorrect":"10.0","correctedDate":"2017-11-21T00:00:00","correctionDescription":"Maintain in good repair"}]},{"inspectionid":"37308","inspectionDate":"2016-11-29T00:00:00","inspectionType":"Routine Inspection","inCompliance":"Yes","violationsByInspectionidList":[{"violationCode":"4-602.13","violationDescription":"NonFOOD-CONTACT SURFACES of EQUIPMENT shall be cleaned at a frequency necessary to preclude accumulation of soil residues.\r\n","violationType":"Core","itemDescription":"Nonfood contact surface(s)","subItem":"","problemDescription":"Soiled","subProblem":"","location":"KITCHEN","subLocation":"On top of the Fry Hopper","corrected":"Not required","daysToCorrect":"30.0","correctedDate":null,"correctionDescription":"Keep clean."},{"violationCode":"4-501.11","violationDescription":"EQUIPMENT shall be maintained in a state of repair and condition that meets the requirements of the code.\r\n","violationType":"Core","itemDescription":"Equipment components","subItem":"","problemDescription":"In poor repair","subProblem":"","location":"KITCHEN","subLocation":"Missing Grease collection device","corrected":"Not required","daysToCorrect":"30.0","correctedDate":null,"correctionDescription":null}]}]}],"maxInspectionDate":[{"inspectionDate":"2019-01-31T00:00:00"}]}},"pageContext":{"eid":"2327"}}