{"data":{"site":{"pathPrefix":"/restaurant-inspections"},"postgres":{"establishment":[{"establishmentid":"51623190","name":"Manhattan Fish and Chicken","address":"19240 W Warren Ave","zipcode":"48228","owner":"Raoof Qasam","licenseNumber":"SJ19240","licenseType":"Fixed Establishment","establishmentType":"Food Service Establishment","establishmentStatus":"Open","riskCategory":"High","reviewFrequencyDays":"90.0","coords":"-83.22906,42.34352","geojson":{"id":"51623190","type":"Feature","geometry":{"type":"Point","coordinates":[-83.229064229,42.343515317]},"properties":{"name":"Manhattan Fish and Chicken","owner":"Raoof Qasam","address":"19240 W Warren Ave","zipcode":"48228","license_type":"Fixed Establishment","risk_category":"High","license_number":"SJ19240","establishmentid":"51623190","establishment_type":"Food Service Establishment","establishment_status":"Open","review_frequency_days":"90.0","most_recent_license_date":"4/9/2020"}},"nearbyList":[{"establishmentid":"51623113","name":"Captain Jack Fish & Chicken","address":"19240 W Warren Ave","zipcode":"48228"},{"establishmentid":"1510","name":"New Taystee's Pizza","address":"19240 W Warren Ave","zipcode":"48228"},{"establishmentid":"51622861","name":"Little Pizza","address":"19240 W Warren Ave","zipcode":"48228"},{"establishmentid":"256","name":"Hurry Inn ","address":"19430-32 W Warren Ave","zipcode":"48228"},{"establishmentid":"1933","name":"Warrendale Academy","address":"19400 Sawyer St","zipcode":"48228"},{"establishmentid":"1381","name":"Mr. Steve's Pizza","address":"18940 W Warren Ave","zipcode":"48228"},{"establishmentid":"442","name":"Adam's Apple","address":"18931 W Warren Ave","zipcode":"48228"},{"establishmentid":"665","name":"Chick's Bar","address":"18550 W Warren Ave","zipcode":"48228"},{"establishmentid":"5233","name":"Evergreen Fish Express LLC","address":"6540 Evergreen Rd","zipcode":"48228"},{"establishmentid":"4323","name":"Captain Jay's Fish & Chicken #104","address":"18440 W Warren Ave","zipcode":"48228"}],"inspectionsByEstablishmentidList":[{"inspectionid":"51148","inspectionDate":"2020-03-12T00:00:00","inspectionType":"Routine Inspection","inCompliance":"Yes","violationsByInspectionidList":[{"violationCode":"3-501.17","violationDescription":"(A)  READY-TO-EAT, POTENTIALLY HAZARDOUS FOOD (TIME/TEMPERATURE CONTROL FOR SAFETY FOOD)  prepared and held refrigerated for more than 24 hours in a FOOD ESTABLISHMENT  shall be clearly marked at the time of preparation to indicate the date or day by which the FOOD shall be consumed. (Pf)\r\n(B)  A container of refrigerated, commercially prepared READY-TO-EAT POTENTIALLY HAZARDOUS FOOD (TIME/TEMPERATURE CONTROL FOR SAFETY FOOD)  shall be clearly marked, at the time the original container is opened in a FOOD ESTABLISHMENT, to indicate the date or day by which the FOOD shall be consumed. (Pf)\r\n\r\nA date marking system that does not exceed 7 days, including date of preparation, or opening is to be used. (Pf)\r\n","violationType":"Foundation","itemDescription":"In house prepared ready-to-eat potentially hazardous  food(s)","subItem":"","problemDescription":"Without date of consumption marking","subProblem":"","location":"THROUGHOUT FACILITY","subLocation":"","corrected":"Yes","daysToCorrect":"10","correctedDate":"2020-03-12T00:00:00","correctionDescription":"Datemark with a discard date of 7 days or less."},{"violationCode":"3-302.12","violationDescription":"Except for containers holding FOOD that can be readily and unmistakably recognized such as dry pasta, working containers holding FOOD or FOOD ingredients that are removed from their original packages for use in the FOOD ESTABLISHMENT, such as cooking oils, flour, herbs, potato flakes, salt, spices, and sugar shall be identified with the common name of the FOOD.","violationType":"Core","itemDescription":"Food item(s)","subItem":"","problemDescription":"Not identified","subProblem":"","location":"THROUGHOUT FACILITY","subLocation":"","corrected":"Not required","daysToCorrect":"30","correctedDate":null,"correctionDescription":"Label containers with common name."},{"violationCode":"6-501.12","violationDescription":"(A) PHYSICAL FACILITIES shall be cleaned as often as necessary to keep them clean.\r\n(B) Except spill cleanup, cleaning shall be done during periods when the least amount of FOOD is exposed such as after closing. ","violationType":"Core","itemDescription":"Physical facilities/structures","subItem":"","problemDescription":"Not clean","subProblem":"","location":"THROUGHOUT FACILITY","subLocation":"","corrected":"Not required","daysToCorrect":"30","correctedDate":null,"correctionDescription":"Clean"}]}]}],"maxInspectionDate":[{"inspectionDate":"2020-05-29T00:00:00"}]}},"pageContext":{"eid":"51623190"}}