{"componentChunkName":"component---src-templates-establishment-page-js","path":"/establishment/5400","result":{"data":{"site":{"pathPrefix":"/restaurant-inspections"},"postgres":{"establishment":[{"establishmentid":"5400","name":"Hubbell Fish & Chicken","address":"14535 Fenkell","zipcode":"48227","owner":"Amjad M Al Sanai","licenseNumber":"221036","licenseType":"Fixed Establishment","establishmentType":"Food Service Establishment","establishmentStatus":"Temporarily Closed","riskCategory":"High","reviewFrequencyDays":"150","coords":"-83.18845,42.40158","geojson":{"id":"5400","type":"Feature","geometry":{"type":"Point","coordinates":[-83.188447871,42.401577446]},"properties":{"name":"Hubbell Fish & Chicken","owner":"Amjad M Al Sanai","address":"14535 Fenkell","zipcode":"48227","license_type":"Fixed Establishment","risk_category":"High","license_number":"221036","establishmentid":"5400","establishment_type":"Food Service Establishment","establishment_status":"Temporarily Closed","review_frequency_days":"150","most_recent_license_date":null}},"nearbyList":[{"establishmentid":"51622917","name":"Yoshi Hibachi Grille/Yum Yoshi LLC","address":"14535 Fenkell","zipcode":"48203"},{"establishmentid":"4144","name":"Lucky's Pizza","address":"14535 Fenkell St.","zipcode":"48227"},{"establishmentid":"4108","name":"Captain Crust II","address":"14535 Fenkell","zipcode":"48227"},{"establishmentid":"5184","name":"Fats Pizza & Grill LLC","address":"14535 Fenkell Ave.","zipcode":"48227"},{"establishmentid":"3406","name":"Poppy's Pizza","address":"14545 Fenkell","zipcode":"48227"},{"establishmentid":"4298","name":"Michigan Starz Dairy","address":"14501 Fenkell St.","zipcode":"48227"},{"establishmentid":"51623546","name":"Urban Grill  ","address":"14501 Fenkell ","zipcode":"48227"},{"establishmentid":"871","name":"Cooley High School","address":"15055 Hubbell","zipcode":"48227"},{"establishmentid":"51623360","name":"5 Mile Grill","address":"14300 Fenkell","zipcode":"48227"},{"establishmentid":"5153","name":"Davis Coney Island","address":"14228 Fenkell Ave.","zipcode":"48227"}],"inspectionsByEstablishmentidList":[{"inspectionid":"41000","inspectionDate":"2017-12-07T00:00:00","inspectionType":"Routine Inspection","inCompliance":"No","violationsByInspectionidList":[{"violationCode":"3-602.11","violationDescription":"(A)  FOOD PACKAGED in a FOOD ESTABLISHMENT, shall be labeled as specified in LAW. \n(B) The name of the FOOD source for each MAJOR FOOD ALLERGEN contained in the FOOD unless the FOOD source is already part of the common or usual name of the respective ingredient. (Pf)\n(C)  Bulk FOOD that is available for CONSUMER self-dispensing shall be prominently labeled with the following information in plain view of the CONSUMER:\n(1)  the manufacturer's or processor's label that was provided with the  FOOD; or \n(2)  A card, sign, or other method of notification that includes the information required by law. \n","violationType":"Foundation","itemDescription":"Packaged food label(s)","subItem":null,"problemDescription":"Do not include","subProblem":"List of ingredients","location":"DISPLAY COUNTER","subLocation":null,"corrected":"False","daysToCorrect":"10","correctedDate":null,"correctionDescription":"Provide."},{"violationCode":"4-602.13","violationDescription":"NonFOOD-CONTACT SURFACES of EQUIPMENT shall be cleaned at a frequency necessary to preclude accumulation of soil residues.\n","violationType":"Core","itemDescription":"Nonfood contact surface(s)","subItem":null,"problemDescription":"Soiled","subProblem":null,"location":"WALK-IN COOLER","subLocation":null,"corrected":"False","daysToCorrect":"30","correctedDate":null,"correctionDescription":"Clean."},{"violationCode":"6-201.11","violationDescription":"Except otherwise approved, and except for antislip floor coverings or applications may be used for safety reasons, floors, floor coverings, walls, wall coverings, and ceilings shall be designed, constructed, and installed so they are SMOOTH and EASILY CLEANABLE.\n","violationType":"Core","itemDescription":"Floor(s)","subItem":null,"problemDescription":"Not smooth and easily cleanable","subProblem":null,"location":"FLOOR","subLocation":null,"corrected":"False","daysToCorrect":"30","correctedDate":null,"correctionDescription":"Repair/replace to be smooth."}]}]}],"maxInspectionDate":[{"inspectionDate":"2022-07-25T00:00:00"}]}},"pageContext":{"eid":"5400"}},"staticQueryHashes":["3649515864","63159454"]}