{"data":{"site":{"pathPrefix":"/restaurant-inspections"},"postgres":{"establishment":[{"establishmentid":"995","name":"Harms School Elementary","address":"2400 Central Ave","zipcode":"48209","owner":"Bd of Ed City of Detroit","licenseNumber":"035042","licenseType":"Fixed Establishment","establishmentType":"Public School","establishmentStatus":"Open","riskCategory":null,"reviewFrequencyDays":"210.0","coords":"-83.12499,42.31427","geojson":{"id":"995","type":"Feature","geometry":{"type":"Point","coordinates":[-83.124986537,42.3142709790001]},"properties":{"name":"Harms School Elementary","owner":"Bd of Ed City of Detroit","address":"2400 Central Ave","zipcode":"48209","license_type":"Fixed Establishment","risk_category":null,"license_number":"035042","establishmentid":"995","establishment_type":"Public School","establishment_status":"Open","review_frequency_days":"210.0","most_recent_license_date":"4/15/2019"}},"nearbyList":[{"establishmentid":"4358","name":"Domino's Pizza","address":"7603 W Vernor St","zipcode":"48209"},{"establishmentid":"279","name":"Pauls Pizzeria","address":"7635 W Vernor St","zipcode":"48209"},{"establishmentid":"3849","name":"El Kiosko","address":"7271 Dix Ave","zipcode":"48209"},{"establishmentid":"51622476","name":"Mi Pueblo Express","address":"7271 Dix Ave","zipcode":"48209"},{"establishmentid":"514","name":"Taqueria Mi Pueblo","address":"7278 Dix Ave","zipcode":"48209"},{"establishmentid":"5223","name":"Primo's Tacos","address":"7643 Dix Ave","zipcode":"48216"},{"establishmentid":"1015","name":"Casey's Bar L.L.C.","address":"7677 Dix Ave","zipcode":"48209"},{"establishmentid":"3858","name":"Pollos Los Gallos","address":"7135 Dix Ave","zipcode":"48209"},{"establishmentid":"5082","name":"El Caribeno","address":"8065 Vernor Hwy","zipcode":"48209"},{"establishmentid":"51622723","name":"Vitamin Juice ","address":"2030 Springwells St","zipcode":"48209"}],"inspectionsByEstablishmentidList":[{"inspectionid":"44365","inspectionDate":"2018-12-04T00:00:00","inspectionType":"Routine Inspection","inCompliance":"Yes","violationsByInspectionidList":[{"violationCode":"MFL289.2129","violationDescription":"Sec. 2129. (1) All food establishments shall employ a minimum of 1 managerial employee as a food safety manager, who must be an individual who is currently certified under a personnel certification program accredited by the American National Standards Institute, utilizing the Conference for Food Protection standards:\r\n(2) Beginning January 14, 2017 and every 5 years thereafter, a certified  food safety manager who supervises the operations of a food service establishment shall have completed a food safety training program\r\ncontaining an allergen awareness  component that has been approved by  the department. A food service establishment shall retain records on the  site of the food service establishment documenting compliance of its  certified food safety managers with this subsection. ","violationType":"Core","itemDescription":"Person-in-charge","subItem":"","problemDescription":null,"subProblem":"","location":"ESTABLISHMENT","subLocation":"","corrected":"Not required","daysToCorrect":"30.0","correctedDate":null,"correctionDescription":null},{"violationCode":"4-501.11","violationDescription":"EQUIPMENT shall be maintained in a state of repair and condition that meets the requirements of the code.\r\n","violationType":"Core","itemDescription":"Equipment","subItem":"","problemDescription":"Broken","subProblem":"","location":"KITCHEN","subLocation":"and the Back Room","corrected":"Not required","daysToCorrect":"30.0","correctedDate":null,"correctionDescription":"Repair/replace."},{"violationCode":"6-501.111","violationDescription":"The presence of insects, rodents, and other pests shall be controlled to minimize their presence on the PREMISES.  by:\r\n(A) Routinely inspecting incoming shipments of FOOD and supplies; \r\n(B) Routinely inspecting the PREMISES for evidence of pests;\r\n(C) Using methods, if pests are found, such as trapping devices or other means of pest control as specified.(Pf) \r\n(D) Eliminating harborage conditions. \r\n","violationType":"Core","itemDescription":"Pest(s)","subItem":"","problemDescription":"Present in facility","subProblem":"","location":"KITCHEN","subLocation":"and the Back Room","corrected":"Not required","daysToCorrect":"10.0","correctedDate":null,"correctionDescription":"Remove pests from facility."}]},{"inspectionid":"40454","inspectionDate":"2017-10-10T00:00:00","inspectionType":"Routine Inspection","inCompliance":"Yes","violationsByInspectionidList":[{"violationCode":"4-501.11","violationDescription":"EQUIPMENT shall be maintained in a state of repair and condition that meets the requirements of the code.\r\n","violationType":"Core","itemDescription":"Equipment","subItem":"","problemDescription":"Broken","subProblem":"","location":"Refrigerator","subLocation":"","corrected":"Not required","daysToCorrect":"30.0","correctedDate":null,"correctionDescription":"Repair/replace."}]},{"inspectionid":"38706","inspectionDate":"2017-05-11T00:00:00","inspectionType":"Routine Inspection","inCompliance":"Yes","violationsByInspectionidList":[]},{"inspectionid":"37065","inspectionDate":"2016-10-19T00:00:00","inspectionType":"Routine Inspection","inCompliance":"Yes","violationsByInspectionidList":[]}]}],"maxInspectionDate":[{"inspectionDate":"2019-05-31T00:00:00"}]}},"pageContext":{"eid":"995"}}