{"componentChunkName":"component---src-templates-establishment-page-js","path":"/establishment/1199","result":{"data":{"site":{"pathPrefix":"/restaurant-inspections"},"postgres":{"establishment":[{"establishmentid":"1199","name":"Taco Bell #24449","address":"15624 McNichols Rd. W.","zipcode":"48235","owner":"Sundance, Inc./Pete Lyders","licenseNumber":"060509","licenseType":"Fixed Establishment","establishmentType":"Food Service Establishment","establishmentStatus":"Open","riskCategory":null,"reviewFrequencyDays":"335","coords":"-83.20123,42.41623","geojson":{"id":"1199","type":"Feature","geometry":{"type":"Point","coordinates":[-83.201228974,42.416232045]},"properties":{"name":"Taco Bell #24449","owner":"Sundance, Inc./Pete Lyders","address":"15624 McNichols Rd. W.","zipcode":"48235","license_type":"Fixed Establishment","risk_category":null,"license_number":"060509","establishmentid":"1199","establishment_type":"Food Service Establishment","establishment_status":"Open","review_frequency_days":"335","most_recent_license_date":"6/4/2022"}},"nearbyList":[{"establishmentid":"4271","name":"Sweetwater Express","address":"15640 McNichols Rd. W.","zipcode":"48235"},{"establishmentid":"3660","name":"Big Mouth Cheese Steak & Hoagies","address":"15640 McNichols Rd. W.","zipcode":"48235"},{"establishmentid":"4104","name":"Wheaties Deli","address":"15640  McNichols Rd. W.","zipcode":"48235"},{"establishmentid":"4732","name":"Chicare Fresh Fish Market","address":"15635  W. McNichols","zipcode":"48235"},{"establishmentid":"51623303","name":"Detroit Fresh Market Chick Fish Hub","address":"15635 McNichols W.","zipcode":"48235"},{"establishmentid":"1330","name":"McDonald's #6799","address":"15550 McNichols Rd. W.","zipcode":"48235"},{"establishmentid":"51622870","name":"Wild Wild West Wings","address":"15535  McNichols W.","zipcode":"48235"},{"establishmentid":"1413","name":"Lady Louisa's Place","address":"15535 McNichols Rd. W.","zipcode":"48235"},{"establishmentid":"1939","name":"Subway #11782","address":"15811 McNichols Ave. W. ","zipcode":"48235"},{"establishmentid":"3116","name":"Kelly's Mobile Subway","address":"15811 McNichols Ave. W.","zipcode":"48235"}],"inspectionsByEstablishmentidList":[{"inspectionid":"60384","inspectionDate":"2022-09-28T00:00:00","inspectionType":"Routine Inspection","inCompliance":"Yes","violationsByInspectionidList":[]},{"inspectionid":"55889","inspectionDate":"2021-08-19T00:00:00","inspectionType":"Routine Inspection","inCompliance":"Yes","violationsByInspectionidList":[]},{"inspectionid":"51364","inspectionDate":"2020-04-01T00:00:00","inspectionType":"Complaint","inCompliance":"Yes","violationsByInspectionidList":[]},{"inspectionid":"51678","inspectionDate":"2020-04-01T00:00:00","inspectionType":"COVID19/phone- low","inCompliance":"Yes","violationsByInspectionidList":[]},{"inspectionid":"47667","inspectionDate":"2019-05-11T00:00:00","inspectionType":"Routine Inspection","inCompliance":"Yes","violationsByInspectionidList":[{"violationCode":"4-302.14","violationDescription":"A test kit or other device that accurately measures the concentration in mg/L of SANITIZING solutions shall be provided. (Pf)\n","violationType":"Foundation","itemDescription":"Sanitizer test kit","subItem":"quaternary ammonia","problemDescription":"Not provided","subProblem":"","location":"3 COMPARTMENT SINK AREA","subLocation":"","corrected":"True","daysToCorrect":"10","correctedDate":"0001-01-01T00:00:00","correctionDescription":null},{"violationCode":"4-602.13","violationDescription":"NonFOOD-CONTACT SURFACES of EQUIPMENT shall be cleaned at a frequency necessary to preclude accumulation of soil residues.\n","violationType":"Core","itemDescription":"Nonfood contact surface(s)","subItem":"","problemDescription":"With accumulation of debris","subProblem":"","location":"KITCHEN","subLocation":"","corrected":"False","daysToCorrect":"30","correctedDate":null,"correctionDescription":null},{"violationCode":"6-501.12","violationDescription":"(A) PHYSICAL FACILITIES shall be cleaned as often as necessary to keep them clean.\n(B) Except spill cleanup, cleaning shall be done during periods when the least amount of FOOD is exposed such as after closing. ","violationType":"Core","itemDescription":"Physical facilities/structures","subItem":"floors","problemDescription":"Soiled","subProblem":"","location":"PHYSICAL FACILITIES","subLocation":"","corrected":"False","daysToCorrect":"30","correctedDate":null,"correctionDescription":null}]},{"inspectionid":"42308","inspectionDate":"2018-05-23T00:00:00","inspectionType":"Routine Inspection","inCompliance":"Yes","violationsByInspectionidList":[]},{"inspectionid":"39037","inspectionDate":"2017-06-13T00:00:00","inspectionType":"Routine Inspection","inCompliance":"Yes","violationsByInspectionidList":[]}]}],"maxInspectionDate":[{"inspectionDate":"2023-04-13T00:00:00"}]}},"pageContext":{"eid":"1199"}},"staticQueryHashes":["3649515864","63159454"]}