{"componentChunkName":"component---src-templates-establishment-page-js","path":"/establishment/51622772","result":{"data":{"site":{"pathPrefix":"/restaurant-inspections"},"postgres":{"establishment":[{"establishmentid":"51622772","name":"Get Back Up Inc. East","address":"4216 McDougall","zipcode":"48207","owner":"Dr. William L. Taylor","licenseNumber":"229202","licenseType":"Fixed Establishment","establishmentType":"Food Service Establishment","establishmentStatus":"Open","riskCategory":"High","reviewFrequencyDays":"150","coords":"-83.03227,42.36275","geojson":{"id":"51622772","type":"Feature","geometry":{"type":"Point","coordinates":[-83.032274089,42.362754306]},"properties":{"name":"Get Back Up Inc. East","owner":"Dr. William L. Taylor","address":"4216 McDougall","zipcode":"48207","license_type":"Fixed Establishment","risk_category":"High","license_number":"229202","establishmentid":"51622772","establishment_type":"Food Service Establishment","establishment_status":"Open","review_frequency_days":"150","most_recent_license_date":"5/2/2022"}},"nearbyList":[{"establishmentid":"4188","name":"St. Rose Senior Center/St. Elizabeth","address":"3127 Canfield St. E.","zipcode":"48207"},{"establishmentid":"1260","name":"Sophie Wright Settlements","address":"4141 Mitchell","zipcode":"48207"},{"establishmentid":"4926","name":"Boggs, James & Grace Lee Boggs School","address":"4141 Mitchell","zipcode":"48207"},{"establishmentid":"548","name":"Israel of God Church","address":"3533 Forest Ave. E.","zipcode":"48207"},{"establishmentid":"2137","name":"K & D","address":"3177 Mack Ave.","zipcode":"48234"},{"establishmentid":"2479","name":"K & D ICE CREAM","address":"3177 MACK","zipcode":"48234"},{"establishmentid":"311","name":"Odell's Lounge","address":"4200 Chene","zipcode":"48207"},{"establishmentid":"2507","name":"Robinson Dairy Vending","address":"3579 Gratiot","zipcode":"48207"},{"establishmentid":"1792","name":"Metro Vending","address":"3579 Gratiot","zipcode":"48207"},{"establishmentid":"1805","name":"Robinson Dairy Vending","address":"3300 Mack","zipcode":"48207"}],"inspectionsByEstablishmentidList":[{"inspectionid":"50585","inspectionDate":"2020-01-28T00:00:00","inspectionType":"Routine Inspection","inCompliance":"Yes","violationsByInspectionidList":[{"violationCode":"4-602.13","violationDescription":"NonFOOD-CONTACT SURFACES of EQUIPMENT shall be cleaned at a frequency necessary to preclude accumulation of soil residues.\n","violationType":"Core","itemDescription":"Nonfood contact surface(s)","subItem":null,"problemDescription":"With accumulation of debris","subProblem":null,"location":"KITCHEN","subLocation":"Inside the Stove","corrected":"True","daysToCorrect":"30","correctedDate":"2020-01-28T00:00:00","correctionDescription":"Keep clean."}]},{"inspectionid":"43143","inspectionDate":"2018-08-15T00:00:00","inspectionType":"Routine Inspection","inCompliance":"No","violationsByInspectionidList":[{"violationCode":"4-302.12","violationDescription":"(A) FOOD TEMPERATURE MEASURING DEVICES shall be provided and readily accessible for use in ensuring attainment and maintenance of FOOD temperatures as specified under Chapter 3. (Pf)   \n(B) A TEMPERATURE MEASURING DEVICE with a suitable small-diameter probe that is designed to measure the temperature of thin masses shall be provided and readily accessible to accurately measure the temperature in thin FOODS such as MEAT patties and FISH filets. (Pf)\n","violationType":"Foundation","itemDescription":"Food thermometer(s)","subItem":"probe","problemDescription":"Not provided","subProblem":null,"location":"KITCHEN","subLocation":"No Thermometer(s)","corrected":"False","daysToCorrect":"10","correctedDate":null,"correctionDescription":"Provide as required"},{"violationCode":"4-302.14","violationDescription":"A test kit or other device that accurately measures the concentration in mg/L of SANITIZING solutions shall be provided. (Pf)\n","violationType":"Foundation","itemDescription":"Sanitizer test kit","subItem":"chlorine","problemDescription":"Not provided","subProblem":null,"location":"KITCHEN","subLocation":"No Test strips","corrected":"False","daysToCorrect":"10","correctedDate":null,"correctionDescription":"Provide as required"},{"violationCode":"4-501.11","violationDescription":"EQUIPMENT shall be maintained in a state of repair and condition that meets the requirements of the code.\n","violationType":"Core","itemDescription":"Equipment components","subItem":"seals","problemDescription":"Broken","subProblem":null,"location":"DINING AREA","subLocation":"Inside the Cooler (2 door)","corrected":"False","daysToCorrect":"30","correctedDate":null,"correctionDescription":"Repair/replace."},{"violationCode":"6-501.11","violationDescription":"PHYSICAL FACILITIES shall be maintained in good repair.\n","violationType":"Core","itemDescription":"Physical facilities","subItem":"wall(s)","problemDescription":"In poor repair","subProblem":null,"location":"DINING AREA","subLocation":"At the Wall(s)","corrected":"False","daysToCorrect":"30","correctedDate":null,"correctionDescription":null}]},{"inspectionid":"43614","inspectionDate":"2018-08-09T00:00:00","inspectionType":"Preopening/New","inCompliance":"Yes","violationsByInspectionidList":[{"violationCode":"6-303.11","violationDescription":"Light of the proper intensity shall be provided as specified.\n","violationType":"Core","itemDescription":"Lighting intensity","subItem":null,"problemDescription":"Less than","subProblem":"50 foot candles","location":"COOK LINE AREA","subLocation":"Light intensity","corrected":"False","daysToCorrect":"30","correctedDate":null,"correctionDescription":"Provide as required"}]}]}],"maxInspectionDate":[{"inspectionDate":"2022-07-25T00:00:00"}]}},"pageContext":{"eid":"51622772"}},"staticQueryHashes":["3649515864","63159454"]}