{"data":{"site":{"pathPrefix":"/restaurant-inspections"},"postgres":{"establishment":[{"establishmentid":"51622841","name":"Frita Batidos","address":"66 Columbia St","zipcode":"48201","owner":"Eve Aronoff Fernandez","licenseNumber":"241585","licenseType":"Fixed Establishment","establishmentType":"Food Service Establishment","establishmentStatus":"Open","riskCategory":"High","reviewFrequencyDays":"180","coords":"-83.05323,42.33790","geojson":{"id":"51622841","type":"Feature","geometry":{"type":"Point","coordinates":[-83.053226347,42.337903264]},"properties":{"name":"Frita Batidos","owner":"Eve Aronoff Fernandez","address":"66 Columbia St","zipcode":"48201","license_type":"Fixed Establishment","risk_category":"High","license_number":"241585","establishmentid":"51622841","establishment_type":"Food Service Establishment","establishment_status":"Open","review_frequency_days":"180","most_recent_license_date":"3/19/2019"}},"nearbyList":[{"establishmentid":"51622957","name":"Town Pump Tavern","address":"2233 Park Ave ","zipcode":"48226"},{"establishmentid":"4340","name":"Hot Taco","address":"2233 Park Ave","zipcode":"48201"},{"establishmentid":"3172","name":"Centaur Bar","address":"2233 Park Avenue","zipcode":"48201-34"},{"establishmentid":"377","name":"Fox Theatre","address":"2211 Woodward Ave","zipcode":"48201"},{"establishmentid":"51622916","name":"Starbucks Coffee #54775","address":"2211 Woodward Ave","zipcode":"48224"},{"establishmentid":"1701","name":"Town Pump Tavern","address":"100 Montcalm W","zipcode":"48201"},{"establishmentid":"51623070","name":"Rush Bowls","address":"22 W Columbia St","zipcode":"48201"},{"establishmentid":"1586","name":"Hockey Town Cafe","address":"2301 Woodward Ave","zipcode":"48201"},{"establishmentid":"296","name":"Da Edoardo Foxtown Grille","address":"2203 Woodward Ave","zipcode":"48201"},{"establishmentid":"3996","name":"Park Bar","address":"2040 Park Ave","zipcode":"48201"}],"inspectionsByEstablishmentidList":[{"inspectionid":"50264","inspectionDate":"2020-01-07T00:00:00","inspectionType":"Routine Inspection","inCompliance":"Yes","violationsByInspectionidList":[{"violationCode":"2-301.14","violationDescription":"FOOD EMPLOYEES shall clean their hands and exposed portions of their arms as specified under § 2-301.12 immediately before engaging in FOOD preparation including working with exposed FOOD, clean EQUIPMENT and UTENSILS, and unwrapped SINGLE-SERVICE and SINGLE-USE ARTICLES (P) and:\r\n(A)     After touching bare human body parts other than clean hands and clean, exposed portions of arms; (P)\r\n(B)     After using the toilet room; (P)\r\n(C)     After caring for or handling SERVICE ANIMALS or aquatic animals as specified in ¶ 2-403.11(B); (P).\r\n(D)     Except as specified in ¶ 2-401.11(B), after coughing, sneezing, using a handkerchief or disposable tissue, using tobacco, eating, or drinking; (P)\r\n(E)     After handling soiled EQUIPMENT or UTENSILS; (P)\r\n(F)     During FOOD preparation, as often as necessary to remove soil and contamination and to prevent cross contamination when changing tasks; (P)\r\n(G)     When switching between working with raw FOOD and working with READY-TO-EAT FOOD; (P)\r\n(H)     Before donning gloves for working with FOOD; (P) and\r\n(I)      After engaging in other activities that contaminate the hands. (P)","violationType":"Priority","itemDescription":"Employee(s)","subItem":"","problemDescription":"Did not wash hands","subProblem":" after handling soiled equipment, surfaces, utensils","location":"DISHWASHING AREA","subLocation":"","corrected":"Yes","daysToCorrect":"10","correctedDate":"2020-01-07T00:00:00","correctionDescription":"Hands shall be washed with hot water and soap for at least 20 seconds after contamination."},{"violationCode":"5-205.11","violationDescription":"(A) A HANDWASHING SINK shall be maintained so that it is accessible at all times for EMPLOYEE use and used for no other purpose. (Pf)\r\n(B)  An automatic handwashing facility shall be used in accordance with manufacturer's instructions. (Pf)\r\n","violationType":"Foundation","itemDescription":"Handwashing sink(s)","subItem":"","problemDescription":"Not easily accessible","subProblem":"Items stored In","location":"FRONT AREA","subLocation":"","corrected":"Yes","daysToCorrect":"10","correctedDate":"2020-01-07T00:00:00","correctionDescription":null},{"violationCode":"6-301.11","violationDescription":"Each HANDWASHING SINK or group of 2 adjacent HANDWASHING SINKS shall be provided with a supply of hand cleaning liquid, powder, or bar soap. (Pf)\r\n","violationType":"Foundation","itemDescription":"Soap","subItem":"at handsink dishwash area","problemDescription":"Not provided","subProblem":"At hand sink","location":"DISHWASHING AREA","subLocation":"","corrected":"Yes","daysToCorrect":"10","correctedDate":"2020-01-07T00:00:00","correctionDescription":null},{"violationCode":"6-501.18","violationDescription":"PLUMBING FIXTURES such as HANDWASHING SINKS, toilets, and urinals shall be cleaned as often as necessary to keep them clean. \r\n","violationType":"Core","itemDescription":"Handwashing facility","subItem":"back","problemDescription":"Not clean","subProblem":"","location":"DISHWASHING AREA","subLocation":"","corrected":"Not required","daysToCorrect":"30","correctedDate":null,"correctionDescription":null}]}]}],"maxInspectionDate":[{"inspectionDate":"2020-05-29T00:00:00"}]}},"pageContext":{"eid":"51622841"}}