{"componentChunkName":"component---src-templates-establishment-page-js","path":"/establishment/51623132","result":{"data":{"site":{"pathPrefix":"/restaurant-inspections"},"postgres":{"establishment":[{"establishmentid":"51623132","name":"Milk & Froth","address":"535  Griswold St.","zipcode":"48226","owner":"Deion Cao","licenseNumber":"252345","licenseType":"Fixed Establishment","establishmentType":"Food Service Establishment","establishmentStatus":"Open","riskCategory":"High","reviewFrequencyDays":"150","coords":"-83.04693,42.32943","geojson":{"id":"51623132","type":"Feature","geometry":{"type":"Point","coordinates":[-83.046929878,42.32942888]},"properties":{"name":"Milk & Froth","owner":"Deion Cao","address":"535  Griswold St.","zipcode":"48226","license_type":"Fixed Establishment","risk_category":"High","license_number":"252345","establishmentid":"51623132","establishment_type":"Food Service Establishment","establishment_status":"Open","review_frequency_days":"150","most_recent_license_date":null}},"nearbyList":[{"establishmentid":"334","name":"Starbucks Coffee Co #2319","address":"535 Griswold St.","zipcode":null},{"establishmentid":"4813","name":"Griswold Bagels & Deli","address":"535 Griswold","zipcode":null},{"establishmentid":"4946","name":"Dominos Pizza","address":"535 Griswold","zipcode":"48226"},{"establishmentid":"3583","name":"Frank's Deli in the Buhl","address":"535 Griswold St.","zipcode":"48226"},{"establishmentid":"2495","name":"Franks In The Buhl","address":"535 Griswold  Ste. 114","zipcode":"48226"},{"establishmentid":"3234","name":"Quizno's","address":"535 Griswold St.","zipcode":"48226"},{"establishmentid":"4393","name":"The Buhl Bar","address":"535 Griswold","zipcode":"48226"},{"establishmentid":"2704","name":"Jimmy John's Sandwiches #573","address":"615 Griswold","zipcode":"48226"},{"establishmentid":"3235","name":"Metro Pita","address":"615 Griswold St.","zipcode":"48226"},{"establishmentid":"3791","name":"Mr. Pita","address":"615 Griswold","zipcode":"48226"}],"inspectionsByEstablishmentidList":[{"inspectionid":"57396","inspectionDate":"2022-02-23T00:00:00","inspectionType":"Routine Inspection","inCompliance":"No","violationsByInspectionidList":[{"violationCode":"3-602.11","violationDescription":"(A)  FOOD PACKAGED in a FOOD ESTABLISHMENT, shall be labeled as specified in LAW. \n(B) The name of the FOOD source for each MAJOR FOOD ALLERGEN contained in the FOOD unless the FOOD source is already part of the common or usual name of the respective ingredient. (Pf)\n(C)  Bulk FOOD that is available for CONSUMER self-dispensing shall be prominently labeled with the following information in plain view of the CONSUMER:\n(1)  the manufacturer's or processor's label that was provided with the  FOOD; or \n(2)  A card, sign, or other method of notification that includes the information required by law. \n","violationType":"Foundation","itemDescription":"Packaged food label(s)","subItem":null,"problemDescription":"Do not include","subProblem":"List of ingredients","location":"FREEZER","subLocation":null,"corrected":"False","daysToCorrect":"10","correctedDate":null,"correctionDescription":"Provide."},{"violationCode":"MFL289.4119","violationDescription":"Sec. 4119. (1) Except as otherwise provided in subsection (2), a person licensed as a food establishment under this chapter shall keep a copy of the current license or temporary license furnished by the department posted and exposed in a conspicuous place for public inspection. A conspicuous place is the principal place where food business is transacted.  (2) In the case of vending machines, the name and address and telephone number of the current vending machine location operator shall be conspicuously displayed on each vending machine.","violationType":"Core","itemDescription":"Food Service License","subItem":null,"problemDescription":"Not displayed","subProblem":null,"location":"FACILITY","subLocation":null,"corrected":"False","daysToCorrect":"30","correctedDate":null,"correctionDescription":null},{"violationCode":"3-304.12","violationDescription":"During pauses in FOOD preparation or dispensing, UTENSILS shall be stored:\n(A) In the FOOD with their handles above the top of the FOOD and the container;\n(B) In FOOD that is not POTENTIALLY HAZARDOUS with their handles above the      top of the FOOD within containers or EQUIPMENT that can be closed, such as      bins of sugar, flour, or cinnamon;\n(C) On a clean portion of the FOOD preparation table or cooking EQUIPMENT\n(D)  In running water, such as dipper well.\n(E)  In a clean, protected location if the UTENSILS, such as ice scoops, are   used only with a FOOD that is not POTENTIALLY HAZARDOUS; or\n(F)  In a container of water maintained at a temperature of at least 135Â° F.\n","violationType":"Core","itemDescription":"Dispensing utensil(s)","subItem":null,"problemDescription":"Improperly stored","subProblem":"In standing water Dipper well turned off","location":"ICE CREAM STATION","subLocation":null,"corrected":"False","daysToCorrect":"30","correctedDate":null,"correctionDescription":"Keep dipper well turned on."}]},{"inspectionid":"53319","inspectionDate":"2020-11-06T00:00:00","inspectionType":"Preopening/New","inCompliance":"Yes","violationsByInspectionidList":[]}]}],"maxInspectionDate":[{"inspectionDate":"2022-08-31T00:00:00"}]}},"pageContext":{"eid":"51623132"}},"staticQueryHashes":["3649515864","63159454"]}