{"data":{"site":{"pathPrefix":"/restaurant-inspections"},"postgres":{"establishment":[{"establishmentid":"51622584","name":"Conant St. Grill","address":"19132 Conant ","zipcode":"48234","owner":"Lamont Mapps","licenseNumber":"217960","licenseType":"Fixed Establishment","establishmentType":null,"establishmentStatus":"Permanently Closed","riskCategory":null,"reviewFrequencyDays":"90.0","coords":"-83.07379,42.43346","geojson":{"id":"51622584","type":"Feature","geometry":{"type":"Point","coordinates":[-83.073792026,42.433457581]},"properties":{"name":"Conant St. Grill","owner":"Lamont Mapps","address":"19132 Conant ","zipcode":"48234","license_type":"Fixed Establishment","risk_category":null,"license_number":"217960","establishmentid":"51622584","establishment_type":null,"establishment_status":"Permanently Closed","review_frequency_days":"90.0","most_recent_license_date":null}},"nearbyList":[{"establishmentid":"51622580","name":"The New Conant Street Grill","address":"19132 Conant St","zipcode":"48234"},{"establishmentid":"488","name":"Deluxe Coney Island","address":"2923 E Seven Mile Rd","zipcode":"48234"},{"establishmentid":"337","name":"Happy's Pizza #2","address":"2855 E Seven Mile Rd","zipcode":"48234"},{"establishmentid":"1139","name":"Church's Fried Chicken #648","address":"2928 E Seven Mile Rd","zipcode":"48211"},{"establishmentid":"1398","name":"Asian Corned Beef","address":"2847 E Seven Mile Rd","zipcode":"48234"},{"establishmentid":"3621","name":"Nunn's Bar-B-Que Restaurant II","address":"19196 Conant Ave","zipcode":"48234"},{"establishmentid":"1751","name":"Ambiance","address":"2959 E Seven Mile Rd","zipcode":"48234"},{"establishmentid":"733","name":"Gold Coast","address":"2971 E Seven Mile Rd","zipcode":"48234"},{"establishmentid":"4486","name":"Christian Guidance Center","address":"19211 Anglin St","zipcode":"48234"},{"establishmentid":"3072","name":"Munchee's Mania","address":"19310 Conant Ave","zipcode":"48234"}],"inspectionsByEstablishmentidList":[{"inspectionid":"39620","inspectionDate":"2017-08-01T00:00:00","inspectionType":"Routine Inspection","inCompliance":"No","violationsByInspectionidList":[{"violationCode":"3-302.11","violationDescription":"(A) FOOD shall be protected from cross contamination by:  \r\n(1) Except as specified in (1)(c) below, separating raw animal FOODS during         storage, preparation, holding, and display from:\r\n(a) Raw READY-TO-EAT FOOD including other raw animal FOOD such as FISH for sushi or MOLLUSCAN SHELLFISH, or other raw READY-TO-EAT FOOD such as fruits and vegetables,(P) and\r\n(b) Cooked READY-TO-EAT FOOD; (P)\r\n(c) Frozen, commercially processed and packaged raw animal FOOD may be          stored or displayed with or above frozen, commercially processed and           packaged, ready-to-eat food.\r\n(2) Except when combined as ingredients, separating types of raw animal FOODS    from each other such as beef, FISH, lamb, pork, and POULTRY during storage,        preparation, holding, and display by:\r\n(a) Using separate EQUIPMENT for each type, (P) or\r\n(b) Arranging each type of FOOD in EQUIPMENT so that cross contamination of one type with another is prevented, (P) and\r\n(c) Preparing each type of FOOD at different times or in separate areas; (P)\r\n","violationType":"Priority","itemDescription":"Raw animal food(s)","subItem":"","problemDescription":"Stored over/next to","subProblem":"","location":"COOLER","subLocation":"","corrected":"Yes","daysToCorrect":"10.0","correctedDate":"2017-08-01T00:00:00","correctionDescription":"Store raw animal foods below and away from foods needing little or no further prep."},{"violationCode":"7-202.11","violationDescription":"(A) Only those POISONOUS OR TOXIC MATERIALS that are required for the operation and maintenance of a FOOD ESTABLISHMENT, such as for the cleaning and SANITIZING of EQUIPMENT and UTENSILS and the control of insects and rodents, shall be allowed in a FOOD ESTABLISHMENT. (Pf)   \r\n(B) Paragraph (A) of this section does not apply to PACKAGED POISONOUS OR TOXIC MATERIALS that are for retail sale.","violationType":"Foundation","itemDescription":"Unnecessary toxic items","subItem":"","problemDescription":"Present in facility","subProblem":"","location":"3 COMPARTMENT SINK AREA","subLocation":"","corrected":"No","daysToCorrect":"10.0","correctedDate":null,"correctionDescription":"Do not allow animals in restricted areas of facility.  Remove."},{"violationCode":"5-205.15","violationDescription":"A PLUMBING SYSTEM shall be:\r\n(A) Repaired according to LAW; (P) and\r\n(B) Maintained in good repair.\r\n","violationType":"Core","itemDescription":"Plumbing system","subItem":"","problemDescription":"Not maintained","subProblem":"","location":"HANDSINK(S)","subLocation":"","corrected":"Not required","daysToCorrect":"10.0","correctedDate":null,"correctionDescription":"Maintain in good repair"}]}]}],"maxInspectionDate":[{"inspectionDate":"2019-03-31T00:00:00"}]}},"pageContext":{"eid":"51622584"}}