{"data":{"postgres":{"establishment":[{"establishmentid":"1884","name":"Friendship Meadows Senior Apt & Comm Crt","address":"3930 Rivard","zipcode":"48207","owner":"Forest Park Plaza NonP Hou Cor","licenseNumber":"073933","licenseType":"Fixed Establishment","establishmentType":"Food Service Establishment","establishmentStatus":"Open","riskCategory":"Medium","reviewFrequencyDays":"365.0","coords":"-83.04686,42.35345","geojson":{"id":"1884","type":"Feature","geometry":{"type":"Point","coordinates":[-83.0468646589999,42.3534477900001]},"properties":{"name":"Friendship Meadows Senior Apt & Comm Crt","owner":"Forest Park Plaza NonP Hou Cor","address":"3930 Rivard","zipcode":"48207","license_type":"Fixed Establishment","risk_category":"Medium","license_number":"073933","establishmentid":"1884","establishment_type":"Food Service Establishment","establishment_status":"Open","review_frequency_days":"365.0","most_recent_license_date":"6/27/2018"}},"nearbyList":[{"establishmentid":"1496","name":"McDonald's","address":"1000 Mack Ave","zipcode":"48207"},{"establishmentid":"51622681","name":"Detroit Fitness Foundation","address":"601 Mack Ave","zipcode":"48201"},{"establishmentid":"51622685","name":"House of BBQ","address":"16619 E Ave","zipcode":"48224"},{"establishmentid":"2779","name":"Louie's Ham & Corned Beef","address":"3570 Riopelle St","zipcode":"48207"},{"establishmentid":"51622477","name":"The Eastern","address":"3434 Russell St Unit 501","zipcode":"48207"},{"establishmentid":"2714","name":"Sala Thai","address":"3400 Russell St","zipcode":"48207"},{"establishmentid":"4296","name":"Dr. Benjamin Carson HS of Sci & Med","address":"571 Mack Ave","zipcode":"48201"},{"establishmentid":"457","name":"Roma Cafe Inc","address":"3401 Riopelle St","zipcode":"48207"},{"establishmentid":"51622579","name":"Amore Da Roma","address":"3401 Riopelle St","zipcode":"48207"},{"establishmentid":"900","name":"Spain Middle/Elementary School","address":"3700 Beaubien St","zipcode":"48201"},{"establishmentid":"1700","name":"Friendship Baptist","address":"3900 Beaubien St","zipcode":"48201"},{"establishmentid":"5048","name":"Eastern Market Coproration Shed #5","address":"2934 Russell St","zipcode":"48207"},{"establishmentid":"3864","name":"Urban Grounds, LLC","address":"2934 Russell St","zipcode":"48207"},{"establishmentid":"51622786","name":"Verified Vegan","address":"2934 Russell","zipcode":"48207"},{"establishmentid":"1963","name":"Plymouth Educational Center","address":"1460 E Forest Ave","zipcode":"48207"},{"establishmentid":"5277","name":"Detroit Receiving Sub Shops LLC/Subway","address":"4201 St Antoine St","zipcode":"48202"},{"establishmentid":"51622467","name":"Hungry Howie's","address":"4201 St Antoine St","zipcode":"48201"},{"establishmentid":"5278","name":"Det Receiving Cafe Stores LLC/Biggby","address":"4201 St Antoine St","zipcode":"48201"},{"establishmentid":"4982","name":"Detroit Receiving Hospital","address":"4201 St Antoine","zipcode":"48201"},{"establishmentid":"4634","name":"Bert's Market Place--Motown Bar","address":"2735 Russell St","zipcode":"48207"}],"inspectionsByEstablishmentidList":[{"inspectionid":"44666","inspectionDate":"2018-11-08T00:00:00","inspectionType":"Routine Inspection","inCompliance":"Yes","violationsByInspectionidList":[{"violationCode":"4-302.14","violationDescription":"A test kit or other device that accurately measures the concentration in mg/L of SANITIZING solutions shall be provided. (Pf)\r\n","violationType":"Foundation","itemDescription":"Sanitizer test kit","subItem":"chlorine","problemDescription":"Not provided","subProblem":"","location":"FACILITY","subLocation":"","corrected":"Yes","daysToCorrect":"10.0","correctedDate":"2018-11-20T00:00:00","correctionDescription":"Provide as required"}]},{"inspectionid":"43927","inspectionDate":"2018-10-10T00:00:00","inspectionType":"Complaint","inCompliance":"Yes","violationsByInspectionidList":[]},{"inspectionid":"41444","inspectionDate":"2018-02-06T00:00:00","inspectionType":"Routine Inspection","inCompliance":"Yes","violationsByInspectionidList":[{"violationCode":"6-501.12","violationDescription":"(A) PHYSICAL FACILITIES shall be cleaned as often as necessary to keep them clean.\r\n(B) Except spill cleanup, cleaning shall be done during periods when the least amount of FOOD is exposed such as after closing. ","violationType":"Core","itemDescription":"Physical facilities/structures","subItem":"","problemDescription":"Not clean","subProblem":"","location":"KITCHEN","subLocation":"Oven","corrected":"Not required","daysToCorrect":"30.0","correctedDate":null,"correctionDescription":"Clean"},{"violationCode":"6-501.11","violationDescription":"PHYSICAL FACILITIES shall be maintained in good repair.\r\n","violationType":"Core","itemDescription":"Physical facilities","subItem":"","problemDescription":"In poor repair","subProblem":"","location":"KITCHEN","subLocation":"Wall(s)","corrected":"Not required","daysToCorrect":"30.0","correctedDate":null,"correctionDescription":null}]},{"inspectionid":"38180","inspectionDate":"2017-03-01T00:00:00","inspectionType":"Routine Inspection","inCompliance":"Yes","violationsByInspectionidList":[{"violationCode":"2-201.11","violationDescription":"The PERMIT HOLDER shall require FOOD EMPLOYEE applicants and  FOOD EMPLOYEES to report to the PERSON IN CHARGE,  information about their health and activities as they relate to diseases that are transmissible through FOOD. AND report the information in a manner that allows the PERSON IN CHARGE to prevent the likelihood of foodborne disease transmission.(P)\r\n","violationType":"Priority","itemDescription":"Person-in-charge","subItem":"","problemDescription":"Fail to require employees to report illness as rule requires","subProblem":"","location":"EMPLOYEE(S)","subLocation":"Throughout Facility","corrected":"Yes","daysToCorrect":"10.0","correctedDate":"2017-04-03T00:00:00","correctionDescription":"Require reporting as stated above."},{"violationCode":"4-702.11","violationDescription":"UTENSILS and FOOD-CONTACT SURFACES of EQUIPMENT shall be SANITIZED before use after cleaning. (P)\r\n","violationType":"Priority","itemDescription":"Clean utensil(s) and food-contact surface(s)","subItem":"","problemDescription":"Not sanitized","subProblem":"","location":"KITCHEN","subLocation":"Lack of SANITIZING","corrected":"Yes","daysToCorrect":"10.0","correctedDate":"2017-04-03T00:00:00","correctionDescription":"Sanitize as required above."},{"violationCode":"3-202.11","violationDescription":"(A)  Refrigerated, POTENTIALLY HAZARDOUS FOOD shall be at a temperature of 41°F or below when received, except as allowed by LAW.  POTENTIALLY             HAZARDOUS FOOD that is cooked and received hot shall be  at 135°F or             above. (P) \r\n(B)  A FOOD that is labeled frozen and shipped frozen by a FOOD PROCESSING     PLANT shall be received frozen. (Pf) \r\n(C)  Upon receipt, POTENTIALLY HAZARDOUS FOOD shall be free of evidence of previous temperature abuse. (Pf)\r\n","violationType":"Priority","itemDescription":"Cold food(s)","subItem":"","problemDescription":"Received above 41 degrees F","subProblem":"","location":"FACILITY","subLocation":"","corrected":"Yes","daysToCorrect":"10.0","correctedDate":"2017-03-01T00:00:00","correctionDescription":"Return to supplier."},{"violationCode":"2-102.11","violationDescription":"The PERSON IN CHARGE shall demonstrate this knowledge by compliance with this Code, by being a certified FOOD protection manager who has shown proficiency of required information through passing a test that is part of an ACCREDITED PROGRAM, or by responding correctly to the inspector's questions as they relate to the specific FOOD operation. (Pf)","violationType":"Foundation","itemDescription":"Person-in-charge","subItem":"","problemDescription":"Does not demonstrate required knowledge","subProblem":"","location":"PERSON IN CHARGE","subLocation":"In the Facility","corrected":"Yes","daysToCorrect":"10.0","correctedDate":"2017-04-03T00:00:00","correctionDescription":"Knowledge is to be obtained through an approved training program."},{"violationCode":"4-204.112","violationDescription":"(A)  In a mechanically refrigerated or hot FOOD storage unit, the sensor of a TEMPERATURE MEASURING DEVICE shall be located to measure the air temperature in the warmest part of a mechanically refrigerated unit and in the coolest part of a hot FOOD storage unit.\r\n(B)  Cold or hot holding EQUIPMENT used for POTENTIALLY HAZARDOUS FOOD shall be designed to include and shall be equipped with at least one integral or permanently affixed TEMPERATURE MEASURING DEVICE that is located to allow easy viewing of the device's temperature display (EXCEPT, heat lamps, cold plates, steam tables, or other equipment where it is not practical).\r\n(C)  TEMPERATURE MEASURING DEVICES shall be designed to be easily readable.\r\n(D)  FOOD TEMPERATURE MEASURING DEVICES and water TEMPERATURE MEASURING DEVICES on WAREWASHING machines shall have a numerical scale, printed record, or digital readout in increments no greater than 1C or 2F in the intended range of use. (Pf)\r\n\r\n","violationType":"Core","itemDescription":"Thermometer(s)","subItem":"refrigeration","problemDescription":"Broken","subProblem":"","location":"KITCHEN","subLocation":"Refrigerator","corrected":"Yes","daysToCorrect":"10.0","correctedDate":"2017-04-03T00:00:00","correctionDescription":"Repair/replace."}]},{"inspectionid":"37568","inspectionDate":"2016-12-14T00:00:00","inspectionType":"Routine Inspection","inCompliance":"Yes","violationsByInspectionidList":[{"violationCode":"3-101.11","violationDescription":"FOOD shall be safe, unADULTERATED and honestly presented. (P)\r\n","violationType":"Priority","itemDescription":"Food","subItem":"","problemDescription":"Not safe","subProblem":"","location":"KITCHEN","subLocation":"EXPIRED FOOD","corrected":"Yes","daysToCorrect":"10.0","correctedDate":"2016-12-14T00:00:00","correctionDescription":"Discard."}]}]}]}},"pageContext":{"eid":"1884"}}