{"data":{"site":{"pathPrefix":"/restaurant-inspections"},"postgres":{"establishment":[{"establishmentid":"51622908","name":"Covenant House Academy-East","address":"7600 Goethe St","zipcode":"48214","owner":"Youth Vision Solutions","licenseNumber":"234761","licenseType":"Fixed Establishment","establishmentType":"Charter School","establishmentStatus":"Open","riskCategory":null,"reviewFrequencyDays":"180.0","coords":"-83.00764,42.36345","geojson":{"id":"51622908","type":"Feature","geometry":{"type":"Point","coordinates":[-83.0076354989999,42.363452764]},"properties":{"name":"Covenant House Academy-East","owner":"Youth Vision Solutions","address":"7600 Goethe St","zipcode":"48214","license_type":"Fixed Establishment","risk_category":null,"license_number":"234761","establishmentid":"51622908","establishment_type":"Charter School","establishment_status":"Open","review_frequency_days":"180.0","most_recent_license_date":"4/29/2019"}},"nearbyList":[{"establishmentid":"3874","name":"Covenant East /Lifeskills","address":"7600 Goethe St","zipcode":"48214"},{"establishmentid":"51622465","name":"The Commons","address":"7900 Mack Ave","zipcode":"48214"},{"establishmentid":"317","name":"Elbow Lounge","address":"7310 Mack Ave","zipcode":"48214"},{"establishmentid":"4831","name":"Cesar Chavez Academy - East","address":"4130 Maxwell St","zipcode":"48214"},{"establishmentid":"1158","name":"Franklin Gourmet Dairy Bar","address":"8405 Mack Ave","zipcode":"48214"},{"establishmentid":"1099","name":"Butzel Recreation Center","address":"7737 Kercheval Ave","zipcode":"48214"},{"establishmentid":"833","name":"Marcus Garvey","address":"2301 Van Dyke Ave","zipcode":"48207"},{"establishmentid":"51622619","name":"Detroit Prep","address":"2411 Iroquois St","zipcode":"48214"},{"establishmentid":"5284","name":"Conventional Missionary Baptist Church","address":"2255 Seminole","zipcode":"48214"},{"establishmentid":"1006","name":"John Nichols Elementary","address":"3000 Burns Ave","zipcode":"48214"}],"inspectionsByEstablishmentidList":[{"inspectionid":"49423","inspectionDate":"2019-10-07T00:00:00","inspectionType":"Routine Inspection","inCompliance":"Yes","violationsByInspectionidList":[{"violationCode":"MFL289.2129","violationDescription":"Sec. 2129. (1) All food establishments shall employ a minimum of 1 managerial employee as a food safety manager, who must be an individual who is currently certified under a personnel certification program accredited by the American National Standards Institute, utilizing the Conference for Food Protection standards:\r\n(2) Beginning January 14, 2017 and every 5 years thereafter, a certified  food safety manager who supervises the operations of a food service establishment shall have completed a food safety training program\r\ncontaining an allergen awareness  component that has been approved by  the department. A food service establishment shall retain records on the  site of the food service establishment documenting compliance of its  certified food safety managers with this subsection. ","violationType":"Core","itemDescription":"Person-in-charge","subItem":"","problemDescription":"Missing","subProblem":"","location":"SCHOOL","subLocation":"Missing Management Certification Certificate","corrected":"Not required","daysToCorrect":"30.0","correctedDate":null,"correctionDescription":null},{"violationCode":"4-501.11","violationDescription":"EQUIPMENT shall be maintained in a state of repair and condition that meets the requirements of the code.\r\n","violationType":"Core","itemDescription":"Equipment","subItem":"","problemDescription":"In poor repair","subProblem":"","location":"SCHOOL","subLocation":"At the Digital Thermometer","corrected":"Not required","daysToCorrect":"30.0","correctedDate":null,"correctionDescription":null}]},{"inspectionid":"47757","inspectionDate":"2019-05-17T00:00:00","inspectionType":"Routine Inspection","inCompliance":"Yes","violationsByInspectionidList":[]}]}],"maxInspectionDate":[{"inspectionDate":"2019-10-31T00:00:00"}]}},"pageContext":{"eid":"51622908"}}