{"data":{"site":{"pathPrefix":"/restaurant-inspections"},"postgres":{"establishment":[{"establishmentid":"329","name":"Nite Cap Lounge Inc.","address":"24817 W McNichols Rd","zipcode":"48219","owner":"George Sabo","licenseNumber":"034025","licenseType":"Fixed Establishment","establishmentType":"Food Service Establishment","establishmentStatus":"Open","riskCategory":null,"reviewFrequencyDays":"365.0","coords":"-83.28551,42.41400","geojson":{"id":"329","type":"Feature","geometry":{"type":"Point","coordinates":[-83.2855095209999,42.413995072]},"properties":{"name":"Nite Cap Lounge Inc.","owner":"George Sabo","address":"24817 W McNichols Rd","zipcode":"48219","license_type":"Fixed Establishment","risk_category":null,"license_number":"034025","establishmentid":"329","establishment_type":"Food Service Establishment","establishment_status":"Open","review_frequency_days":"365.0","most_recent_license_date":"5/13/2019"}},"nearbyList":[{"establishmentid":"4289","name":"Old Redford Academy Middle School","address":"22122 W McNichols Rd","zipcode":"48219"},{"establishmentid":"328","name":"Duffy's Den","address":"24800 W McNichols Rd","zipcode":"48219"},{"establishmentid":"1086","name":"Rocky's Grill Coney Island","address":"24611 W McNichols Rd","zipcode":"48219"},{"establishmentid":"327","name":"Toy Box II Bar and Grill, Inc.","address":"24351 W McNichols Rd","zipcode":"48219"},{"establishmentid":"5115","name":"Farmer Kay Market","address":"24311 W McNichols Rd","zipcode":"48219"},{"establishmentid":"1610","name":"Sun China Restaurant","address":"16901 Telegraph Rd","zipcode":"48219"},{"establishmentid":"2328","name":"DeAngelo's Soul 313 Soul Cafe","address":"17425 Telegraph Rd","zipcode":"48219"},{"establishmentid":"523","name":"Chapeau Vert Lounge","address":"16550 Telegraph Rd","zipcode":"48219"},{"establishmentid":"929","name":"City Limits Bar and Grill","address":"24501 Grand River Ave","zipcode":"48219"},{"establishmentid":"751","name":"Dairy Queen of Redford","address":"24671 Grand River Ave","zipcode":"48219"}],"inspectionsByEstablishmentidList":[{"inspectionid":"42930","inspectionDate":"2018-07-19T00:00:00","inspectionType":"Routine Inspection","inCompliance":"Yes","violationsByInspectionidList":[{"violationCode":"5-205.11","violationDescription":"(A) A HANDWASHING SINK shall be maintained so that it is accessible at all times for EMPLOYEE use and used for no other purpose. (Pf)\r\n(B)  An automatic handwashing facility shall be used in accordance with manufacturer's instructions. (Pf)\r\n","violationType":"Foundation","itemDescription":"Handwashing sink(s)","subItem":"","problemDescription":"Not easily accessible","subProblem":"Items stored In","location":"BAR","subLocation":"","corrected":"Yes","daysToCorrect":"10.0","correctedDate":"2018-07-19T00:00:00","correctionDescription":"Remove items from handsink.  Do not store items at handsink."},{"violationCode":"6-301.11","violationDescription":"Each HANDWASHING SINK or group of 2 adjacent HANDWASHING SINKS shall be provided with a supply of hand cleaning liquid, powder, or bar soap. (Pf)\r\n","violationType":"Foundation","itemDescription":"Soap","subItem":"at handsink","problemDescription":"Not provided","subProblem":"At hand sink","location":"BAR","subLocation":"","corrected":"Yes","daysToCorrect":"10.0","correctedDate":"2018-07-19T00:00:00","correctionDescription":"Provide"}]},{"inspectionid":"39211","inspectionDate":"2017-07-10T00:00:00","inspectionType":"Routine Inspection","inCompliance":"Yes","violationsByInspectionidList":[{"violationCode":"MFL289.2129","violationDescription":"Sec. 2129. (1) All food establishments shall employ a minimum of 1 managerial employee as a food safety manager, who must be an individual who is currently certified under a personnel certification program accredited by the American National Standards Institute, utilizing the Conference for Food Protection standards:\r\n(2) Beginning January 14, 2017 and every 5 years thereafter, a certified  food safety manager who supervises the operations of a food service establishment shall have completed a food safety training program\r\ncontaining an allergen awareness  component that has been approved by  the department. A food service establishment shall retain records on the  site of the food service establishment documenting compliance of its  certified food safety managers with this subsection. ","violationType":"Core","itemDescription":null,"subItem":"","problemDescription":null,"subProblem":"","location":"PERSON IN CHARGE","subLocation":"","corrected":"Not required","daysToCorrect":"30.0","correctedDate":null,"correctionDescription":null}]}]}],"maxInspectionDate":[{"inspectionDate":"2019-05-31T00:00:00"}]}},"pageContext":{"eid":"329"}}