{"componentChunkName":"component---src-templates-establishment-page-js","path":"/establishment/968","result":{"data":{"site":{"pathPrefix":"/restaurant-inspections"},"postgres":{"establishment":[{"establishmentid":"968","name":"Escuela Avancemos/Logan Elementary","address":"3811 Cicotte","zipcode":"48217","owner":"Detroit Board of Education","licenseNumber":"035010","licenseType":"Fixed Establishment","establishmentType":"Non-Public School","establishmentStatus":"Open","riskCategory":null,"reviewFrequencyDays":"180","coords":"-83.12209,42.32810","geojson":{"id":"968","type":"Feature","geometry":{"type":"Point","coordinates":[-83.122090052,42.32810163]},"properties":{"name":"Escuela Avancemos/Logan Elementary","owner":"Detroit Board of Education","address":"3811 Cicotte","zipcode":"48217","license_type":"Fixed Establishment","risk_category":null,"license_number":"035010","establishmentid":"968","establishment_type":"Non-Public School","establishment_status":"Open","review_frequency_days":"180","most_recent_license_date":"15/4/2019"}},"nearbyList":[{"establishmentid":"51623120","name":"Academy of the Americas Elementary","address":"3811 Cicotte St.","zipcode":"48217"},{"establishmentid":"4728","name":"Chowtime","address":"3647 Clippert","zipcode":"48210"},{"establishmentid":"51623854","name":"The Rock's Bar and Grill","address":"3511  Clippert St","zipcode":null},{"establishmentid":"802","name":"Tommy T's Pub","address":"3511 Clippert","zipcode":"48210"},{"establishmentid":"4821","name":"Matrix Head Start ","address":"3810  Gilbert","zipcode":"48209"},{"establishmentid":"4993","name":"Carribeansoul Cafe & Catering Company","address":"3700 Gilbert","zipcode":"48210"},{"establishmentid":"51622860","name":"Pietrzyk Pierogi","address":"3700 Gilbert St.","zipcode":"48210"},{"establishmentid":"5096","name":"Mia D's Soul Food Cafe & Catering","address":"3700 Gilbert","zipcode":"48210"},{"establishmentid":"51622462","name":"Better Woodman","address":"3700 Gilbert","zipcode":"48210"},{"establishmentid":"3526","name":"St. Peter & Paul Orthodox Cathedral","address":"3700  Gilbert St.","zipcode":"48210"}],"inspectionsByEstablishmentidList":[{"inspectionid":"47982","inspectionDate":"2019-06-06T00:00:00","inspectionType":"Routine Inspection","inCompliance":"Yes","violationsByInspectionidList":[{"violationCode":"6-202.15","violationDescription":"Outer openings of a FOOD ESTABLISHMENT shall be protected against the entry of insects and rodents. Unless otherwise allowed by law. \n","violationType":"Core","itemDescription":"Outer opening(s)","subItem":"window(s)","problemDescription":"Not provided with","subProblem":"Screening that is sixteen mesh to the inch or greater","location":"KITCHEN","subLocation":"Openings","corrected":"False","daysToCorrect":"30","correctedDate":null,"correctionDescription":"Repair/replace to meet requirements above."}]},{"inspectionid":"44331","inspectionDate":"2018-12-04T00:00:00","inspectionType":"Routine Inspection","inCompliance":"Yes","violationsByInspectionidList":[{"violationCode":"6-501.14","violationDescription":"(A) Intake and exhaust air ducts shall be cleaned and filters changed so they are not a source of contamination by dust, dirt, and other materials. \n(B) If vented to the outside, ventilation systems may not create a public health HAZARD or nuisance or unLAWful discharge.\n","violationType":"Core","itemDescription":"Ventilation system","subItem":"exhaust air ducts","problemDescription":"Not clean","subProblem":"","location":"KITCHEN (2nd FLOOR)","subLocation":"VENT PANEL","corrected":"False","daysToCorrect":"30","correctedDate":null,"correctionDescription":"Clean"},{"violationCode":"4-501.11","violationDescription":"EQUIPMENT shall be maintained in a state of repair and condition that meets the requirements of the code.\n","violationType":"Core","itemDescription":"Equipment","subItem":"","problemDescription":"In poor repair","subProblem":"","location":"KITCHEN (2nd FLOOR)","subLocation":"Equipment","corrected":"False","daysToCorrect":"30","correctedDate":null,"correctionDescription":"Repair"}]},{"inspectionid":"40695","inspectionDate":"2017-10-24T00:00:00","inspectionType":"Routine Inspection","inCompliance":"Yes","violationsByInspectionidList":[]},{"inspectionid":"38970","inspectionDate":"2017-06-08T00:00:00","inspectionType":"Routine Inspection","inCompliance":"Yes","violationsByInspectionidList":[{"violationCode":"4-501.11","violationDescription":"EQUIPMENT shall be maintained in a state of repair and condition that meets the requirements of the code.\n","violationType":"Core","itemDescription":null,"subItem":"","problemDescription":null,"subProblem":"","location":"KITCHEN","subLocation":"","corrected":"False","daysToCorrect":"30","correctedDate":null,"correctionDescription":null}]},{"inspectionid":"37299","inspectionDate":"2016-11-29T00:00:00","inspectionType":"Routine Inspection","inCompliance":"Yes","violationsByInspectionidList":[]}]}],"maxInspectionDate":[{"inspectionDate":"2023-04-13T00:00:00"}]}},"pageContext":{"eid":"968"}},"staticQueryHashes":["3649515864","63159454"]}