{"componentChunkName":"component---src-templates-establishment-page-js","path":"/establishment/370","result":{"data":{"site":{"pathPrefix":"/restaurant-inspections"},"postgres":{"establishment":[{"establishmentid":"370","name":"Los Compadres","address":"1132 Lawndale","zipcode":"48209","owner":"Guadalupe Macias","licenseNumber":"066068","licenseType":"Fixed Establishment","establishmentType":"Food Service Establishment","establishmentStatus":"Open","riskCategory":"Medium","reviewFrequencyDays":"335","coords":"-83.12675,42.30124","geojson":{"id":"370","type":"Feature","geometry":{"type":"Point","coordinates":[-83.126754587,42.301243159]},"properties":{"name":"Los Compadres","owner":"Guadalupe Macias","address":"1132 Lawndale","zipcode":"48209","license_type":"Fixed Establishment","risk_category":"Medium","license_number":"066068","establishmentid":"370","establishment_type":"Food Service Establishment","establishment_status":"Open","review_frequency_days":"335","most_recent_license_date":"4/12/2022"}},"nearbyList":[{"establishmentid":"4234","name":"Mangonadas Del Barrio","address":"1210-14 Lawndale","zipcode":"48209"},{"establishmentid":"51622764","name":"Tres Leches 'n Snacks","address":"1210 Lawndale St.","zipcode":"48209"},{"establishmentid":"4241","name":"Tacos El Toro #3","address":"8191 Chamberlain","zipcode":"48209"},{"establishmentid":"4333","name":"Tacos El Toro #4","address":"8191  Chamberlain St.","zipcode":null},{"establishmentid":"3613","name":"Tacos El Toro #1","address":"8191 Chamberlain","zipcode":"48209"},{"establishmentid":"3812","name":"Tacos El Caballo","address":"8084 Rathbone","zipcode":"48209"},{"establishmentid":"51622898","name":"Tacos El Caballo 2","address":"8084 Rathbone St.","zipcode":"48209"},{"establishmentid":"51623625","name":"LA Palapa Del Parian ","address":"1631 Lawndale ","zipcode":"48209"},{"establishmentid":"4960","name":"El Parian Commissary","address":"1633 Lawndale","zipcode":"48209"},{"establishmentid":"4990","name":"Marisqueria El Emperio","address":"1633 Lawndale","zipcode":"48209"}],"inspectionsByEstablishmentidList":[{"inspectionid":"59339","inspectionDate":"2022-05-02T00:00:00","inspectionType":"Routine Inspection","inCompliance":"Yes","violationsByInspectionidList":[{"violationCode":"4-601.11","violationDescription":"(A) EQUIPMENT FOOD-CONTACT SURFACES and UTENSILS shall be clean to sight and touch. (Pf)\n(B) The FOOD-CONTACT SURFACES of cooking EQUIPMENT and pans shall be kept free of encrusted grease deposits and other soil accumulations. \n(C) NonFOOD-CONTACT SURFACES of EQUIPMENT shall be kept free of an accumulation of dust, dirt, FOOD residue, and other debris. \n","violationType":"Foundation","itemDescription":"Food-contact surface(s)","subItem":"Equipment","problemDescription":"With accumulation of debris","subProblem":null,"location":"BAR","subLocation":"Ice machine","corrected":"True","daysToCorrect":"10","correctedDate":"2022-05-13T00:00:00","correctionDescription":"Keep clean."}]},{"inspectionid":"54547","inspectionDate":"2021-03-26T00:00:00","inspectionType":"Routine Inspection","inCompliance":"Yes","violationsByInspectionidList":[{"violationCode":"4-302.14","violationDescription":"A test kit or other device that accurately measures the concentration in mg/L of SANITIZING solutions shall be provided. (Pf)\n","violationType":"Foundation","itemDescription":"Sanitizer test kit","subItem":"quaternary ammonia","problemDescription":"Not provided","subProblem":null,"location":"3 COMPARTMENT SINK AREA","subLocation":"Test strips","corrected":"True","daysToCorrect":"10","correctedDate":"2021-04-01T00:00:00","correctionDescription":"Provide."},{"violationCode":"6-202.15","violationDescription":"Outer openings of a FOOD ESTABLISHMENT shall be protected against the entry of insects and rodents. Unless otherwise allowed by law. \n","violationType":"Core","itemDescription":"Outer opening(s)","subItem":"door(s)","problemDescription":"Not sealed to prevent pest entry","subProblem":null,"location":"BACK DOOR","subLocation":"Openings","corrected":"False","daysToCorrect":"30","correctedDate":null,"correctionDescription":null}]},{"inspectionid":"47860","inspectionDate":"2019-05-24T00:00:00","inspectionType":"Routine Inspection","inCompliance":"Yes","violationsByInspectionidList":[{"violationCode":"6-202.15","violationDescription":"Outer openings of a FOOD ESTABLISHMENT shall be protected against the entry of insects and rodents. Unless otherwise allowed by law. \n","violationType":"Core","itemDescription":"Outer opening(s)","subItem":"door(s)","problemDescription":"Not sealed to prevent pest entry","subProblem":null,"location":"BACK DOOR","subLocation":"Openings","corrected":"False","daysToCorrect":"30","correctedDate":null,"correctionDescription":null}]},{"inspectionid":"42813","inspectionDate":"2018-06-07T00:00:00","inspectionType":"Routine Inspection","inCompliance":"Yes","violationsByInspectionidList":[]},{"inspectionid":"38975","inspectionDate":"2017-05-30T00:00:00","inspectionType":"Routine Inspection","inCompliance":"Yes","violationsByInspectionidList":[]}]}],"maxInspectionDate":[{"inspectionDate":"2022-07-25T00:00:00"}]}},"pageContext":{"eid":"370"}},"staticQueryHashes":["3649515864","63159454"]}