{"data":{"site":{"pathPrefix":"/restaurant-inspections"},"postgres":{"establishment":[{"establishmentid":"1373","name":"Burger King #4441","address":"20200 Grand River Ave","zipcode":"48219","owner":"EYM King of Michigan LLC","licenseNumber":"077776","licenseType":"Fixed Establishment","establishmentType":"Food Service Establishment","establishmentStatus":"Open","riskCategory":null,"reviewFrequencyDays":"365.0","coords":"-83.23946,42.40962","geojson":{"id":"1373","type":"Feature","geometry":{"type":"Point","coordinates":[-83.239461762,42.4096157220001]},"properties":{"name":"Burger King #4441","owner":"EYM King of Michigan LLC","address":"20200 Grand River Ave","zipcode":"48219","license_type":"Fixed Establishment","risk_category":null,"license_number":"077776","establishmentid":"1373","establishment_type":"Food Service Establishment","establishment_status":"Open","review_frequency_days":"365.0","most_recent_license_date":"4/29/2019"}},"nearbyList":[{"establishmentid":"1958","name":"Hollywood Coney Island","address":"20240 Grand River Ave","zipcode":"48219"},{"establishmentid":"5423","name":"Honey's","address":"20342 Grand River Ave","zipcode":"48219"},{"establishmentid":"3092","name":"The Original Waves Inn","address":"20351 Grand River Ave","zipcode":"48219"},{"establishmentid":"5412","name":"Detroit Vegan Soul","address":"19614 Grand River Ave","zipcode":"48223"},{"establishmentid":"2344","name":"Auntie Betty's Cafe","address":"19601 Grand River Ave","zipcode":"48223"},{"establishmentid":"1093","name":"Church's Fried Chicken #456","address":"19741 W McNichols Rd","zipcode":"48219"},{"establishmentid":"676","name":"J's Cafe","address":"20853 Grand River Ave","zipcode":"48219"},{"establishmentid":"4929","name":"Urban Elixirs Juice Bar","address":"19335 W McNichols Rd","zipcode":"48219"},{"establishmentid":"1514","name":"Elias Donuts","address":"19231 Grand River Ave","zipcode":"48223"},{"establishmentid":"1592","name":"Christ the King Grade School","address":"16800 Trinity ","zipcode":"48219"}],"inspectionsByEstablishmentidList":[{"inspectionid":"45635","inspectionDate":"2019-03-20T00:00:00","inspectionType":"Routine Inspection","inCompliance":"Yes","violationsByInspectionidList":[{"violationCode":"3-501.18","violationDescription":"A FOOD specified in ¶ 3-501.17(A) or (B) shall be discarded if it:  \r\n    (1) Exceeds the temperature and time combination specified in ¶ 3-501.17(A),              except time that the product is frozen; (P)\r\n    (2) Is in a container or PACKAGE that does not bear a date or day; (P) or\r\n    (3) Is appropriately marked with a date or day that exceeds a temperature and              time combination as specified in ¶ 3-501.17(A). (P)  \r\n\r\n","violationType":"Priority","itemDescription":"Ready to eat, potentially hazardous food(s)","subItem":"","problemDescription":"Beyond consume by date","subProblem":"","location":"KITCHEN","subLocation":"","corrected":"Yes","daysToCorrect":"10.0","correctedDate":"2019-03-20T00:00:00","correctionDescription":null}]},{"inspectionid":"41986","inspectionDate":"2018-03-13T00:00:00","inspectionType":"Routine Inspection","inCompliance":"Yes","violationsByInspectionidList":[{"violationCode":"3-305.11","violationDescription":"FOOD shall be protected from contamination by storing the FOOD:\r\n(1)     In a clean, dry location;\r\n(2)     Where it is not exposed to splash, dust, or other contamination; and\r\n(3)     At least 15 cm (6 inches) above the floor, unless otherwise approved.\r\n","violationType":"Core","itemDescription":"Food item(s) in storage","subItem":"","problemDescription":"Stored on floor or less than 6 inches above floor","subProblem":"","location":"KITCHEN","subLocation":"","corrected":"Not required","daysToCorrect":"30.0","correctedDate":null,"correctionDescription":"Store at least 6 inches above the floor."}]},{"inspectionid":"38418","inspectionDate":"2017-03-30T00:00:00","inspectionType":"Routine Inspection","inCompliance":"Yes","violationsByInspectionidList":[]}]}],"maxInspectionDate":[{"inspectionDate":"2019-04-30T00:00:00"}]}},"pageContext":{"eid":"1373"}}