{"componentChunkName":"component---src-templates-establishment-page-js","path":"/establishment/2448","result":{"data":{"site":{"pathPrefix":"/restaurant-inspections"},"postgres":{"establishment":[{"establishmentid":"2448","name":"Pizza Hut ","address":"15610 Eight Mile Rd. E.","zipcode":"48205","owner":"Redberry Resto Brands, Inc.","licenseNumber":"064575","licenseType":"Fixed Establishment","establishmentType":"Food Service Establishment","establishmentStatus":"Open","riskCategory":"Medium","reviewFrequencyDays":"335","coords":"-82.96036,42.44973","geojson":{"id":"2448","type":"Feature","geometry":{"type":"Point","coordinates":[-82.960357878,42.449725917]},"properties":{"name":"Pizza Hut ","owner":"Redberry Resto Brands, Inc.","address":"15610 Eight Mile Rd. E.","zipcode":"48205","license_type":"Fixed Establishment","risk_category":"Medium","license_number":"064575","establishmentid":"2448","establishment_type":"Food Service Establishment","establishment_status":"Open","review_frequency_days":"335","most_recent_license_date":"2017-05-19"}},"nearbyList":[{"establishmentid":"2022","name":"8 Mile Run","address":"15500 Eight Mile Rd. E.","zipcode":"48205"},{"establishmentid":"1109","name":"Kentucky Fried Chicken H730207","address":"15700 E. Eight Mile Rd.","zipcode":"48205"},{"establishmentid":"307","name":"Huddle Lounge","address":"15880 Eight Mile Rd. E.","zipcode":"48205"},{"establishmentid":"2161","name":"Wild Cherry Lounge","address":"15224 Eight Mile Rd. E.","zipcode":"48205"},{"establishmentid":"2380","name":"Julius Cafe & Catering","address":"16046 Eight Mile Rd. E.","zipcode":"48205"},{"establishmentid":"3715","name":"Dave's Soul Food","address":"16046 Eight Mile Rd. E.","zipcode":"48205"},{"establishmentid":"4377","name":"Diamond's Dogs","address":"15447 Rossini","zipcode":"48205"},{"establishmentid":"2776","name":"Nu Wave Fish & Chicken","address":"15030 Eight Mile Rd. E.","zipcode":"48205"},{"establishmentid":"51622913","name":"Big Ken's BBQ","address":"15290 Fairmount","zipcode":"48213"},{"establishmentid":"4758","name":"Subway","address":"15000 Eight Mile E.","zipcode":"48205"}],"inspectionsByEstablishmentidList":[{"inspectionid":"40082","inspectionDate":"2017-09-20T00:00:00","inspectionType":"Routine Inspection","inCompliance":"Yes","violationsByInspectionidList":[{"violationCode":"4-601.11","violationDescription":"(A) EQUIPMENT FOOD-CONTACT SURFACES and UTENSILS shall be clean to sight and touch. (Pf)\n(B) The FOOD-CONTACT SURFACES of cooking EQUIPMENT and pans shall be kept free of encrusted grease deposits and other soil accumulations. \n(C) NonFOOD-CONTACT SURFACES of EQUIPMENT shall be kept free of an accumulation of dust, dirt, FOOD residue, and other debris. \n","violationType":"Foundation","itemDescription":"Food-contact surface(s)","subItem":"","problemDescription":"Soiled","subProblem":"","location":"DISH ROOM","subLocation":"","corrected":"True","daysToCorrect":"10","correctedDate":"2017-09-21T00:00:00","correctionDescription":"Clean."}]},{"inspectionid":"36257","inspectionDate":"2016-08-22T00:00:00","inspectionType":"Routine Inspection","inCompliance":"Yes","violationsByInspectionidList":[{"violationCode":"5-202.13","violationDescription":"An air gap between the water supply inlet and the flood level rim of the PLUMBING FIXTURE, EQUIPMENT, or nonFOOD EQUIPMENT shall be at least twice the diameter of the water supply inlet and may not be less than 1 inch. (P)\n","violationType":"Priority","itemDescription":"Air gap","subItem":"","problemDescription":"Less than twice the diameter of supply line","subProblem":"","location":"KITCHEN","subLocation":"","corrected":"True","daysToCorrect":"10","correctedDate":"2016-08-24T00:00:00","correctionDescription":"Provide air gap that is twice the diameter of the drain line and no less than 1 inch."}]}]}],"maxInspectionDate":[{"inspectionDate":"2023-04-25T00:00:00"}]}},"pageContext":{"eid":"2448"}},"staticQueryHashes":["3649515864","63159454"]}