{"data":{"site":{"pathPrefix":"/restaurant-inspections"},"postgres":{"establishment":[{"establishmentid":"51622654","name":"La Reata","address":"1633 Lawndale St","zipcode":"48209","owner":"Nancy Diaz","licenseNumber":"237726","licenseType":"Mobile Food Establishment","establishmentType":"LHD - Mobile Food Establishmen","establishmentStatus":"Seasonal","riskCategory":"Medium","reviewFrequencyDays":"210","coords":"-83.12959,42.30481","geojson":{"id":"51622654","type":"Feature","geometry":{"type":"Point","coordinates":[-83.129585225,42.304807107]},"properties":{"name":"La Reata","owner":"Nancy Diaz","address":"1633 Lawndale St","zipcode":"48209","license_type":"Mobile Food Establishment","risk_category":"Medium","license_number":"237726","establishmentid":"51622654","establishment_type":"LHD - Mobile Food Establishmen","establishment_status":"Seasonal","review_frequency_days":"210","most_recent_license_date":"4/23/2019"}},"nearbyList":[{"establishmentid":"4960","name":"El Parian Commissary","address":"1633 Lawndale St","zipcode":"48209"},{"establishmentid":"5028","name":"Marisqueria El Emperio","address":"1633 Lawndale St","zipcode":"48209"},{"establishmentid":"51622764","name":"Tres Leches 'n Snacks","address":"1210 Lawndale St","zipcode":"48209"},{"establishmentid":"4234","name":"Mangonadas Del Barrio","address":"1210-14 Lawndale St","zipcode":"48209"},{"establishmentid":"926","name":"Bennett Elementary","address":"2111 Mullane St","zipcode":"48209"},{"establishmentid":"370","name":"Los Compadres","address":"1132 Lawndale St","zipcode":"48209"},{"establishmentid":"211","name":"La Terraza","address":"8445 W Vernor","zipcode":"48209"},{"establishmentid":"4571","name":"WAY Academy","address":"8701 W Vernor","zipcode":"48209"},{"establishmentid":"305","name":"Matrix Head Start-Manuel Reyes","address":"8500 W Vernor","zipcode":"48209"},{"establishmentid":"5173","name":"El Salpicon","address":"8600 W Vernor","zipcode":"48209"}],"inspectionsByEstablishmentidList":[{"inspectionid":"47722","inspectionDate":"2019-05-16T00:00:00","inspectionType":"Mobile Inspection","inCompliance":"Yes","violationsByInspectionidList":[{"violationCode":"4-903.11","violationDescription":"Cleaned EQUIPMENT and UTENSILS, laundered LINENS, and SINGLE-SERVICE and SINGLE-USE ARTICLES shall be stored in an approved manner and location.\r\n","violationType":"Core","itemDescription":"Single-service/single-use article(s)","subItem":"","problemDescription":"Exposed to dust, splash, or other contaminates","subProblem":"Not covered","location":"MOBILE UNIT","subLocation":"At the Single service items","corrected":"Not required","daysToCorrect":"30","correctedDate":null,"correctionDescription":null},{"violationCode":"6-303.11","violationDescription":"Light of the proper intensity shall be provided as specified.\r\n","violationType":"Core","itemDescription":"Lighting intensity","subItem":"","problemDescription":"Not maintained","subProblem":"","location":"MOBILE UNIT","subLocation":"Under the Ventilation hood","corrected":"Yes","daysToCorrect":"30","correctedDate":"2019-05-16T00:00:00","correctionDescription":null}]}]}],"maxInspectionDate":[{"inspectionDate":"2020-10-30T00:00:00"}]}},"pageContext":{"eid":"51622654"}}