{"data":{"site":{"pathPrefix":"/restaurant-inspections"},"postgres":{"establishment":[{"establishmentid":"4777","name":"Mr. Primo Softy","address":"8215 Winkelman Street","zipcode":"48211","owner":"Nabil Obadi","licenseNumber":"038488","licenseType":"Mobile Food Establishment","establishmentType":"LHD - Mobile Food Establishmen","establishmentStatus":"Open","riskCategory":null,"reviewFrequencyDays":"90.0","coords":"-83.04142,42.38996","geojson":{"id":"4777","type":"Feature","geometry":{"type":"Point","coordinates":[-83.041424827,42.3899567460001]},"properties":{"name":"Mr. Primo Softy","owner":"Nabil Obadi","address":"8215 Winkelman Street","zipcode":"48211","license_type":"Mobile Food Establishment","risk_category":null,"license_number":"038488","establishmentid":"4777","establishment_type":"LHD - Mobile Food Establishmen","establishment_status":"Open","review_frequency_days":"90.0","most_recent_license_date":"6/3/2015"}},"nearbyList":[{"establishmentid":"5218","name":"S & A Ice Cream","address":"8189 Winkelman St","zipcode":"48211"},{"establishmentid":"5343","name":"Oakland International Academy","address":"4001 Miller St","zipcode":null},{"establishmentid":"5344","name":"Oakland International Academy","address":"8228 Conant St","zipcode":"48211"},{"establishmentid":"5342","name":"Oakland International Academy","address":"6111 Miller St","zipcode":"48211"},{"establishmentid":"5353","name":"Fresh Land","address":"6148 Georgia","zipcode":"48211"},{"establishmentid":"4810","name":"U.S.A Ice Cream","address":"4069 Dodge St","zipcode":"48211"},{"establishmentid":"4005","name":"M H Soft Serve","address":"4177 Dodge","zipcode":"48211"},{"establishmentid":"5369","name":"Spiderman Ice Cream","address":"5975 Hedge St","zipcode":"48211"},{"establishmentid":"1799","name":"AVI Food Systems, Inc.","address":"2500 E Grand Blvd","zipcode":"48211"},{"establishmentid":"51622492","name":"GM Cadillac Detroit","address":"2500 E Grand Blvd","zipcode":"48211"}],"inspectionsByEstablishmentidList":[{"inspectionid":"39279","inspectionDate":"2017-05-30T00:00:00","inspectionType":"Routine Inspection","inCompliance":"No","violationsByInspectionidList":[{"violationCode":"5-202.12","violationDescription":"(A) A handwashing sink shall be equipped to provide water at a temperature of at least 38째C (100째F) through a mixing valve or combination faucet. (Pf)  \r\n(B) A steam mixing valve may not be used at a handwashing sink.  \r\n(C) A self-closing, slow-closing, or metering faucet shall provide a flow of water for at least 15 seconds without the need to reactivate the faucet.   \r\n(D) An automatic handwashing facility shall be installed in accordance with manufacturer's instructions.\r\n","violationType":"Priority","itemDescription":"Handwashing facility","subItem":"","problemDescription":"Lack of hot water","subProblem":"","location":"HANDSINK(S)","subLocation":"","corrected":"No","daysToCorrect":"10.0","correctedDate":null,"correctionDescription":"Provide hot water."},{"violationCode":"5-202.12","violationDescription":"(A) A handwashing sink shall be equipped to provide water at a temperature of at least 38째C (100째F) through a mixing valve or combination faucet. (Pf)  \r\n(B) A steam mixing valve may not be used at a handwashing sink.  \r\n(C) A self-closing, slow-closing, or metering faucet shall provide a flow of water for at least 15 seconds without the need to reactivate the faucet.   \r\n(D) An automatic handwashing facility shall be installed in accordance with manufacturer's instructions.\r\n","violationType":"Priority","itemDescription":null,"subItem":"","problemDescription":null,"subProblem":"","location":"FACILITY","subLocation":"","corrected":"No","daysToCorrect":"10.0","correctedDate":null,"correctionDescription":null},{"violationCode":"5-103.12","violationDescription":"Water under pressure shall be provided to all fixtures, EQUIPMENT, and nonFOOD EQUIPMENT that are required to use water unless otherwise approved. (Pf)\r\n","violationType":"Foundation","itemDescription":"Water under pressure","subItem":"","problemDescription":"Insufficient to meet demands","subProblem":"","location":"FACILITY","subLocation":"","corrected":"No","daysToCorrect":"10.0","correctedDate":null,"correctionDescription":"Provide sufficient water pressure to meet demand of use."},{"violationCode":"5-402.14","violationDescription":"SEWAGE and other liquid wastes shall be removed from a mobile FOOD ESTABLISHMENT at an APPROVED waste SERVICING AREA or by a SEWAGE transport vehicle in such a way that a public health HAZARD or nuisance is not created. (Pf)\r\n","violationType":"Foundation","itemDescription":"Mobile waste tank","subItem":"","problemDescription":"Emptied on ground","subProblem":"","location":"FACILITY","subLocation":"","corrected":"No","daysToCorrect":"10.0","correctedDate":null,"correctionDescription":"Stop immediately and dispose of in approved, sanitary manner."},{"violationCode":"4-602.13","violationDescription":"NonFOOD-CONTACT SURFACES of EQUIPMENT shall be cleaned at a frequency necessary to preclude accumulation of soil residues.\r\n","violationType":"Core","itemDescription":"Nonfood contact surface(s)","subItem":"","problemDescription":"Soiled","subProblem":"","location":"FREEZER","subLocation":"","corrected":"Not required","daysToCorrect":"30.0","correctedDate":null,"correctionDescription":"Clean."}]}]}],"maxInspectionDate":[{"inspectionDate":"2019-01-31T00:00:00"}]}},"pageContext":{"eid":"4777"}}