{"data":{"site":{"pathPrefix":"/restaurant-inspections"},"postgres":{"establishment":[{"establishmentid":"51622547","name":"Little Caesars Arena- Legends Club","address":"2645 Woodward Avenue","zipcode":"48201","owner":"Detroit District Sportservice","licenseNumber":"220997","licenseType":"Fixed Establishment","establishmentType":"Food Service Establishment","establishmentStatus":"Open","riskCategory":"High","reviewFrequencyDays":"365.0","coords":"-83.05481,42.34195","geojson":{"id":"51622547","type":"Feature","geometry":{"type":"Point","coordinates":[-83.054812494,42.341946353]},"properties":{"name":"Little Caesars Arena- Legends Club","owner":"Detroit District Sportservice","address":"2645 Woodward Avenue","zipcode":"48201","license_type":"Fixed Establishment","risk_category":"High","license_number":"220997","establishmentid":"51622547","establishment_type":"Food Service Establishment","establishment_status":"Open","review_frequency_days":"365.0","most_recent_license_date":"4/25/2018"}},"nearbyList":[{"establishmentid":"51622521","name":"Mike's Pizza Bar","address":"2643 Park Avenue Unit B","zipcode":"4821"},{"establishmentid":"51622522","name":"Sports & Social","address":"2643 Park Avenue Unit C","zipcode":"4821"},{"establishmentid":"5224","name":"Pho Lucky","address":"3111 Woodward Ave","zipcode":"48201"},{"establishmentid":"3173","name":"Harry's Detroit","address":"2482 Clifford","zipcode":"48201"},{"establishmentid":"51622670","name":"Second Best Bar","address":"42 E Watson","zipcode":"48207"},{"establishmentid":"5154","name":"Grey Ghost Detroit","address":"47 E Watson St","zipcode":"48201"},{"establishmentid":"5383","name":"New Order Coffee Roasters","address":"3100 Woodward Ave","zipcode":"48201"},{"establishmentid":"51622588","name":"JJA Detroit LLC / DBA BakersField","address":"3100 Woodward Ave ","zipcode":"48201-34"},{"establishmentid":"692","name":"Temple Bar","address":"2906 Cass","zipcode":"48201"},{"establishmentid":"1586","name":"Hockey Town Cafe","address":"2301 Woodward Ave","zipcode":"48201"},{"establishmentid":"1701","name":"Town Pump Tavern","address":"100 Montcalm W","zipcode":"48201"},{"establishmentid":"51622555","name":"Empire","address":"3148 Woodward Ave","zipcode":"48201"},{"establishmentid":"377","name":"Fox Theatre","address":"2211 Woodward Ave","zipcode":"48201"},{"establishmentid":"4889","name":"Top China One","address":"3157 Woodward Ave","zipcode":"48201"},{"establishmentid":"4340","name":"Hot Taco","address":"2233 Park Ave","zipcode":"48201"},{"establishmentid":"3172","name":"Centaur Bar","address":"2233 Park Avenue","zipcode":"48201-34"},{"establishmentid":"51622556","name":"For The Love of Sugar","address":"100 Erskine St","zipcode":"48201"},{"establishmentid":"1405","name":"Mariner's Inn","address":"445 Ledyard","zipcode":"48201"},{"establishmentid":"806","name":"King David Grand Lodge","address":"114 Erskine St","zipcode":"48201"},{"establishmentid":"739","name":"Coalition on Temporary Shelter","address":"26 Peterboro St","zipcode":"48201"}],"inspectionsByEstablishmentidList":[{"inspectionid":"45195","inspectionDate":"2019-01-31T00:00:00","inspectionType":"Routine Inspection","inCompliance":"Yes","violationsByInspectionidList":[{"violationCode":"6-301.14","violationDescription":"A sign or poster that notifies FOOD EMPLOYEES to wash their hands shall be provided at all HANDWASHING SINKS used by FOOD EMPLOYEES and shall be clearly visible to FOOD EMPLOYEES.\r\n","violationType":"Core","itemDescription":"Handwashing signage","subItem":"Not provided At hand sink","problemDescription":"Not provided","subProblem":"At hand sink","location":"HANDSINK(S)","subLocation":"","corrected":"Not required","daysToCorrect":"30.0","correctedDate":null,"correctionDescription":"Provide"}]},{"inspectionid":"40937","inspectionDate":"2017-11-30T00:00:00","inspectionType":"Routine Inspection","inCompliance":"Yes","violationsByInspectionidList":[{"violationCode":"6-301.14","violationDescription":"A sign or poster that notifies FOOD EMPLOYEES to wash their hands shall be provided at all HANDWASHING SINKS used by FOOD EMPLOYEES and shall be clearly visible to FOOD EMPLOYEES.\r\n","violationType":"Core","itemDescription":"Handwashing signage","subItem":"Not provided At hand sink","problemDescription":"Not provided","subProblem":"At hand sink","location":"HANDSINK(S)","subLocation":"","corrected":"Yes","daysToCorrect":"30.0","correctedDate":"2017-11-30T00:00:00","correctionDescription":"Provide"}]}]}]}},"pageContext":{"eid":"51622547"}}