{"data":{"site":{"pathPrefix":"/restaurant-inspections"},"postgres":{"establishment":[{"establishmentid":"51622881","name":"Shinola Hotel- San Morello","address":"1400 Woodward Ave","zipcode":"48226","owner":"1400 Webward Ave LLC","licenseNumber":"233682","licenseType":"Fixed Establishment","establishmentType":"Food Service Establishment","establishmentStatus":"Open","riskCategory":"High","reviewFrequencyDays":"90.0","coords":"-83.04846,42.33439","geojson":{"id":"51622881","type":"Feature","geometry":{"type":"Point","coordinates":[-83.048455447,42.334394929]},"properties":{"name":"Shinola Hotel- San Morello","owner":"1400 Webward Ave LLC","address":"1400 Woodward Ave","zipcode":"48226","license_type":"Fixed Establishment","risk_category":"High","license_number":"233682","establishmentid":"51622881","establishment_type":"Food Service Establishment","establishment_status":"Open","review_frequency_days":"90.0","most_recent_license_date":"4/23/2019"}},"nearbyList":[{"establishmentid":"51622882","name":"Penny Red's","address":"1400 Woodward Ave","zipcode":"48226"},{"establishmentid":"51622701","name":"Shinola Hotel- Banquet Kitchen","address":"1400 Woodward Ave","zipcode":"48226"},{"establishmentid":"51622703","name":"Shinola Hotel-Birdie Room","address":"1400 Woodward Ave","zipcode":"48226"},{"establishmentid":"51622702","name":"Shinola Hotel- WW Basement Kitchen","address":"1400 Woodward Ave","zipcode":"48226"},{"establishmentid":"51622886","name":"Shinola Hotel- Evening Bar","address":"1400 Woodward Ave","zipcode":"48226"},{"establishmentid":"51622787","name":"The Brakeman","address":"1400 Woodward Ave","zipcode":"48226"},{"establishmentid":"51622578","name":"Lover's Only","address":"34 W Grand River","zipcode":"48226"},{"establishmentid":"51622763","name":"Cannelle Detroit LLC","address":"45 W Grand River Ave","zipcode":"48226"},{"establishmentid":"4957","name":"Cornerstone Barrel House","address":"1456 Woodward Ave","zipcode":"48226"},{"establishmentid":"4843","name":"Wright & Co.","address":"1500 Woodward Ave","zipcode":"48226"}],"inspectionsByEstablishmentidList":[{"inspectionid":"45784","inspectionDate":"2019-04-03T00:00:00","inspectionType":"Routine Inspection","inCompliance":"No","violationsByInspectionidList":[{"violationCode":"3-501.18","violationDescription":"A FOOD specified in ¶ 3-501.17(A) or (B) shall be discarded if it:  \r\n    (1) Exceeds the temperature and time combination specified in ¶ 3-501.17(A),              except time that the product is frozen; (P)\r\n    (2) Is in a container or PACKAGE that does not bear a date or day; (P) or\r\n    (3) Is appropriately marked with a date or day that exceeds a temperature and              time combination as specified in ¶ 3-501.17(A). (P)  \r\n\r\n","violationType":"Priority","itemDescription":"Ready to eat, potentially hazardous food(s)","subItem":"","problemDescription":"Beyond consume by date","subProblem":"","location":"COOK LINE AREA","subLocation":"In the Reach-in cooler","corrected":"Yes","daysToCorrect":"10.0","correctedDate":"2019-04-03T00:00:00","correctionDescription":null},{"violationCode":"3-603.11","violationDescription":"If an animal FOOD such as  beef, EGGS, FISH, lamb, milk, pork, POULTRY, or shellfish is served or sold raw, undercooked, or without otherwise being processed to eliminate pathogens, either in a READY-TO-EAT form or as an ingredient in another READY-TO-EAT FOOD, the PERMIT HOLDER shall inform CONSUMERS of the significantly increased RISK of consuming such FOODS, by using menu advisories, brochures, lable statements, table tents, placards, or other effective written means. (Pf)\r\nFOOD LAW SEC 6149\r\n...The food establishment may provide the following statement on selection information so that it is made pulblicly available: \"Ask your server about menu items that are cooked to order or served raw.  Consuming raw or undercooked, meats, poultry, shellfish, or eggs may increase your risk of foodborne illness.\"\r\nThe statements must be in a minimum of 11 point font and in a color that provides a clear contrast to background.\r\n","violationType":"Foundation","itemDescription":"Menu advisories","subItem":"","problemDescription":"Not provided","subProblem":"","location":"ESTABLISHMENT","subLocation":"On the Menu","corrected":"No","daysToCorrect":"10.0","correctedDate":null,"correctionDescription":null}]},{"inspectionid":"44495","inspectionDate":"2018-12-14T00:00:00","inspectionType":"Preopening/New","inCompliance":"Yes","violationsByInspectionidList":[]},{"inspectionid":"44322","inspectionDate":"2018-12-03T00:00:00","inspectionType":"Preopening/New","inCompliance":"Yes","violationsByInspectionidList":[]}]}],"maxInspectionDate":[{"inspectionDate":"2019-05-31T00:00:00"}]}},"pageContext":{"eid":"51622881"}}