{"data":{"site":{"pathPrefix":"/restaurant-inspections"},"postgres":{"establishment":[{"establishmentid":"5342","name":"Oakland International Academy","address":"6111 Miller St","zipcode":"48211","owner":"Oakland International Academy","licenseNumber":"208210","licenseType":"Fixed Establishment","establishmentType":"Non-Public School","establishmentStatus":null,"riskCategory":"Medium","reviewFrequencyDays":"210.0","coords":"-83.03983,42.39083","geojson":{"id":"5342","type":"Feature","geometry":{"type":"Point","coordinates":[-83.039827991,42.3908326810001]},"properties":{"name":"Oakland International Academy","owner":"Oakland International Academy","address":"6111 Miller St","zipcode":"48211","license_type":"Fixed Establishment","risk_category":"Medium","license_number":"208210","establishmentid":"5342","establishment_type":"Non-Public School","establishment_status":null,"review_frequency_days":"210.0","most_recent_license_date":"8/2/2016"}},"nearbyList":[{"establishmentid":"5343","name":"Oakland International Academy","address":"4001 Miller St","zipcode":null},{"establishmentid":"4777","name":"Mr. Primo Softy","address":"8215 Winkelman Street","zipcode":"48211"},{"establishmentid":"5218","name":"S & A Ice Cream","address":"8189 Winkelman St","zipcode":"48211"},{"establishmentid":"51623019","name":"Detroit Soft Serve","address":"6116 Georgia","zipcode":"48211"},{"establishmentid":"5344","name":"Oakland International Academy","address":"8228 Conant St","zipcode":"48211"},{"establishmentid":"4005","name":"M H Soft Serve","address":"4177 Dodge St","zipcode":"48211"},{"establishmentid":"4810","name":"U.S.A Ice Cream","address":"4069 Dodge St","zipcode":"48211"},{"establishmentid":"51623014","name":"Saleh Ice Cream","address":"6356 Selkirk","zipcode":"48211"},{"establishmentid":"5353","name":"Fresh Land","address":"6185 Marcos","zipcode":"48211"},{"establishmentid":"5369","name":"Spiderman Ice Cream","address":"5975 Hedge St","zipcode":"48211"}],"inspectionsByEstablishmentidList":[{"inspectionid":"44978","inspectionDate":"2019-01-18T00:00:00","inspectionType":"Routine Inspection","inCompliance":"Yes","violationsByInspectionidList":[{"violationCode":"4-602.13","violationDescription":"NonFOOD-CONTACT SURFACES of EQUIPMENT shall be cleaned at a frequency necessary to preclude accumulation of soil residues.\r\n","violationType":"Core","itemDescription":"Nonfood contact surface(s)","subItem":"","problemDescription":"With accumulation of debris","subProblem":"","location":"STEAM TABLE","subLocation":"","corrected":"Not required","daysToCorrect":"30.0","correctedDate":null,"correctionDescription":"Keep clean."}]},{"inspectionid":"44541","inspectionDate":"2018-12-20T00:00:00","inspectionType":"Closed - Temporary","inCompliance":"Yes","violationsByInspectionidList":[]},{"inspectionid":"42487","inspectionDate":"2018-06-05T00:00:00","inspectionType":"Routine Inspection","inCompliance":"Yes","violationsByInspectionidList":[]},{"inspectionid":"41149","inspectionDate":"2017-06-19T00:00:00","inspectionType":"Routine Inspection","inCompliance":"Yes","violationsByInspectionidList":[]},{"inspectionid":"38752","inspectionDate":"2017-05-12T00:00:00","inspectionType":"Routine Inspection","inCompliance":"No","violationsByInspectionidList":[{"violationCode":"5-103.12","violationDescription":"Water under pressure shall be provided to all fixtures, EQUIPMENT, and nonFOOD EQUIPMENT that are required to use water unless otherwise approved. (Pf)\r\n","violationType":"Foundation","itemDescription":"Water under pressure","subItem":"","problemDescription":"Insufficient to meet demands","subProblem":"","location":"HANDSINK(S)","subLocation":"","corrected":"No","daysToCorrect":"10.0","correctedDate":null,"correctionDescription":"Provide sufficient water pressure to meet demand of use."}]}]}],"maxInspectionDate":[{"inspectionDate":"2019-04-30T00:00:00"}]}},"pageContext":{"eid":"5342"}}