{"componentChunkName":"component---src-templates-establishment-page-js","path":"/establishment/5129","result":{"data":{"site":{"pathPrefix":"/restaurant-inspections"},"postgres":{"establishment":[{"establishmentid":"5129","name":"The Marble Bar","address":"1501 Holden","zipcode":"48208","owner":"Raphael Blake","licenseNumber":"204145","licenseType":"Fixed Establishment","establishmentType":"Food Service Establishment","establishmentStatus":"Plan Review","riskCategory":null,"reviewFrequencyDays":"335","coords":"-83.08519,42.36302","geojson":{"id":"5129","type":"Feature","geometry":{"type":"Point","coordinates":[-83.085192256,42.363018604]},"properties":{"name":"The Marble Bar","owner":"Raphael Blake","address":"1501 Holden","zipcode":"48208","license_type":"Fixed Establishment","risk_category":null,"license_number":"204145","establishmentid":"5129","establishment_type":"Food Service Establishment","establishment_status":"Plan Review","review_frequency_days":"335","most_recent_license_date":null}},"nearbyList":[{"establishmentid":"5130","name":"Marble Bar","address":"1501  Holden","zipcode":"48208"},{"establishmentid":"1051","name":"Kentucky Fried Chicken H730215","address":"2716 Grand Blvd. W.","zipcode":"48208"},{"establishmentid":"51622738","name":"Good Cakes & Bakes","address":"1314 Holden","zipcode":"48202"},{"establishmentid":"1694","name":"Subway #14651","address":"2790 Grand Blvd. W.","zipcode":"48202"},{"establishmentid":"4332","name":"Papa's Pizza","address":"2697 Grand Blvd. W. ","zipcode":"48208"},{"establishmentid":"3602","name":"Manhattan Fish & Chicken","address":"2699  Grand Blvd W.","zipcode":"48208"},{"establishmentid":"1975","name":"Boulevard Cafe","address":"2808 Grand Blvd. W.","zipcode":"48202"},{"establishmentid":"2844","name":"Sterling Services","address":"2799 Grand Blvd. W.","zipcode":"48202"},{"establishmentid":"2845","name":"Sterling Services","address":"2799 Grand Blvd. W.","zipcode":"48202"},{"establishmentid":"1645","name":"Henry Ford Hospital Cafeteria","address":"2799 Grand Blvd. W.","zipcode":"48202"}],"inspectionsByEstablishmentidList":[{"inspectionid":"57318","inspectionDate":"2022-02-01T00:00:00","inspectionType":"Routine Inspection","inCompliance":"Yes","violationsByInspectionidList":[]},{"inspectionid":"54704","inspectionDate":"2021-03-18T00:00:00","inspectionType":"Routine Inspection","inCompliance":"Yes","violationsByInspectionidList":[]},{"inspectionid":"51092","inspectionDate":"2020-03-10T00:00:00","inspectionType":"Routine Inspection","inCompliance":"Yes","violationsByInspectionidList":[]},{"inspectionid":"45147","inspectionDate":"2019-02-15T00:00:00","inspectionType":"Routine Inspection","inCompliance":"Yes","violationsByInspectionidList":[]},{"inspectionid":"41434","inspectionDate":"2018-02-07T00:00:00","inspectionType":"Routine Inspection","inCompliance":"Yes","violationsByInspectionidList":[{"violationCode":"4-302.14","violationDescription":"A test kit or other device that accurately measures the concentration in mg/L of SANITIZING solutions shall be provided. (Pf)\n","violationType":"Foundation","itemDescription":"Sanitizer test kit","subItem":"quaternary ammonia","problemDescription":"Not provided","subProblem":null,"location":"BAR","subLocation":"Missing Test strips","corrected":"True","daysToCorrect":"10","correctedDate":"2018-02-14T00:00:00","correctionDescription":"Provide."}]},{"inspectionid":"37731","inspectionDate":"2017-01-20T00:00:00","inspectionType":"Routine Inspection","inCompliance":"Yes","violationsByInspectionidList":[{"violationCode":"4-601.11","violationDescription":"(A) EQUIPMENT FOOD-CONTACT SURFACES and UTENSILS shall be clean to sight and touch. (Pf)\n(B) The FOOD-CONTACT SURFACES of cooking EQUIPMENT and pans shall be kept free of encrusted grease deposits and other soil accumulations. \n(C) NonFOOD-CONTACT SURFACES of EQUIPMENT shall be kept free of an accumulation of dust, dirt, FOOD residue, and other debris. \n","violationType":"Foundation","itemDescription":"Food-contact surface(s)","subItem":"Equipment","problemDescription":"Soiled","subProblem":null,"location":"BAR","subLocation":"At the Beverage gun dispenser","corrected":"True","daysToCorrect":"10","correctedDate":"2017-01-20T00:00:00","correctionDescription":"Keep clean."},{"violationCode":"6-501.11","violationDescription":"PHYSICAL FACILITIES shall be maintained in good repair.\n","violationType":"Core","itemDescription":"Physical facilities","subItem":"wall(s)","problemDescription":"In poor repair","subProblem":"Open seams","location":"RESTROOM (UNISEX)","subLocation":"Behind the Handsink","corrected":"False","daysToCorrect":"30","correctedDate":null,"correctionDescription":"Repair/replace."}]}]}],"maxInspectionDate":[{"inspectionDate":"2022-07-25T00:00:00"}]}},"pageContext":{"eid":"5129"}},"staticQueryHashes":["3649515864","63159454"]}