{"componentChunkName":"component---src-templates-establishment-page-js","path":"/establishment/51622894","result":{"data":{"site":{"pathPrefix":"/restaurant-inspections"},"postgres":{"establishment":[{"establishmentid":"51622894","name":"Crazy Gringo Express","address":"500 Griswold","zipcode":"48226","owner":"Tom Vasilos","licenseNumber":"233680","licenseType":"Fixed Establishment","establishmentType":"Food Service Establishment","establishmentStatus":"Permanently Closed","riskCategory":null,"reviewFrequencyDays":"335","coords":"-83.04610,42.32958","geojson":{"id":"51622894","type":"Feature","geometry":{"type":"Point","coordinates":[-83.0461037,42.329580881]},"properties":{"name":"Crazy Gringo Express","owner":"Tom Vasilos","address":"500 Griswold","zipcode":"48226","license_type":"Fixed Establishment","risk_category":null,"license_number":"233680","establishmentid":"51622894","establishment_type":"Food Service Establishment","establishment_status":"Permanently Closed","review_frequency_days":"335","most_recent_license_date":"2019-05-31"}},"nearbyList":[{"establishmentid":"51622988","name":"Crazy Gringo Express","address":"500 Griswold St.","zipcode":"48226"},{"establishmentid":"51623953","name":"James Oliver Guardian","address":"500 Griswold","zipcode":"48207"},{"establishmentid":"51622930","name":"Green Room Salads dba Lunchbox Deli","address":"500 Griswold Ste 220","zipcode":"48226"},{"establishmentid":"3201","name":"Karmic Cafe","address":"500  Griswold","zipcode":"48226"},{"establishmentid":"3170","name":"Karmic Cafe","address":"500 Griswold","zipcode":"48226"},{"establishmentid":"51623154","name":"Shirley Shawarma","address":"500 Griswold Street","zipcode":"48226"},{"establishmentid":"3521","name":"Stella International Cafe ","address":"500 Griswold St.","zipcode":"48226"},{"establishmentid":"3202","name":"Rowland Cafe","address":"500 Griswold St.","zipcode":"48226"},{"establishmentid":"2004","name":"STERLING SERVICES","address":"500 GRISWOLD","zipcode":"48226"},{"establishmentid":"5418","name":"The Guardian Cafe","address":"500 Griswold St.","zipcode":"48226"}],"inspectionsByEstablishmentidList":[{"inspectionid":"44749","inspectionDate":"2018-12-17T00:00:00","inspectionType":"Routine Inspection","inCompliance":"No","violationsByInspectionidList":[{"violationCode":"3-602.11","violationDescription":"(A)  FOOD PACKAGED in a FOOD ESTABLISHMENT, shall be labeled as specified in LAW. \n(B) The name of the FOOD source for each MAJOR FOOD ALLERGEN contained in the FOOD unless the FOOD source is already part of the common or usual name of the respective ingredient. (Pf)\n(C)  Bulk FOOD that is available for CONSUMER self-dispensing shall be prominently labeled with the following information in plain view of the CONSUMER:\n(1)  the manufacturer's or processor's label that was provided with the  FOOD; or \n(2)  A card, sign, or other method of notification that includes the information required by law. \n","violationType":"Foundation","itemDescription":"Packaged food label(s)","subItem":"","problemDescription":"Do not include","subProblem":"List of ingredients","location":"FACILITY","subLocation":"","corrected":"False","daysToCorrect":"10","correctedDate":null,"correctionDescription":"Provide."},{"violationCode":"6-403.11","violationDescription":"(A) Areas designated for EMPLOYEES to eat, drink, and use tobacco shall be located so that FOOD, EQUIPMENT, LINENS, and SINGLE-SERVICE and SINGLE-USE ARTICLES are protected from contamination.\n(B) Lockers or other suitable facilities shall be located in a designated room or area where contamination of FOOD, EQUIPMENT, UTENSILS, LINENS, and SINGLE-SERVICE and SINGLE-USE ARTICLES can not occur.\n","violationType":"Core","itemDescription":"Locker(s)/employee storage area(s)","subItem":"","problemDescription":"Contaminates","subProblem":"Equipment","location":"STORAGE AREA (DRY)","subLocation":"","corrected":"True","daysToCorrect":"30","correctedDate":"2018-12-18T00:00:00","correctionDescription":"Relocate to a designated area that does not contaminate items or surfaces."},{"violationCode":"4-204.112","violationDescription":"(A)  In a mechanically refrigerated or hot FOOD storage unit, the sensor of a TEMPERATURE MEASURING DEVICE shall be located to measure the air temperature in the warmest part of a mechanically refrigerated unit and in the coolest part of a hot FOOD storage unit.\n(B)  Cold or hot holding EQUIPMENT used for POTENTIALLY HAZARDOUS FOOD shall be designed to include and shall be equipped with at least one integral or permanently affixed TEMPERATURE MEASURING DEVICE that is located to allow easy viewing of the device's temperature display (EXCEPT, heat lamps, cold plates, steam tables, or other equipment where it is not practical).\n(C)  TEMPERATURE MEASURING DEVICES shall be designed to be easily readable.\n(D)  FOOD TEMPERATURE MEASURING DEVICES and water TEMPERATURE MEASURING DEVICES on WAREWASHING machines shall have a numerical scale, printed record, or digital readout in increments no greater than 1C or 2F in the intended range of use. (Pf)\n\n","violationType":"Core","itemDescription":"Thermometer(s)","subItem":"refrigeration","problemDescription":"Not provided","subProblem":"","location":"COOLER","subLocation":"","corrected":"False","daysToCorrect":"10","correctedDate":null,"correctionDescription":"Provide."},{"violationCode":"4-602.13","violationDescription":"NonFOOD-CONTACT SURFACES of EQUIPMENT shall be cleaned at a frequency necessary to preclude accumulation of soil residues.\n","violationType":"Core","itemDescription":"Nonfood contact surface(s)","subItem":"","problemDescription":"Soiled","subProblem":"","location":"HOT HOLDING CABINET","subLocation":"","corrected":"False","daysToCorrect":"30","correctedDate":null,"correctionDescription":"Clean."}]}]}],"maxInspectionDate":[{"inspectionDate":"2023-04-25T00:00:00"}]}},"pageContext":{"eid":"51622894"}},"staticQueryHashes":["3649515864","63159454"]}