{"componentChunkName":"component---src-templates-establishment-page-js","path":"/establishment/51622972","result":{"data":{"site":{"pathPrefix":"/restaurant-inspections"},"postgres":{"establishment":[{"establishmentid":"51622972","name":"Modhubann Sweet & Cafe ","address":"3611 Carpenter","zipcode":"48212","owner":"Abu Bakher Siddik","licenseNumber":"237171","licenseType":"Fixed Establishment","establishmentType":"Food Service Establishment","establishmentStatus":"Open","riskCategory":"High","reviewFrequencyDays":"150","coords":"-83.05800,42.40899","geojson":{"id":"51622972","type":"Feature","geometry":{"type":"Point","coordinates":[-83.057997075,42.408993198]},"properties":{"name":"Modhubann Sweet & Cafe ","owner":"Abu Bakher Siddik","address":"3611 Carpenter","zipcode":"48212","license_type":"Fixed Establishment","risk_category":"High","license_number":"237171","establishmentid":"51622972","establishment_type":"Food Service Establishment","establishment_status":"Open","review_frequency_days":"150","most_recent_license_date":"2022-05-05"}},"nearbyList":[{"establishmentid":"51622666","name":"New Al Baraka Restaurant LLC","address":"3611  Carpenter St. Ste 1","zipcode":"48212"},{"establishmentid":"4115","name":"Al Baraka Restaurant","address":"3611  Carpenter St.","zipcode":"48212"},{"establishmentid":"717","name":"J & S Bar","address":"12208 Conant Ave.","zipcode":"48212"},{"establishmentid":"750","name":"Starvin Marvin ","address":"12449 Conant","zipcode":"48212"},{"establishmentid":"3589","name":"HRs Lounge","address":"12449 Conant","zipcode":"48212"},{"establishmentid":"3373","name":"Reshmi Sweets & Cafe","address":"12170 Conant Ave.","zipcode":"48212"},{"establishmentid":"51623761","name":"Best Ice Cream ","address":"3886 Gravin ","zipcode":"48212"},{"establishmentid":"4949","name":"Frontier International Academy","address":"13200 Conant","zipcode":"48212"},{"establishmentid":"51622790","name":"Spicy Sweet Cafe","address":"11936 Conant","zipcode":"48234"},{"establishmentid":"4402","name":"Bridge Academy West","address":"3105 Carpenter St.","zipcode":"48212"}],"inspectionsByEstablishmentidList":[{"inspectionid":"61780","inspectionDate":"2023-02-08T00:00:00","inspectionType":"Routine Inspection","inCompliance":"Yes","violationsByInspectionidList":[]},{"inspectionid":"50722","inspectionDate":"2020-02-02T00:00:00","inspectionType":"Routine Inspection","inCompliance":"Yes","violationsByInspectionidList":[{"violationCode":"3-501.16","violationDescription":"Except during preparation, cooking, or cooling, or when time is used as the public health control POTENTIALLY HAZARDOUS FOOD (TIME/TEMPERATURE CONTROL FOR SAFETY FOOD) shall be maintained:\n(A)  135ºF or above, except that roasts properly cooked and cooled may be held              at a temperature of 130ºF; or (P)\n(B)   At 41ºF or less (P)\n","violationType":"Priority","itemDescription":"Hot food item(s)","subItem":"","problemDescription":"Stored above 41 degrees F","subProblem":"","location":"HOT HOLDING AREA","subLocation":"","corrected":"True","daysToCorrect":"10","correctedDate":"2020-02-03T00:00:00","correctionDescription":null},{"violationCode":"4-302.14","violationDescription":"A test kit or other device that accurately measures the concentration in mg/L of SANITIZING solutions shall be provided. (Pf)\n","violationType":"Foundation","itemDescription":"Sanitizer test kit","subItem":"","problemDescription":"Not provided","subProblem":"","location":"3 COMPARTMENT SINK AREA","subLocation":"","corrected":"True","daysToCorrect":"10","correctedDate":"2020-02-06T00:00:00","correctionDescription":null},{"violationCode":"3-302.12","violationDescription":"Except for containers holding FOOD that can be readily and unmistakably recognized such as dry pasta, working containers holding FOOD or FOOD ingredients that are removed from their original packages for use in the FOOD ESTABLISHMENT, such as cooking oils, flour, herbs, potato flakes, salt, spices, and sugar shall be identified with the common name of the FOOD.","violationType":"Core","itemDescription":"Food item(s)","subItem":"","problemDescription":"Not identified","subProblem":"","location":"KITCHEN","subLocation":"","corrected":"True","daysToCorrect":"30","correctedDate":"2020-02-06T00:00:00","correctionDescription":null},{"violationCode":"4-602.13","violationDescription":"NonFOOD-CONTACT SURFACES of EQUIPMENT shall be cleaned at a frequency necessary to preclude accumulation of soil residues.\n","violationType":"Core","itemDescription":"Nonfood contact surface(s)","subItem":"","problemDescription":"With accumulation of debris","subProblem":"","location":"KITCHEN","subLocation":"","corrected":"False","daysToCorrect":"30","correctedDate":null,"correctionDescription":null}]},{"inspectionid":"48373","inspectionDate":"2019-07-14T00:00:00","inspectionType":"Routine Inspection","inCompliance":"Yes","violationsByInspectionidList":[{"violationCode":"3-305.11","violationDescription":"FOOD shall be protected from contamination by storing the FOOD:\n(1)     In a clean, dry location;\n(2)     Where it is not exposed to splash, dust, or other contamination; and\n(3)     At least 15 cm (6 inches) above the floor, unless otherwise approved.\n","violationType":"Core","itemDescription":"Food item(s) in storage","subItem":"","problemDescription":"Exposed to dust, splash, or other contaminates","subProblem":"","location":"THROUGHOUT FACILITY","subLocation":"","corrected":"True","daysToCorrect":"30","correctedDate":"2019-07-15T00:00:00","correctionDescription":null}]}]}],"maxInspectionDate":[{"inspectionDate":"2023-04-25T00:00:00"}]}},"pageContext":{"eid":"51622972"}},"staticQueryHashes":["3649515864","63159454"]}