{"componentChunkName":"component---src-templates-establishment-page-js","path":"/establishment/51623544","result":{"data":{"site":{"pathPrefix":"/restaurant-inspections"},"postgres":{"establishment":[{"establishmentid":"51623544","name":"Capital Hook Fish & Chicken Plus Inc.","address":"10600 Seven Mile W.","zipcode":"48221","owner":"Moamer A Omar","licenseNumber":"255918","licenseType":"Fixed Establishment","establishmentType":"Food Service Establishment","establishmentStatus":"Open","riskCategory":"High","reviewFrequencyDays":"150","coords":"-83.16806,42.43160","geojson":{"id":"51623544","type":"Feature","geometry":{"type":"Point","coordinates":[-83.168063821,42.431598921]},"properties":{"name":"Capital Hook Fish & Chicken Plus Inc.","owner":"Moamer A Omar","address":"10600 Seven Mile W.","zipcode":"48221","license_type":"Fixed Establishment","risk_category":"High","license_number":"255918","establishmentid":"51623544","establishment_type":"Food Service Establishment","establishment_status":"Open","review_frequency_days":"150","most_recent_license_date":"8/23/2021"}},"nearbyList":[{"establishmentid":"51622575","name":"Capital Hook Fish & Chicken Inc","address":"10600 W. Seven Mile Rd.","zipcode":"48221"},{"establishmentid":"5280","name":"Capital Hook Fish & Chicken Inc","address":"10600 W. Seven MIle Rd.","zipcode":"48221"},{"establishmentid":"51623840","name":"Hook Market Inc.","address":"10600 Seven Mile W.","zipcode":"48221"},{"establishmentid":"3357","name":"Hook Fish & Chicken","address":"10600 Seven Mile Rd. W.","zipcode":"48221"},{"establishmentid":"51623520","name":"Bobby's World","address":"10615 Seven Mile W. ","zipcode":"48221"},{"establishmentid":"3368","name":"Captain D's Seafood #6161","address":"10711 Seven Mile Rd. W.","zipcode":"48221"},{"establishmentid":"4098","name":"Checkers #3310","address":"10711 Seven Mile Rd. W.","zipcode":"48221"},{"establishmentid":"723","name":"Motor City Soul Food","address":"12700 Seven Mile Rd. W.","zipcode":"48235"},{"establishmentid":"2557","name":"Double Diamond Vending","address":"18901 Meyers","zipcode":"48235"},{"establishmentid":"3028","name":"Robinson Dairy Vending","address":"18901 Meyers","zipcode":"48235"}],"inspectionsByEstablishmentidList":[{"inspectionid":"58347","inspectionDate":"2022-04-06T00:00:00","inspectionType":"Routine Inspection","inCompliance":"Yes","violationsByInspectionidList":[{"violationCode":"6-501.12","violationDescription":"(A) PHYSICAL FACILITIES shall be cleaned as often as necessary to keep them clean.\n(B) Except spill cleanup, cleaning shall be done during periods when the least amount of FOOD is exposed such as after closing. ","violationType":"Core","itemDescription":"Physical facilities/structures","subItem":null,"problemDescription":"Not clean","subProblem":null,"location":"FLOOR AND WALLS","subLocation":null,"corrected":"False","daysToCorrect":"30","correctedDate":null,"correctionDescription":null},{"violationCode":"2-402.11","violationDescription":"FOOD EMPLOYEES shall wear hair restraints such as hats, hair coverings or nets, beard restraints, and clothing that covers body hair, that are designed and worn to effectively keep their hair from contacting exposed FOOD; clean EQUIPMENT, UTENSILS, and LINENS; or unwrapped SINGLE-SERVICE or SINGLE-USE ARTICLES.","violationType":"Core","itemDescription":"Hair restraint","subItem":null,"problemDescription":"Not worn on head/hair","subProblem":null,"location":"EMPLOYEE(S)","subLocation":null,"corrected":"True","daysToCorrect":"30","correctedDate":"2022-04-06T00:00:00","correctionDescription":null}]}]}],"maxInspectionDate":[{"inspectionDate":"2022-08-31T00:00:00"}]}},"pageContext":{"eid":"51623544"}},"staticQueryHashes":["3649515864","63159454"]}