{"componentChunkName":"component---src-templates-establishment-page-js","path":"/establishment/3892","result":{"data":{"site":{"pathPrefix":"/restaurant-inspections"},"postgres":{"establishment":[{"establishmentid":"3892","name":"Evans Solutions","address":"8045 Second","zipcode":"48202","owner":"Evans Solutions, Inc.","licenseNumber":"064475","licenseType":"Fixed Establishment","establishmentType":"Food Service Establishment","establishmentStatus":"Permanently Closed","riskCategory":null,"reviewFrequencyDays":"335","coords":"-83.07968,42.37359","geojson":{"id":"3892","type":"Feature","geometry":{"type":"Point","coordinates":[-83.079684691,42.373586715]},"properties":{"name":"Evans Solutions","owner":"Evans Solutions, Inc.","address":"8045 Second","zipcode":"48202","license_type":"Fixed Establishment","risk_category":null,"license_number":"064475","establishmentid":"3892","establishment_type":"Food Service Establishment","establishment_status":"Permanently Closed","review_frequency_days":"335","most_recent_license_date":"4/28/2017"}},"nearbyList":[{"establishmentid":"3192","name":"Akwaaba Community Center","address":"8045 Second Ave.","zipcode":"48202"},{"establishmentid":"4376","name":"Mount Zion New Covenant Baptist Church","address":"8231 Second Ave.","zipcode":"48202"},{"establishmentid":"1741","name":"Anthony's Complete Services","address":"7700 Second St.","zipcode":"48202"},{"establishmentid":"321","name":"Barsamian Preparatory Center","address":"7650 Second St.","zipcode":"48202"},{"establishmentid":"753","name":"Burger King #1284","address":"8201 Woodward Ave.","zipcode":"48202"},{"establishmentid":"1772","name":"Sterling Services","address":"7441 2nd Avenue","zipcode":"48202"},{"establishmentid":"1537","name":"Cuisine","address":"670 Lothrop","zipcode":"48202"},{"establishmentid":"51623063","name":"Garden Flora","address":"611 Philadelphia W.","zipcode":"48202"},{"establishmentid":"1717","name":"The Turkey Grill","address":"8290 Woodward Ave.","zipcode":"48202"},{"establishmentid":"51622495","name":"The Turkey Grill Food Truck","address":"8290 Woodward","zipcode":"48202"}],"inspectionsByEstablishmentidList":[{"inspectionid":"43853","inspectionDate":"2018-07-03T00:00:00","inspectionType":"Routine Inspection","inCompliance":"Yes","violationsByInspectionidList":[]},{"inspectionid":"39999","inspectionDate":"2017-09-20T00:00:00","inspectionType":"Routine Inspection","inCompliance":"No","violationsByInspectionidList":[{"violationCode":"5-205.15","violationDescription":"A PLUMBING SYSTEM shall be:\n(A) Repaired according to LAW; (P) and\n(B) Maintained in good repair.\n","violationType":"Core","itemDescription":"Plumbing system","subItem":"water line(s)","problemDescription":"Not maintained","subProblem":null,"location":"KITCHEN","subLocation":"At the Three compartment sink","corrected":"False","daysToCorrect":"10","correctedDate":null,"correctionDescription":"Maintain in good repair"},{"violationCode":"6-201.17","violationDescription":"(A) Except as otherwise allowed by law, attachments to walls and ceilings such as light fixtures, mechanical room ventilation system components, vent covers, wall mounted fans, decorative items, and other attachments shall be EASILY CLEANABLE.\n(B) In a CONSUMER area, wall and ceiling surfaces and decorative items and attachments that are provided for ambiance need not meet this requirement if they are kept clean.\n","violationType":"Core","itemDescription":"Wall attachment(s)","subItem":"light fixtures","problemDescription":"Not easily cleanable","subProblem":null,"location":"KITCHEN","subLocation":"Missing Electrical outlet wall cover","corrected":"False","daysToCorrect":"30","correctedDate":null,"correctionDescription":"Repair/replace to be easily cleanable."},{"violationCode":"4-501.11","violationDescription":"EQUIPMENT shall be maintained in a state of repair and condition that meets the requirements of the code.\n","violationType":"Core","itemDescription":"Equipment components","subItem":null,"problemDescription":"Broken","subProblem":null,"location":"KITCHEN","subLocation":"At the Side curtain","corrected":"False","daysToCorrect":"30","correctedDate":null,"correctionDescription":"Repair/replace."},{"violationCode":"4-602.12","violationDescription":"(A) The FOOD-CONTACT SURFACES of cooking and baking EQUIPMENT shall be cleaned at least every 24 hours. This section does not apply to hot oil cooking and filtering EQUIPMENT if it is cleaned as specified in Subparagraph 4-602.11(D)(6).   \n(B) The cavities and door seals of microwave ovens shall be cleaned at least every 24 hours by using the manufacturer's recommended cleaning procedure.","violationType":"Core","itemDescription":"Microwave oven door seals and cavities","subItem":null,"problemDescription":"Not cleaned","subProblem":"Through out the day as necessary","location":"BREAK ROOM","subLocation":"Inside the Microwave Oven(s)","corrected":"False","daysToCorrect":"30","correctedDate":null,"correctionDescription":"Clean as specified above."}]}]}],"maxInspectionDate":[{"inspectionDate":"2022-07-25T00:00:00"}]}},"pageContext":{"eid":"3892"}},"staticQueryHashes":["3649515864","63159454"]}