{"data":{"site":{"pathPrefix":"/restaurant-inspections"},"postgres":{"establishment":[{"establishmentid":"51622851","name":"Dilla's Delights LLC","address":"4731 Bellevue St","zipcode":"48207","owner":"Herman Hayes","licenseNumber":"229400","licenseType":"Fixed Establishment","establishmentType":"Food Service Establishment","establishmentStatus":"Open","riskCategory":"Medium","reviewFrequencyDays":"365","coords":"-83.02265,42.37002","geojson":{"id":"51622851","type":"Feature","geometry":{"type":"Point","coordinates":[-83.022654234,42.370020319]},"properties":{"name":"Dilla's Delights LLC","owner":"Herman Hayes","address":"4731 Bellevue St","zipcode":"48207","license_type":"Fixed Establishment","risk_category":"Medium","license_number":"229400","establishmentid":"51622851","establishment_type":"Food Service Establishment","establishment_status":"Open","review_frequency_days":"365","most_recent_license_date":"4/29/2019"}},"nearbyList":[{"establishmentid":"51622484","name":"Avalon Commissary","address":"4731 Bellevue St","zipcode":"48207"},{"establishmentid":"1872","name":"Terry's Casablanca","address":"6366 Gratiot Ave              ","zipcode":"48207"},{"establishmentid":"4294","name":"King Fish Market","address":"1167 E Grand Blvd","zipcode":"48211"},{"establishmentid":"1350","name":"Kentucky Fried Chicken","address":"3785 Gratiot Ave","zipcode":"48207"},{"establishmentid":"541","name":"D Motown Deli","address":"3750 Gratiot Ave","zipcode":"48207"},{"establishmentid":"4017","name":"Little Caesars Pizza","address":"7447 Gratiot Ave","zipcode":"48213"},{"establishmentid":"548","name":"Israel of God Church","address":"3533 E Forest Ave","zipcode":"48207"},{"establishmentid":"1302","name":"Krystal's Korner","address":"5700 Canton St","zipcode":"48211"},{"establishmentid":"1578","name":"Grandy's Coney Island","address":"3570 Mt Elliott Rd","zipcode":"48207"},{"establishmentid":"1548","name":"Anani ","address":"7636 Gratiot Ave","zipcode":"48213"}],"inspectionsByEstablishmentidList":[{"inspectionid":"43596","inspectionDate":"2018-10-01T00:00:00","inspectionType":"Routine Inspection","inCompliance":"No","violationsByInspectionidList":[{"violationCode":"6-301.12","violationDescription":"Each HANDWASHING SINK or group of adjacent HANDWASHING SINKS shall be provided with:\r\n(A) Individual, disposable towels; (Pf)\r\n(B) A continuous towel system that supplies the user with a clean towel;(Pf) or \r\n(C) A heated-air hand drying device.(Pf)\r\n(D) A hand drying device that employs an air-knife system that delivers high velocity pressurized air at ambient temperatures.(Pf)\r\n","violationType":"Foundation","itemDescription":"Sanitary hand drying provisions","subItem":"disposable, paper towels","problemDescription":"Not provided","subProblem":"At hand sink","location":"KITCHEN","subLocation":"At the Handsink","corrected":"Yes","daysToCorrect":"10","correctedDate":"2018-10-01T00:00:00","correctionDescription":"Provide"},{"violationCode":"4-302.12","violationDescription":"(A) FOOD TEMPERATURE MEASURING DEVICES shall be provided and readily accessible for use in ensuring attainment and maintenance of FOOD temperatures as specified under Chapter 3. (Pf)   \r\n(B) A TEMPERATURE MEASURING DEVICE with a suitable small-diameter probe that is designed to measure the temperature of thin masses shall be provided and readily accessible to accurately measure the temperature in thin FOODS such as MEAT patties and FISH filets. (Pf)\r\n","violationType":"Foundation","itemDescription":"Food thermometer(s)","subItem":"probe","problemDescription":"Not provided","subProblem":"","location":"ESTABLISHMENT","subLocation":"Missing Thermometer(s)","corrected":"No","daysToCorrect":"10","correctedDate":null,"correctionDescription":"Provide as required"},{"violationCode":"4-302.14","violationDescription":"A test kit or other device that accurately measures the concentration in mg/L of SANITIZING solutions shall be provided. (Pf)\r\n","violationType":"Foundation","itemDescription":"Sanitizer test kit","subItem":"","problemDescription":"Not provided","subProblem":"","location":"ESTABLISHMENT","subLocation":"Missing Test strips","corrected":"No","daysToCorrect":"10","correctedDate":null,"correctionDescription":"Provide as required"},{"violationCode":"6-403.11","violationDescription":"(A) Areas designated for EMPLOYEES to eat, drink, and use tobacco shall be located so that FOOD, EQUIPMENT, LINENS, and SINGLE-SERVICE and SINGLE-USE ARTICLES are protected from contamination.\r\n(B) Lockers or other suitable facilities shall be located in a designated room or area where contamination of FOOD, EQUIPMENT, UTENSILS, LINENS, and SINGLE-SERVICE and SINGLE-USE ARTICLES can not occur.\r\n","violationType":"Core","itemDescription":"Locker(s)/employee storage area(s)","subItem":"","problemDescription":"Contaminates","subProblem":"Equipment","location":"HALLWAY","subLocation":"At the Rack(s)","corrected":"Yes","daysToCorrect":"30","correctedDate":"2018-10-01T00:00:00","correctionDescription":"Relocate to a designated area that does not contaminate items or surfaces."}]}]}],"maxInspectionDate":[{"inspectionDate":"2020-05-29T00:00:00"}]}},"pageContext":{"eid":"51622851"}}