{"data":{"site":{"pathPrefix":"/restaurant-inspections"},"postgres":{"establishment":[{"establishmentid":"483","name":"Dakota Inn Inc","address":"17324 John R St","zipcode":"48203","owner":"Kurz Karl E","licenseNumber":"034284","licenseType":"Fixed Establishment","establishmentType":"Food Service Establishment","establishmentStatus":"Open","riskCategory":null,"reviewFrequencyDays":"365.0","coords":"-83.10163,42.41993","geojson":{"id":"483","type":"Feature","geometry":{"type":"Point","coordinates":[-83.10162811,42.4199313720001]},"properties":{"name":"Dakota Inn Inc","owner":"Kurz Karl E","address":"17324 John R St","zipcode":"48203","license_type":"Fixed Establishment","risk_category":null,"license_number":"034284","establishmentid":"483","establishment_type":"Food Service Establishment","establishment_status":"Open","review_frequency_days":"365.0","most_recent_license_date":"4/20/2016"}},"nearbyList":[{"establishmentid":"700","name":"La Dolce Vita","address":"17546 Woodward Ave","zipcode":"48203"},{"establishmentid":"5211","name":"Sun Sun","address":"230 W McNichols","zipcode":"48203"},{"establishmentid":"2718","name":"Bread Basket Wholesale","address":"17740 Woodward Ave ","zipcode":"48203"},{"establishmentid":"1360","name":"Motor City Coney Island","address":"831 E McNichols Rd","zipcode":"48203"},{"establishmentid":"1899","name":"Inuendo","address":"744 E Savannah St","zipcode":"48203"},{"establishmentid":"51622469","name":"Detroit One Coney Island","address":"5 W Seven Mile Rd","zipcode":"48203"},{"establishmentid":"1087","name":"Menjo's","address":"928 W McNichols Rd","zipcode":"48203"},{"establishmentid":"2742","name":"Golden Gate Cafe","address":"18700 Woodward Ave","zipcode":"48203"},{"establishmentid":"1122","name":"Greenfield Union Annex","address":"420 W Seven Mile Rd","zipcode":"48238"},{"establishmentid":"4151","name":"Greenfield Union Elementary","address":"19150 Blake St","zipcode":"48207"}],"inspectionsByEstablishmentidList":[{"inspectionid":"43400","inspectionDate":"2018-09-13T00:00:00","inspectionType":"Routine Inspection","inCompliance":"Yes","violationsByInspectionidList":[{"violationCode":"7-204.11","violationDescription":"Chemical SANITIZERS and other chemical antimicrobials applied to FOOD-CONTACT SURFACES shall meet the requirements specified in this code. (P)\r\n","violationType":"Priority","itemDescription":"Sanitizer(s)","subItem":"","problemDescription":"Do not comply with law","subProblem":"","location":"RESTAURANT","subLocation":"At the Bleach","corrected":"Yes","daysToCorrect":"10.0","correctedDate":"2018-09-19T00:00:00","correctionDescription":"Provide labels that comply with law."},{"violationCode":"4-602.12","violationDescription":"(A) The FOOD-CONTACT SURFACES of cooking and baking EQUIPMENT shall be cleaned at least every 24 hours. This section does not apply to hot oil cooking and filtering EQUIPMENT if it is cleaned as specified in Subparagraph 4-602.11(D)(6).   \r\n(B) The cavities and door seals of microwave ovens shall be cleaned at least every 24 hours by using the manufacturer's recommended cleaning procedure.","violationType":"Core","itemDescription":"Microwave oven door seals and cavities","subItem":"","problemDescription":"Not cleaned","subProblem":"","location":"KITCHEN","subLocation":"Inside the Microwave Oven(s)","corrected":"Not required","daysToCorrect":"30.0","correctedDate":null,"correctionDescription":"Clean as required above."}]},{"inspectionid":"39487","inspectionDate":"2017-08-03T00:00:00","inspectionType":"Routine Inspection","inCompliance":"Yes","violationsByInspectionidList":[]}]}],"maxInspectionDate":[{"inspectionDate":"2019-01-31T00:00:00"}]}},"pageContext":{"eid":"483"}}