{"data":{"site":{"pathPrefix":"/restaurant-inspections"},"postgres":{"establishment":[{"establishmentid":"1319","name":"Coleman A. Young Elementary","address":"15771 Hubbell St","zipcode":"48227","owner":"Detroit Board of Education","licenseNumber":"035444","licenseType":"Fixed Establishment","establishmentType":"Public School","establishmentStatus":"Open","riskCategory":null,"reviewFrequencyDays":"210.0","coords":"-83.18966,42.40640","geojson":{"id":"1319","type":"Feature","geometry":{"type":"Point","coordinates":[-83.189663561,42.40640175]},"properties":{"name":"Coleman A. Young Elementary","owner":"Detroit Board of Education","address":"15771 Hubbell St","zipcode":"48227","license_type":"Fixed Establishment","risk_category":null,"license_number":"035444","establishmentid":"1319","establishment_type":"Public School","establishment_status":"Open","review_frequency_days":"210.0","most_recent_license_date":"4/30/2018"}},"nearbyList":[{"establishmentid":"852","name":"John R King Academic & Performing Arts ","address":"15850 Strathmoor","zipcode":"48227"},{"establishmentid":"5400","name":"Hubbell Fish & Chicken","address":"14535 Fenkell","zipcode":"48227"},{"establishmentid":"1866","name":"Lee's Texas Style Bar-B-Que","address":"14001 Fenkell","zipcode":"48227"},{"establishmentid":"51622734","name":"Club Caribbean Bar & Grill","address":"15331 Fenkell Ave","zipcode":"48227"},{"establishmentid":"3520","name":"Nu Wave Fish & Chicken","address":"14541 W McNichols Rd","zipcode":"48235"},{"establishmentid":"1873","name":"Suite 100","address":"15789 Schaefer Hwy","zipcode":"48227"},{"establishmentid":"4610","name":"Captain Jay's Fish & Chicken #110","address":"15321 Greenfield Rd","zipcode":"48227"},{"establishmentid":"5175","name":"Gunny Ray's Shrimp & Chicken","address":"15391 Schaefer Hwy","zipcode":"48227"},{"establishmentid":"4454","name":"Southern Smokehouse","address":"14340 W McNichols Rd","zipcode":"48235"},{"establishmentid":"1214","name":"Church's Fried Chicken #964","address":"13531 Fenkell Ave","zipcode":"48227"}],"inspectionsByEstablishmentidList":[{"inspectionid":"44386","inspectionDate":"2018-12-07T00:00:00","inspectionType":"Routine Inspection","inCompliance":"Yes","violationsByInspectionidList":[]},{"inspectionid":"42664","inspectionDate":"2018-06-20T00:00:00","inspectionType":"Routine Inspection","inCompliance":"Yes","violationsByInspectionidList":[{"violationCode":"3-501.16","violationDescription":"Except during preparation, cooking, or cooling, or when time is used as the public health control POTENTIALLY HAZARDOUS FOOD (TIME/TEMPERATURE CONTROL FOR SAFETY FOOD) shall be maintained:\r\n(A)  135ºF or above, except that roasts properly cooked and cooled may be held              at a temperature of 130ºF; or (P)\r\n(B)   At 41ºF or less (P)\r\n","violationType":"Priority","itemDescription":"Hot food item(s)","subItem":"","problemDescription":"Stored below 135 degrees F","subProblem":"","location":"KITCHEN","subLocation":"","corrected":"Yes","daysToCorrect":"10.0","correctedDate":"2018-06-20T00:00:00","correctionDescription":"Discard"},{"violationCode":"6-501.111","violationDescription":"The presence of insects, rodents, and other pests shall be controlled to minimize their presence on the PREMISES.  by:\r\n(A) Routinely inspecting incoming shipments of FOOD and supplies; \r\n(B) Routinely inspecting the PREMISES for evidence of pests;\r\n(C) Using methods, if pests are found, such as trapping devices or other means of pest control as specified.(Pf) \r\n(D) Eliminating harborage conditions. \r\n","violationType":"Foundation","itemDescription":"Routine inspections","subItem":"of premises for evidence of pests","problemDescription":"Not performed","subProblem":"","location":"KITCHEN","subLocation":"","corrected":"Yes","daysToCorrect":"10.0","correctedDate":"2018-06-20T00:00:00","correctionDescription":"Inspections must be performed as stated above."}]},{"inspectionid":"40818","inspectionDate":"2017-11-16T00:00:00","inspectionType":"Routine Inspection","inCompliance":"Yes","violationsByInspectionidList":[]},{"inspectionid":"38855","inspectionDate":"2017-05-24T00:00:00","inspectionType":"Routine Inspection","inCompliance":"Yes","violationsByInspectionidList":[]},{"inspectionid":"36902","inspectionDate":"2016-10-26T00:00:00","inspectionType":"Routine Inspection","inCompliance":"Yes","violationsByInspectionidList":[]}]}]}},"pageContext":{"eid":"1319"}}