{"data":{"site":{"pathPrefix":"/restaurant-inspections"},"postgres":{"establishment":[{"establishmentid":"1568","name":"Academy of the Americas","address":"5680 Konkel St","zipcode":"4821","owner":"Detroit Board of Education","licenseNumber":"035816","licenseType":"Fixed Establishment","establishmentType":"Public School","establishmentStatus":"Open","riskCategory":"Medium","reviewFrequencyDays":"210.0","coords":"-83.11054,42.32712","geojson":{"id":"1568","type":"Feature","geometry":{"type":"Point","coordinates":[-83.110543067,42.327117238]},"properties":{"name":"Academy of the Americas","owner":"Detroit Board of Education","address":"5680 Konkel St","zipcode":"4821","license_type":"Fixed Establishment","risk_category":"Medium","license_number":"035816","establishmentid":"1568","establishment_type":"Public School","establishment_status":"Open","review_frequency_days":"210.0","most_recent_license_date":"5/13/2015"}},"nearbyList":[{"establishmentid":"1062","name":"Midnights Inn #422718","address":"3250 Wesson St","zipcode":"4821"},{"establishmentid":"5171","name":"La Noria Bistro","address":"5517 Michigan Ave","zipcode":"48213"},{"establishmentid":"3443","name":"El Barzon Restaurante","address":"3710 Junction Ave","zipcode":"4821"},{"establishmentid":"4326","name":"Hazel's Place","address":"5516 Michigan Ave","zipcode":"4821"},{"establishmentid":"1052","name":"Blue Diamond","address":"2453 Campbell St N","zipcode":"48209"},{"establishmentid":"4069","name":"Pupuseria Y Restaurant Sal","address":"3149 Livernois","zipcode":"4821"},{"establishmentid":"4280","name":"El Durango Bar","address":"2508-10 Junction","zipcode":"48209"},{"establishmentid":"4754","name":"Southwest Detroit Community School (K-8)","address":"4001 29th St","zipcode":"4821"},{"establishmentid":"4613","name":"El Taco Veloz #1","address":"6170 Toledo","zipcode":"48209"},{"establishmentid":"4668","name":"El Taco Veloz #2","address":"6170 Toledo","zipcode":"48209"},{"establishmentid":"4342","name":"El Taco Veloz","address":"6170 Toledo","zipcode":"48209"},{"establishmentid":"5104","name":"Bella's Coffee House ","address":"2303 Campbell St","zipcode":"48209"},{"establishmentid":"815","name":"Abicks Bar","address":"3500 Gilbert St","zipcode":"4821"},{"establishmentid":"3553","name":"Adi's Coney Island ","address":"6171 Michigan Ave","zipcode":"4821"},{"establishmentid":"51622797","name":"Avdolli Adis Coney Island","address":"6171 Michigan Avenue","zipcode":"4821"},{"establishmentid":"5354","name":"Kaleidoscope Catering","address":"3700 Gilbert Street","zipcode":"4821"},{"establishmentid":"51622462","name":"Better Woodman","address":"3700 Gilbert Street","zipcode":"4821"},{"establishmentid":"3526","name":"St. Peter & Paul Orthodox Cathedral","address":"3700 Gilbert Street","zipcode":"4821"},{"establishmentid":"51622860","name":"Pietrzyk Pierogi","address":"3700 Gilbert Street","zipcode":"4821"},{"establishmentid":"3095","name":"Los Corrales","address":"2244 Junction Ave","zipcode":"48209"}],"inspectionsByEstablishmentidList":[{"inspectionid":"44366","inspectionDate":"2018-12-04T00:00:00","inspectionType":"Routine Inspection","inCompliance":"No","violationsByInspectionidList":[{"violationCode":"4-501.114","violationDescription":"A chemical SANITIZER used in a SANITIZING solution for a manual or\r\nmechanical operation shall meet these limits or as otherwise approved: (P)\r\n\tChlorine        ppm           pH<10             pH<8\r\n\t\t      25              120 F              120 F\r\n\t\t      50              100 F              75 F\r\n\t\t     100              55 F               55 F\r\n                 Iodine           a concentration of between 12.5 and 25 ppm and minimum temp of 75 F and pH of 5 or less or meets manufacturer's specifications. (P)\r\n\r\n                Quats            minimum temperature of 75 F, hardness of 500 ppm or less and meet manufacturers use directions. (P)\r\n","violationType":"Priority","itemDescription":"Quaternary ammonia solution","subItem":"","problemDescription":null,"subProblem":"","location":"3 COMPARTMENT SINK AREA","subLocation":"At the Sanitizer","corrected":"Yes","daysToCorrect":"10.0","correctedDate":"2018-12-04T00:00:00","correctionDescription":null},{"violationCode":"4-302.14","violationDescription":"A test kit or other device that accurately measures the concentration in mg/L of SANITIZING solutions shall be provided. (Pf)\r\n","violationType":"Foundation","itemDescription":"Sanitizer test kit","subItem":"quaternary ammonia","problemDescription":"Not provided","subProblem":"","location":"3 COMPARTMENT SINK AREA","subLocation":"","corrected":"No","daysToCorrect":"10.0","correctedDate":null,"correctionDescription":"Provide as required"},{"violationCode":"4-501.19","violationDescription":"The temperature of the wash solution in manual WAREWASHING EQUIPMENT shall be maintained at not less than 110 F or the temperature specified on the cleaning agent manufacturer's label instructions. (Pf)\r\n","violationType":"Foundation","itemDescription":"Manual warewash wash solution","subItem":"","problemDescription":"Below 110 degrees F","subProblem":"","location":"3 COMPARTMENT SINK AREA","subLocation":"At the Water","corrected":"Yes","daysToCorrect":"10.0","correctedDate":"2018-12-04T00:00:00","correctionDescription":"Change water frequently to maintain at least 110 degrees F."}]},{"inspectionid":"42305","inspectionDate":"2018-05-17T00:00:00","inspectionType":"Routine Inspection","inCompliance":"Yes","violationsByInspectionidList":[]},{"inspectionid":"40692","inspectionDate":"2017-10-05T00:00:00","inspectionType":"Routine Inspection","inCompliance":"Yes","violationsByInspectionidList":[{"violationCode":"3-201.11","violationDescription":"FOOD shall be obtained from sources that comply with LAW (P); \r\nand properly labeled as required (Pf), \r\nFOOD prepared in a private home may not be used or offered for human consumption in a FOOD ESTABLISHMENT. (P)","violationType":"Priority","itemDescription":null,"subItem":"","problemDescription":null,"subProblem":"","location":null,"subLocation":"","corrected":"Yes","daysToCorrect":"10.0","correctedDate":"2017-10-05T00:00:00","correctionDescription":null},{"violationCode":"3-501.17","violationDescription":"(A)  READY-TO-EAT, POTENTIALLY HAZARDOUS FOOD (TIME/TEMPERATURE CONTROL FOR SAFETY FOOD)  prepared and held refrigerated for more than 24 hours in a FOOD ESTABLISHMENT  shall be clearly marked at the time of preparation to indicate the date or day by which the FOOD shall be consumed. (Pf)\r\n(B)  A container of refrigerated, commercially prepared READY-TO-EAT POTENTIALLY HAZARDOUS FOOD (TIME/TEMPERATURE CONTROL FOR SAFETY FOOD)  shall be clearly marked, at the time the original container is opened in a FOOD ESTABLISHMENT, to indicate the date or day by which the FOOD shall be consumed. (Pf)\r\n\r\nA date marking system that does not exceed 7 days, including date of preparation, or opening is to be used. (Pf)\r\n","violationType":"Foundation","itemDescription":null,"subItem":"","problemDescription":null,"subProblem":"","location":null,"subLocation":"","corrected":"Yes","daysToCorrect":"10.0","correctedDate":"2017-10-05T00:00:00","correctionDescription":null}]},{"inspectionid":"38808","inspectionDate":"2017-05-17T00:00:00","inspectionType":"Routine Inspection","inCompliance":"Yes","violationsByInspectionidList":[]},{"inspectionid":"37059","inspectionDate":"2016-10-27T00:00:00","inspectionType":"Routine Inspection","inCompliance":"Yes","violationsByInspectionidList":[]}]}]}},"pageContext":{"eid":"1568"}}