{"data":{"site":{"pathPrefix":"/restaurant-inspections"},"postgres":{"establishment":[{"establishmentid":"51622989","name":"Tippin Inn","address":"18430-34 Mt Elliott","zipcode":null,"owner":"Howard Taylor","licenseNumber":"237177","licenseType":"Fixed Establishment","establishmentType":"Food Service Establishment","establishmentStatus":"Open","riskCategory":null,"reviewFrequencyDays":"210.0","coords":"-83.03866,42.42857","geojson":{"id":"51622989","type":"Feature","geometry":{"type":"Point","coordinates":[-83.0386592,42.428569413]},"properties":{"name":"Tippin Inn","owner":"Howard Taylor","address":"18430-34 Mt Elliott","zipcode":null,"license_type":"Fixed Establishment","risk_category":null,"license_number":"237177","establishmentid":"51622989","establishment_type":"Food Service Establishment","establishment_status":"Open","review_frequency_days":"210.0","most_recent_license_date":null}},"nearbyList":[{"establishmentid":"560","name":"Tippin Inn, Inc.","address":"18430-34 Mt Elliott","zipcode":"48234"},{"establishmentid":"605","name":"Two Way Inn","address":"17897 Mt Elliott St","zipcode":"48212"},{"establishmentid":"550","name":"Pandora's Boxx, LLC","address":"6221 E Davison Ave","zipcode":"48212"},{"establishmentid":"361","name":"Brandy's on 7","address":"6141 E Seven Mile Rd","zipcode":"48234"},{"establishmentid":"629","name":"V.F.W. Post #2233 James Europe","address":"18651 Mound Rd","zipcode":"48234"},{"establishmentid":"1213","name":"Chili Boys (Lou's Coney Island)","address":"19100 Mound Rd","zipcode":"48234"},{"establishmentid":"51622978","name":"T & M Chicken and Seafood","address":"5844 E Seven Mile Rd","zipcode":"48234"},{"establishmentid":"1724","name":"Cornerstone School","address":"6861 E Nevada St","zipcode":"48234"},{"establishmentid":"302","name":"Original Marcus Hamburger","address":"6349 E McNichols Rd","zipcode":"48212"},{"establishmentid":"492","name":"Escape Lounge","address":"19404 Sherwood St","zipcode":"48234"}],"inspectionsByEstablishmentidList":[{"inspectionid":"48481","inspectionDate":"2019-07-23T00:00:00","inspectionType":"Routine Inspection","inCompliance":"Yes","violationsByInspectionidList":[{"violationCode":"3-101.11","violationDescription":"FOOD shall be safe, unADULTERATED and honestly presented. (P)\r\n","violationType":"Priority","itemDescription":"Food","subItem":"","problemDescription":"Not safe","subProblem":"","location":"COOLER","subLocation":"","corrected":"Yes","daysToCorrect":"10.0","correctedDate":"2019-07-23T00:00:00","correctionDescription":null},{"violationCode":"6-501.11","violationDescription":"PHYSICAL FACILITIES shall be maintained in good repair.\r\n","violationType":"Core","itemDescription":"Physical facilities","subItem":"","problemDescription":"In poor repair","subProblem":"","location":"HANDSINK(S)","subLocation":"","corrected":"Not required","daysToCorrect":"30.0","correctedDate":null,"correctionDescription":null}]}]}],"maxInspectionDate":[{"inspectionDate":"2019-10-31T00:00:00"}]}},"pageContext":{"eid":"51622989"}}