{"data":{"postgres":{"establishment":[{"establishmentid":"885","name":"Mark Twain K-8","address":"12800 Visger St","zipcode":"48217","owner":"BOARD OF ED CITY OF DETROIT","licenseNumber":"034919","licenseType":"Fixed Establishment","establishmentType":"Public School","establishmentStatus":"Open","riskCategory":null,"reviewFrequencyDays":"210.0","coords":"-83.16215,42.26949","geojson":{"id":"885","type":"Feature","geometry":{"type":"Point","coordinates":[-83.162146005,42.269489064]},"properties":{"name":"Mark Twain K-8","owner":"BOARD OF ED CITY OF DETROIT","address":"12800 Visger St","zipcode":"48217","license_type":"Fixed Establishment","risk_category":null,"license_number":"034919","establishmentid":"885","establishment_type":"Public School","establishment_status":"Open","review_frequency_days":"210.0","most_recent_license_date":"5/15/2015"}},"nearbyList":[{"establishmentid":"617","name":"New Paradigm College Prep School","address":"2450  S Beatrice St ","zipcode":"48217"},{"establishmentid":"2245","name":"Perfect Beat","address":"1941 Fort St S","zipcode":"48217"},{"establishmentid":"51622742","name":"Lorent Coney Island","address":"601 S Schaefer Rd","zipcode":"48217"},{"establishmentid":"2312","name":"Taqueria La Salsa Mexican Cuisine","address":"1310 Oakwood Blvd S","zipcode":"48217"},{"establishmentid":"51622762","name":"D's Coney Island","address":"2626 S Schaefer Hwy","zipcode":"48217"},{"establishmentid":"5062","name":"Bag Of Bonez","address":"1250 S Beatrice St","zipcode":"48221"},{"establishmentid":"4979","name":"Pathway Academy","address":"11340-43 E Jefferson Ave","zipcode":"48214"},{"establishmentid":"5222","name":"El Paisano ","address":"4370 6th Street","zipcode":"48229"},{"establishmentid":"2823","name":"Power Strip","address":"403 S Dix Ave. ","zipcode":"48217"},{"establishmentid":"1021","name":"Giovanni's Ristorante","address":"330 Oakwood Blvd S","zipcode":"48217"},{"establishmentid":"51622674","name":"Google Detroit Cafe","address":"52 E Henry St","zipcode":"48218"},{"establishmentid":"51622624","name":"Operation ABLE of Michigan Site #2","address":"33 E Forest Ave","zipcode":"48201"},{"establishmentid":"1879","name":"First Congregational Church","address":"33 E Forest Ave","zipcode":"48201"},{"establishmentid":"3931","name":"Blue Water Exploration Commissary","address":"13000 Denmark St","zipcode":"48217"},{"establishmentid":"1818","name":"Diamond Belle-Blue Water Exploration","address":"13000 Denmark St","zipcode":"48217"},{"establishmentid":"1580","name":"Diamond Jack-Blue Water Exploration","address":"13000 Denmark St","zipcode":"48217"},{"establishmentid":"3115","name":"Diamond Queen-Blue Water Exploration","address":"13000 Denmark St","zipcode":"48217"},{"establishmentid":"4165","name":"SEVA DETROIT","address":"66 E Forest Ave., Suite D","zipcode":"48201"},{"establishmentid":"5370","name":"The Griot Music Lounge","address":"66 E Forest Ave","zipcode":"48201"},{"establishmentid":"51622557","name":"Takito Loko","address":"17966 Harman St","zipcode":"48122"}],"inspectionsByEstablishmentidList":[{"inspectionid":"44267","inspectionDate":"2018-11-30T00:00:00","inspectionType":"Routine Inspection","inCompliance":"Yes","violationsByInspectionidList":[{"violationCode":"4-501.11","violationDescription":"EQUIPMENT shall be maintained in a state of repair and condition that meets the requirements of the code.\r\n","violationType":"Core","itemDescription":"Equipment","subItem":"","problemDescription":"Broken","subProblem":"","location":"KITCHEN","subLocation":"","corrected":"Not required","daysToCorrect":"30.0","correctedDate":null,"correctionDescription":"Repair/replace."},{"violationCode":"6-202.15","violationDescription":"Outer openings of a FOOD ESTABLISHMENT shall be protected against the entry of insects and rodents. Unless otherwise allowed by law. \r\n","violationType":"Core","itemDescription":"Outer opening(s)","subItem":"","problemDescription":"Not tight-fitting","subProblem":"","location":"BACK DOOR AREA","subLocation":"At the Back door","corrected":"Not required","daysToCorrect":"30.0","correctedDate":null,"correctionDescription":"Repair/replace to meet requirements above."},{"violationCode":"6-501.111","violationDescription":"The presence of insects, rodents, and other pests shall be controlled to minimize their presence on the PREMISES.  by:\r\n(A) Routinely inspecting incoming shipments of FOOD and supplies; \r\n(B) Routinely inspecting the PREMISES for evidence of pests;\r\n(C) Using methods, if pests are found, such as trapping devices or other means of pest control as specified.(Pf) \r\n(D) Eliminating harborage conditions. \r\n","violationType":"Core","itemDescription":"Pest(s)","subItem":"rodents","problemDescription":"Present in facility","subProblem":"","location":"STORAGE ROOM","subLocation":"and the KITCHEN","corrected":"Not required","daysToCorrect":"10.0","correctedDate":null,"correctionDescription":"Remove pests from facility."},{"violationCode":"6-501.11","violationDescription":"PHYSICAL FACILITIES shall be maintained in good repair.\r\n","violationType":"Core","itemDescription":"Physical facilities","subItem":"","problemDescription":"In poor repair","subProblem":"","location":"KITCHEN","subLocation":"At the Baseboard (tiles)","corrected":"Not required","daysToCorrect":"30.0","correctedDate":null,"correctionDescription":null}]},{"inspectionid":"42415","inspectionDate":"2018-05-21T00:00:00","inspectionType":"Routine Inspection","inCompliance":"Yes","violationsByInspectionidList":[{"violationCode":"4-501.11","violationDescription":"EQUIPMENT shall be maintained in a state of repair and condition that meets the requirements of the code.\r\n","violationType":"Core","itemDescription":"Equipment","subItem":"","problemDescription":"Broken","subProblem":"","location":"KITCHEN","subLocation":"","corrected":"Not required","daysToCorrect":"30.0","correctedDate":null,"correctionDescription":"Repair/replace."}]},{"inspectionid":"40611","inspectionDate":"2017-10-17T00:00:00","inspectionType":"Routine Inspection","inCompliance":"Yes","violationsByInspectionidList":[]},{"inspectionid":"38952","inspectionDate":"2017-06-01T00:00:00","inspectionType":"Routine Inspection","inCompliance":"Yes","violationsByInspectionidList":[]},{"inspectionid":"37307","inspectionDate":"2016-11-29T00:00:00","inspectionType":"Routine Inspection","inCompliance":"Yes","violationsByInspectionidList":[]}]}]}},"pageContext":{"eid":"885"}}