{"data":{"site":{"pathPrefix":"/restaurant-inspections"},"postgres":{"establishment":[{"establishmentid":"51622988","name":"Crazy Gringo Express","address":"500 Griswold St","zipcode":"48226","owner":"Tom Vasilos ","licenseNumber":"243182","licenseType":"Fixed Establishment","establishmentType":null,"establishmentStatus":"Open","riskCategory":null,"reviewFrequencyDays":"365","coords":"-83.04611,42.32958","geojson":{"id":"51622988","type":"Feature","geometry":{"type":"Point","coordinates":[-83.046112344,42.329582558]},"properties":{"name":"Crazy Gringo Express","owner":"Tom Vasilos ","address":"500 Griswold St","zipcode":"48226","license_type":"Fixed Establishment","risk_category":null,"license_number":"243182","establishmentid":"51622988","establishment_type":null,"establishment_status":"Open","review_frequency_days":"365","most_recent_license_date":"10/11/2019"}},"nearbyList":[{"establishmentid":"3202","name":"Rowland Cafe","address":"500 Griswold St","zipcode":"48226"},{"establishmentid":"51622894","name":"Crazy Gringo Express","address":"500 Griswold","zipcode":"48226"},{"establishmentid":"51622930","name":"Green Room Salads dba Lunchbox Deli","address":"500 Griswold St Ste 220","zipcode":"48226"},{"establishmentid":"5418","name":"The Guardian Cafe","address":"500 Griswold St","zipcode":"48226"},{"establishmentid":"3583","name":"Frank's Deli in the Buhl","address":"535 Griswold St #114","zipcode":"48226"},{"establishmentid":"4946","name":"Dominos Pizza","address":"535 Griswold St","zipcode":"48226"},{"establishmentid":"4393","name":"The Buhl Bar","address":"535 Griswold Ste 103","zipcode":"48226"},{"establishmentid":"1322","name":"Grand Trunk Pub","address":"608-612 Woodward Ave","zipcode":"48226"},{"establishmentid":"1687","name":"The Green Room","address":"120 W Congress","zipcode":"48226"},{"establishmentid":"4365","name":"Eurest Cafe' Qzine","address":"611 Woodward Ave","zipcode":"48226"}],"inspectionsByEstablishmentidList":[{"inspectionid":"49750","inspectionDate":"2019-11-01T00:00:00","inspectionType":"Routine Inspection","inCompliance":"Yes","violationsByInspectionidList":[{"violationCode":"3-501.16","violationDescription":"Except during preparation, cooking, or cooling, or when time is used as the public health control POTENTIALLY HAZARDOUS FOOD (TIME/TEMPERATURE CONTROL FOR SAFETY FOOD) shall be maintained:\r\n(A)  135ºF or above, except that roasts properly cooked and cooled may be held              at a temperature of 130ºF; or (P)\r\n(B)   At 41ºF or less (P)\r\n","violationType":"Priority","itemDescription":"Cold food item(s)","subItem":"","problemDescription":"Stored above 41 degrees F","subProblem":"","location":"FACILITY","subLocation":"","corrected":"Yes","daysToCorrect":"10","correctedDate":"2019-11-01T00:00:00","correctionDescription":null},{"violationCode":"5-205.11","violationDescription":"(A) A HANDWASHING SINK shall be maintained so that it is accessible at all times for EMPLOYEE use and used for no other purpose. (Pf)\r\n(B)  An automatic handwashing facility shall be used in accordance with manufacturer's instructions. (Pf)\r\n","violationType":"Foundation","itemDescription":"Handwashing sink(s)","subItem":"","problemDescription":"Not easily accessible","subProblem":"Items stored In","location":"HANDSINK(S)","subLocation":"","corrected":"Yes","daysToCorrect":"10","correctedDate":"2019-11-27T00:00:00","correctionDescription":null},{"violationCode":"2-103.11","violationDescription":"The PERSON IN CHARGE shall ensure that employees, practices and policies are in compliance with the code. (Pf) \r\n","violationType":"Foundation","itemDescription":"Person-in-charge","subItem":"","problemDescription":"Does not demonstrate required knowledge","subProblem":"","location":"PERSON IN CHARGE","subLocation":"","corrected":"Yes","daysToCorrect":"10","correctedDate":"2019-11-27T00:00:00","correctionDescription":null},{"violationCode":"MFL289.2129","violationDescription":"Sec. 2129. (1) All food establishments shall employ a minimum of 1 managerial employee as a food safety manager, who must be an individual who is currently certified under a personnel certification program accredited by the American National Standards Institute, utilizing the Conference for Food Protection standards:\r\n(2) Beginning January 14, 2017 and every 5 years thereafter, a certified  food safety manager who supervises the operations of a food service establishment shall have completed a food safety training program\r\ncontaining an allergen awareness  component that has been approved by  the department. A food service establishment shall retain records on the  site of the food service establishment documenting compliance of its  certified food safety managers with this subsection. ","violationType":"Core","itemDescription":"Person-in-charge","subItem":"","problemDescription":"Missing","subProblem":"","location":"FACILITY","subLocation":"","corrected":"Not required","daysToCorrect":"30","correctedDate":null,"correctionDescription":null}]}]}],"maxInspectionDate":[{"inspectionDate":"2020-05-29T00:00:00"}]}},"pageContext":{"eid":"51622988"}}