{"data":{"site":{"pathPrefix":"/restaurant-inspections"},"postgres":{"establishment":[{"establishmentid":"51622912","name":"Anchor Bar ","address":"450 W Fort St","zipcode":"48226","owner":"The Elia Group","licenseNumber":"ps011119","licenseType":"Fixed Establishment","establishmentType":"Food Service Establishment","establishmentStatus":"Open","riskCategory":"High","reviewFrequencyDays":"180.0","coords":"-83.05182,42.32916","geojson":{"id":"51622912","type":"Feature","geometry":{"type":"Point","coordinates":[-83.051822439,42.3291636640001]},"properties":{"name":"Anchor Bar ","owner":"The Elia Group","address":"450 W Fort St","zipcode":"48226","license_type":"Fixed Establishment","risk_category":"High","license_number":"ps011119","establishmentid":"51622912","establishment_type":"Food Service Establishment","establishment_status":"Open","review_frequency_days":"180.0","most_recent_license_date":null}},"nearbyList":[{"establishmentid":"3867","name":"Sterling Services Comerica 411","address":"411 W Lafayette Ave","zipcode":"48226"},{"establishmentid":"3956","name":"Motor City Kitchen","address":"525 W Lafayette Blvd","zipcode":"48226"},{"establishmentid":"3992","name":"Motor City Kitchen Market","address":"525 W Lafayette St","zipcode":"48226"},{"establishmentid":"240","name":"The Detroit Club ","address":"712 Cass Ave","zipcode":"48226"},{"establishmentid":"1387","name":"Cobo Joe's","address":"422 W Congress","zipcode":"48226"},{"establishmentid":"5388","name":"The Drink Hall","address":"408 W Congress","zipcode":"48226"},{"establishmentid":"4124","name":"Gateway Deli","address":"333 Fort St","zipcode":"48226"},{"establishmentid":"4072","name":"Wala","address":"1010 Washington Blvd","zipcode":"48226"},{"establishmentid":"5419","name":"Press Room Cafe","address":"615 W Lafayette","zipcode":"48226"},{"establishmentid":"1407","name":"Fort Street Presbyterian Church","address":"631 W Fort St","zipcode":"48226"},{"establishmentid":"3200","name":"Big City Grille","address":"1020 Washington Blvd","zipcode":"48226"},{"establishmentid":"4291","name":"Tommy's Detroit Bar and Grill","address":"624 Third St","zipcode":"48226"},{"establishmentid":"4837","name":"Zoom Coney Restaurant","address":"211 W Fort","zipcode":"48226"},{"establishmentid":"3804","name":"Roast Detroit LLC","address":"1128 Washington Blvd","zipcode":"48226"},{"establishmentid":"1538","name":"Subway","address":"220 W Congress","zipcode":"48226"},{"establishmentid":"3496","name":"The Bean Bar","address":"249 W Congress St","zipcode":"48226"},{"establishmentid":"5298","name":"White House Night Club","address":"625 Shelby","zipcode":"48226"},{"establishmentid":"3513","name":"Blue Star Cafe","address":"239 W Congress St","zipcode":"48226"},{"establishmentid":"51622554","name":"Brome Modern Eatery","address":"607 Shelby St","zipcode":"48226"},{"establishmentid":"51622489","name":"Foundation Hotel- Employee Dining","address":"250 W Larned","zipcode":"48226"}],"inspectionsByEstablishmentidList":[{"inspectionid":"44790","inspectionDate":"2019-01-04T00:00:00","inspectionType":"Routine Inspection","inCompliance":"No","violationsByInspectionidList":[{"violationCode":"6-301.11","violationDescription":"Each HANDWASHING SINK or group of 2 adjacent HANDWASHING SINKS shall be provided with a supply of hand cleaning liquid, powder, or bar soap. (Pf)\r\n","violationType":"Foundation","itemDescription":"Soap","subItem":"","problemDescription":"Not provided","subProblem":"","location":"ICE MACHINE","subLocation":"Near the Three compartment sink","corrected":"No","daysToCorrect":"10.0","correctedDate":null,"correctionDescription":"A designated dressing room/area shall be provided and used."},{"violationCode":"4-601.11","violationDescription":"(A) EQUIPMENT FOOD-CONTACT SURFACES and UTENSILS shall be clean to sight and touch. (Pf)\r\n(B) The FOOD-CONTACT SURFACES of cooking EQUIPMENT and pans shall be kept free of encrusted grease deposits and other soil accumulations. \r\n(C) NonFOOD-CONTACT SURFACES of EQUIPMENT shall be kept free of an accumulation of dust, dirt, FOOD residue, and other debris. \r\n","violationType":"Foundation","itemDescription":"Food-contact surface(s)","subItem":"Equipment","problemDescription":"Soiled","subProblem":"","location":"EMPLOYEE (LOCKER AREA)","subLocation":"Near the Three compartment sink","corrected":"No","daysToCorrect":"10.0","correctedDate":null,"correctionDescription":"Clean prior to opening"},{"violationCode":"2-102.11","violationDescription":"The PERSON IN CHARGE shall demonstrate this knowledge by compliance with this Code, by being a certified FOOD protection manager who has shown proficiency of required information through passing a test that is part of an ACCREDITED PROGRAM, or by responding correctly to the inspector's questions as they relate to the specific FOOD operation. (Pf)","violationType":"Foundation","itemDescription":"Person-in-charge","subItem":"","problemDescription":"Not ensuring compliance","subProblem":"","location":"RESTAURANT","subLocation":"Throughout Facility","corrected":"Yes","daysToCorrect":"10.0","correctedDate":"2019-01-07T00:00:00","correctionDescription":"Knowledge is to be obtained through an approved training program"},{"violationCode":"8-304.11","violationDescription":"Upon acceptance of the PERMIT issued by the REGULATORY AUTHORITY, the PERMIT HOLDER in order to retain the PERMIT shall:\r\n(A) Post the PERMIT in a location in the FOOD ESTABLISHMENT that is conspicuous to CONSUMERS; \r\n(B) Comply with the provisions of this Code including the conditions of a granted VARIANCE as specified under § 8-103.12, and APPROVED plans as specified under § 8-201.12;\r\n(C) If a FOOD ESTABLISHMENT is required under § 8-201.13 to operate under a HACCP PLAN, comply with the plan as specified under § 8-103.12;\r\n(D) Immediately contact the REGULATORY AUTHORITY to report an illness of a FOOD EMPLOYEE or CONDITIONAL EMPLOYEE as specified under ¶ 2-201.11(B); \r\n(E) Immediately discontinue operations and notify the REGULATORY AUTHORITY if an IMMINENT HEALTH HAZARD may exist as specified under § 8-404.11;\r\n(F) Allow representatives of the REGULATORY AUTHORITY access to the FOOD ESTABLISHMENT as specified under § 8-402.11;\r\n(G) Except as specified under ¶ (H) of this section, replace existing facilities and EQUIPMENT specified in § 8-101.10 with facilities and EQUIPMENT that comply with this Code if:\r\n(1) The REGULATORY AUTHORITY directs the replacement because the facilities and EQUIPMENT constitute a public health HAZARD or nuisance or no longer comply with the criteria upon which the facilities and EQUIPMENT were accepted,\r\n(2) The REGULATORY AUTHORITY directs the replacement of the facilities and EQUIPMENT because of a change of ownership, or\r\n(3) The facilities and EQUIPMENT are replaced in the normal course of operation;\r\n(H) Upgrade or replace refrigeration EQUIPMENT as specified under Subparagraph 3-501.16(A)(2)(b), if the circumstances specified under Subparagraphs (G)(1) - (3) of this section do not occur first, and 5 years pass after the REGULATORY AUTHORITY adopts this Code;\r\n(I) Comply with directives of the REGULATORY AUTHORITY including time frames for corrective actions specified in inspection reports, notices, orders, warnings, and other directives issued by the REGULATORY AUTHORITY in regard to the PERMIT HOLDER'S FOOD ESTABLISHMENT or in response to community emergencies; \r\n(J) Accept notices issued and served by the REGULATORY AUTHORITY according to LAW; and \r\n(K) Be subject to the administrative, civil, injunctive, and criminal remedies authorized in LAW for failure to comply with this Code or a directive of the REGULATORY AUTHORITY, including time frames for corrective actions specified in inspection reports, notices, orders, warnings, and other directives.","violationType":"Core","itemDescription":null,"subItem":"","problemDescription":null,"subProblem":"","location":"RESTAURANT","subLocation":"Throughout Facility","corrected":"Not required","daysToCorrect":"30.0","correctedDate":null,"correctionDescription":"Person-in-charge must ensure compliance with items listed above."}]}]}]}},"pageContext":{"eid":"51622912"}}