{"data":{"site":{"pathPrefix":"/restaurant-inspections"},"postgres":{"establishment":[{"establishmentid":"5210","name":"Black Horse Cantina II","address":"3788 Central St","zipcode":"4821","owner":"Frank Dushaj","licenseNumber":"083428","licenseType":"Fixed Establishment","establishmentType":"Food Service Establishment","establishmentStatus":"Open","riskCategory":"Medium","reviewFrequencyDays":"365","coords":"-83.13294,42.32498","geojson":{"id":"5210","type":"Feature","geometry":{"type":"Point","coordinates":[-83.132939817,42.324976193]},"properties":{"name":"Black Horse Cantina II","owner":"Frank Dushaj","address":"3788 Central St","zipcode":"4821","license_type":"Fixed Establishment","risk_category":"Medium","license_number":"083428","establishmentid":"5210","establishment_type":"Food Service Establishment","establishment_status":"Open","review_frequency_days":"365","most_recent_license_date":"4/12/2019"}},"nearbyList":[{"establishmentid":"5038","name":"El Cunado Production Kitchen","address":"3700 Central St","zipcode":"48209"},{"establishmentid":"5073","name":"El Cunado Mobile Food Trailer","address":"3700 Central St","zipcode":"4821"},{"establishmentid":"4094","name":"Corner Pocket Lounge","address":"7304 StJohn St","zipcode":"4821"},{"establishmentid":"4908","name":"Los Dos Amigo's 2","address":"7115 Parkwood St","zipcode":"4821"},{"establishmentid":"3288","name":"Los Dos Amigos-1","address":"7115 Parkwood St","zipcode":"4821"},{"establishmentid":"789","name":"Red Park Inn Bar","address":"4442 Central ","zipcode":"4821"},{"establishmentid":"51622816","name":"Red Park Inn","address":"4442 Central St","zipcode":"4821"},{"establishmentid":"515","name":"Holy Cross Council 2739","address":"4381 Larkins St","zipcode":"4821"},{"establishmentid":"51622669","name":"Fantasy Island","address":"7059 Michigan Ave","zipcode":"4821"},{"establishmentid":"715","name":"Yacht Club Exclusive","address":"7059 Michigan Ave","zipcode":"4821"}],"inspectionsByEstablishmentidList":[{"inspectionid":"48253","inspectionDate":"2019-07-03T00:00:00","inspectionType":"Routine Inspection","inCompliance":"Yes","violationsByInspectionidList":[{"violationCode":"6-301.14","violationDescription":"A sign or poster that notifies FOOD EMPLOYEES to wash their hands shall be provided at all HANDWASHING SINKS used by FOOD EMPLOYEES and shall be clearly visible to FOOD EMPLOYEES.\r\n","violationType":"Core","itemDescription":"Handwashing signage","subItem":"","problemDescription":"Not provided","subProblem":"","location":"BATHROOM","subLocation":"","corrected":"Not required","daysToCorrect":"30","correctedDate":null,"correctionDescription":"Provide."}]},{"inspectionid":"42782","inspectionDate":"2018-06-01T00:00:00","inspectionType":"Routine Inspection","inCompliance":"Yes","violationsByInspectionidList":[{"violationCode":"6-301.14","violationDescription":"A sign or poster that notifies FOOD EMPLOYEES to wash their hands shall be provided at all HANDWASHING SINKS used by FOOD EMPLOYEES and shall be clearly visible to FOOD EMPLOYEES.\r\n","violationType":"Core","itemDescription":"Handwashing signage","subItem":"","problemDescription":"Not provided","subProblem":"","location":"BATHROOM","subLocation":"","corrected":"Not required","daysToCorrect":"30","correctedDate":null,"correctionDescription":"Provide."}]},{"inspectionid":"38428","inspectionDate":"2017-03-28T00:00:00","inspectionType":"Routine Inspection","inCompliance":"Yes","violationsByInspectionidList":[]}]}],"maxInspectionDate":[{"inspectionDate":"2020-10-30T00:00:00"}]}},"pageContext":{"eid":"5210"}}