{"data":{"site":{"pathPrefix":"/restaurant-inspections"},"postgres":{"establishment":[{"establishmentid":"1650","name":"Dino's Cafe Inc.","address":"1601 Waterman St","zipcode":"48209","owner":"Dino Carrer","licenseNumber":"035987","licenseType":"Fixed Establishment","establishmentType":"Food Service Establishment","establishmentStatus":"Open","riskCategory":null,"reviewFrequencyDays":"365","coords":"-83.11332,42.31096","geojson":{"id":"1650","type":"Feature","geometry":{"type":"Point","coordinates":[-83.113317516,42.310955028]},"properties":{"name":"Dino's Cafe Inc.","owner":"Dino Carrer","address":"1601 Waterman St","zipcode":"48209","license_type":"Fixed Establishment","risk_category":null,"license_number":"035987","establishmentid":"1650","establishment_type":"Food Service Establishment","establishment_status":"Open","review_frequency_days":"365","most_recent_license_date":"5/13/2020"}},"nearbyList":[{"establishmentid":"2343","name":"Cesar Chavez Academy High School","address":"1761 Waterman St","zipcode":"48209"},{"establishmentid":"3304","name":"Cesar Chavez Middle School","address":"6782 Goldsmith St","zipcode":"48209"},{"establishmentid":"732","name":"Sidekicks Saloon","address":"7023 Chatsfield St","zipcode":"48209"},{"establishmentid":"703","name":"Roberto Clemente Elementary","address":"1551 Beard St","zipcode":"48209"},{"establishmentid":"5070","name":"Mi Lindo Sanblas","address":"1807 Livernois Ave","zipcode":"48209"},{"establishmentid":"735","name":"Happy Bar","address":"1247 Green St N","zipcode":"48209"},{"establishmentid":"51623131","name":"Ice Cream & Cafe La Ni√±a","address":"2257 Waterman St","zipcode":"48209"},{"establishmentid":"51622712","name":"Tacos Regios Mexican Grill","address":"2257 Waterman St","zipcode":"48209"},{"establishmentid":"1126","name":"Burger King #1640","address":"6251 W Vernor","zipcode":"48209"},{"establishmentid":"51622836","name":"Burger King #1190","address":"6251 W Vernor","zipcode":"48209"}],"inspectionsByEstablishmentidList":[{"inspectionid":"50209","inspectionDate":"2019-12-20T00:00:00","inspectionType":"Routine Inspection","inCompliance":"Yes","violationsByInspectionidList":[{"violationCode":"MFL289.6141","violationDescription":"Sec. 6141. (1) A food service establishment in which solid foods are sold and consumed on the premises shall prominently display a poster in the kitchen area of the food service establishment diagramming and explaining the antichoking techniques safe for both adults and children approved by the department for dislodging foreign obstacles caught in the throat of a choking person.","violationType":"Core","itemDescription":null,"subItem":"","problemDescription":null,"subProblem":"","location":"BAR","subLocation":"SIGNAGE","corrected":"Not required","daysToCorrect":"30","correctedDate":null,"correctionDescription":null},{"violationCode":"MFL289.2129","violationDescription":"Sec. 2129. (1) All food establishments shall employ a minimum of 1 managerial employee as a food safety manager, who must be an individual who is currently certified under a personnel certification program accredited by the American National Standards Institute, utilizing the Conference for Food Protection standards:\r\n(2) Beginning January 14, 2017 and every 5 years thereafter, a certified  food safety manager who supervises the operations of a food service establishment shall have completed a food safety training program\r\ncontaining an allergen awareness  component that has been approved by  the department. A food service establishment shall retain records on the  site of the food service establishment documenting compliance of its  certified food safety managers with this subsection. ","violationType":"Core","itemDescription":"Person-in-charge","subItem":"","problemDescription":null,"subProblem":"","location":"ESTABLISHMENT","subLocation":"Certified Manager","corrected":"Not required","daysToCorrect":"30","correctedDate":null,"correctionDescription":null}]},{"inspectionid":"40916","inspectionDate":"2017-11-16T00:00:00","inspectionType":"Routine Inspection","inCompliance":"Yes","violationsByInspectionidList":[{"violationCode":"3-305.11","violationDescription":"FOOD shall be protected from contamination by storing the FOOD:\r\n(1)     In a clean, dry location;\r\n(2)     Where it is not exposed to splash, dust, or other contamination; and\r\n(3)     At least 15 cm (6 inches) above the floor, unless otherwise approved.\r\n","violationType":"Core","itemDescription":"Food item(s) in storage","subItem":"","problemDescription":"Stored on floor or less than 6 inches above floor","subProblem":"","location":"BACK AREA","subLocation":"","corrected":"Yes","daysToCorrect":"30","correctedDate":"2017-11-16T00:00:00","correctionDescription":"Store at least 6 inches above the floor."}]}]}],"maxInspectionDate":[{"inspectionDate":"2020-05-29T00:00:00"}]}},"pageContext":{"eid":"1650"}}