{"data":{"site":{"pathPrefix":"/restaurant-inspections"},"postgres":{"establishment":[{"establishmentid":"5134","name":"Starbucks","address":"3990 John R St","zipcode":"48201","owner":"Papa Joe's Gourmet Market LLC","licenseNumber":"208219","licenseType":"Fixed Establishment","establishmentType":"Food Service Establishment","establishmentStatus":"Open","riskCategory":"Medium","reviewFrequencyDays":"365.0","coords":"-83.05697,42.35067","geojson":{"id":"5134","type":"Feature","geometry":{"type":"Point","coordinates":[-83.0569670039999,42.350668985]},"properties":{"name":"Starbucks","owner":"Papa Joe's Gourmet Market LLC","address":"3990 John R St","zipcode":"48201","license_type":"Fixed Establishment","risk_category":"Medium","license_number":"208219","establishmentid":"5134","establishment_type":"Food Service Establishment","establishment_status":"Open","review_frequency_days":"365.0","most_recent_license_date":"4/30/2018"}},"nearbyList":[{"establishmentid":"4846","name":"Salemi Subway, Inc","address":"4 E Alexandrine St., Ste. 100","zipcode":"48221"},{"establishmentid":"1263","name":"Bicentennial Towers  ","address":"4 E Alexandrine St","zipcode":"48201"},{"establishmentid":"3470","name":"Starbucks Coffee","address":"3670 Woodward Ave","zipcode":"48202"},{"establishmentid":"4996","name":"Children's Hospital of Michigan","address":"3901 Beaubien St","zipcode":"48201"},{"establishmentid":"5279","name":"Childrens Cafe Stores LLC/Biggby","address":"3901 Beaubien St","zipcode":"48201"},{"establishmentid":"3870","name":"Subway #11819","address":"3901 Beaubien St","zipcode":"48201"},{"establishmentid":"4842","name":"Woodward Garden Venue/The Block","address":"3919 Woodward Ave","zipcode":"48201"},{"establishmentid":"4862","name":"Woodward Garden Venue/Theater Bar","address":"3919 Woodward Ave","zipcode":"48201"},{"establishmentid":"4930","name":"Great Lakes Coffee Beanery","address":"311 Mack Ave","zipcode":"48201"},{"establishmentid":"808","name":"Detroit Urban League","address":"208 Mack Ave","zipcode":"48201"},{"establishmentid":"3070","name":"Detroit Symphony Orchestra Hall","address":"3711 Woodward Ave","zipcode":"48201"},{"establishmentid":"589","name":"Majestic Cafe/The Majestic Theater","address":"4120 Woodward Ave","zipcode":"48201"},{"establishmentid":"5059","name":"Popolux","address":"4120 Woodward Ave","zipcode":"48201"},{"establishmentid":"4345","name":"The Magic Stick/Alley Deck","address":"4120 Woodward Ave","zipcode":"48201"},{"establishmentid":"4408","name":"The Great Lakes Coffee Roasting Co.","address":"3965 Woodward Ave","zipcode":"48201"},{"establishmentid":"4344","name":"Sgt. Pepperoni's Pizzaria & Deli/GB","address":"4140 Woodward Ave","zipcode":"48201"},{"establishmentid":"1098","name":"Union Street Detroit","address":"4145 Woodward Ave","zipcode":"48201"},{"establishmentid":"4818","name":"Midtown Zef's","address":"4160 Woodward Ave","zipcode":"48201"},{"establishmentid":"1092","name":"St. Patrick Senior Center, Inc.","address":"58 Parsons St","zipcode":"48201"},{"establishmentid":"5277","name":"Detroit Receiving Sub Shops LLC/Subway","address":"4201 St Antoine St","zipcode":"48202"}],"inspectionsByEstablishmentidList":[{"inspectionid":"41523","inspectionDate":"2018-02-13T00:00:00","inspectionType":"Routine Inspection","inCompliance":"Yes","violationsByInspectionidList":[]},{"inspectionid":"38102","inspectionDate":"2017-02-21T00:00:00","inspectionType":"Routine Inspection","inCompliance":"Yes","violationsByInspectionidList":[{"violationCode":"2-201.11","violationDescription":"The PERMIT HOLDER shall require FOOD EMPLOYEE applicants and  FOOD EMPLOYEES to report to the PERSON IN CHARGE,  information about their health and activities as they relate to diseases that are transmissible through FOOD. AND report the information in a manner that allows the PERSON IN CHARGE to prevent the likelihood of foodborne disease transmission.(P)\r\n","violationType":"Priority","itemDescription":"Person-in-charge","subItem":"","problemDescription":"Fail to require employees to report illness as rule requires","subProblem":"","location":"EMPLOYEE(S)","subLocation":"Throughout Facility","corrected":"Yes","daysToCorrect":"10.0","correctedDate":"2017-02-21T00:00:00","correctionDescription":"Require reporting as stated above."},{"violationCode":"4-602.11","violationDescription":"(A) Equipment FOOD-CONTACT SURFACES and UTENSILS shall be cleaned:     \r\n  (1) Except as specified in ¶ (B) of this section, before each use with a different   type of raw animal FOOD such as beef, FISH, lamb, pork, or POULTRY; (P)   \r\n  (2) Each time there is a change from working with raw FOODS to working with   READY-TO-EAT FOODS; (P)   \r\n  (3) Between uses with raw fruits and vegetables and with POTENTIALLY   HAZARDOUS FOOD (TIME/TEMPERATURE CONTROL FOR SAFETY FOOD);   (P)   \r\n  (4) Before using or storing a FOOD TEMPERATURE MEASURING   DEVICE; (P) and   \r\n  (5) At any time during the operation when contamination may have occurred. (P)\r\n(B) Subparagraph (A)(1) of this section does not apply if the FOOD-CONTACT SURFACE or UTENSIL is in contact with a succession of different raw animal FOODS each requiring a higher cooking temperature as specified under § 3-401.11 than the previous FOOD, such as preparing raw FISH followed by cutting raw poultry on the same cutting board.   \r\n(C) Except as specified in ¶ (D) of this section, if used with POTENTIALLY HAZARDOUS FOOD (TIME/TEMPERATURE CONTROL FOR SAFETY FOOD), EQUIPMENT FOOD-CONTACT SURFACES and UTENSILS shall be cleaned throughout the day at least every 4 hours. (P)   \r\n(D) Except when dry cleaning methods are used as specified under § 4-603.11, surfaces of UTENSILS and EQUIPMENT contacting FOOD that is not POTENTIALLY HAZARDOUS (TIME/TEMPERATURE CONTROL FOR SAFETY FOOD) shall be cleaned:     \r\n  (1)   At any time when contamination may have occurred;\r\n  (2)   At least every 24 hours for iced tea dispensers and CONSUMER self-service UTENSILS such as tongs, scoops, or ladles;\r\n  (3) Before restocking CONSUMER self-service EQUIPMENT and UTENSILS such as condiment dispensers and display containers; and\r\n  (4) In EQUIPMENT such as ice bins and BEVERAGE dispensing nozzles and   enclosed components of EQUIPMENT such as ice makers, cooking oil storage   tanks and distribution lines, BEVERAGE and syrup dispensing lines or tubes,   coffee bean grinders, and water vending EQUIPMENT:\r\n     (a) At a frequency specified by the manufacturer, or\r\n     (b) Absent manufacturer specifications, at a frequency necessary to preclude      accumulation of soil or mold.","violationType":"Priority","itemDescription":"Food-contact surface(s) and utensil(s)","subItem":"","problemDescription":"Not cleaned","subProblem":"At least every 4 hours during continual use","location":"COFFEE AREA","subLocation":"Food contact surfaces","corrected":"Yes","daysToCorrect":"10.0","correctedDate":"2017-03-28T00:00:00","correctionDescription":"Clean as specified above."},{"violationCode":"2-103.11","violationDescription":"The PERSON IN CHARGE shall ensure that employees, practices and policies are in compliance with the code. (Pf) \r\n","violationType":"Foundation","itemDescription":"Person-in-charge","subItem":"","problemDescription":"Not ensuring compliance","subProblem":"","location":"PERSON IN CHARGE","subLocation":"In the Facility","corrected":"Yes","daysToCorrect":"10.0","correctedDate":"2017-02-21T00:00:00","correctionDescription":"Person-in-charge must ensure compliance with items listed above."},{"violationCode":"5-103.11","violationDescription":"(A) The water source and system shall be of sufficient capacity to meet the peak water demands of the FOOD ESTABLISHMENT. (Pf)\r\n(B) Hot water generation and distribution systems shall be sufficient to meet the peak hot water demands throughout the FOOD ESTABLISHMENT. (Pf)\r\n","violationType":"Foundation","itemDescription":"Hot water supply","subItem":"","problemDescription":"Insufficient to meet demands","subProblem":"","location":"HANDSINK(S)","subLocation":"Lack of HOT WATER","corrected":"Yes","daysToCorrect":"10.0","correctedDate":"2017-02-22T00:00:00","correctionDescription":"Provide sufficient supply if hot water such as a larger or additional hot water heater."},{"violationCode":"2-402.11","violationDescription":"FOOD EMPLOYEES shall wear hair restraints such as hats, hair coverings or nets, beard restraints, and clothing that covers body hair, that are designed and worn to effectively keep their hair from contacting exposed FOOD; clean EQUIPMENT, UTENSILS, and LINENS; or unwrapped SINGLE-SERVICE or SINGLE-USE ARTICLES.","violationType":"Core","itemDescription":"Hair restraint","subItem":"hair/beard net","problemDescription":"Not worn on head/hair","subProblem":"","location":"EMPLOYEE(S)","subLocation":"Lack of Hair Restraints/Covering","corrected":"Not required","daysToCorrect":"30.0","correctedDate":null,"correctionDescription":"Provide hat or hair net."}]}]}]}},"pageContext":{"eid":"5134"}}