{"data":{"site":{"pathPrefix":"/restaurant-inspections"},"postgres":{"establishment":[{"establishmentid":"3654","name":"State Fair Lounge, Inc.","address":"19910 Hoover Ave","zipcode":"48205","owner":"Charles Gaston","licenseNumber":"226554","licenseType":"Mobile Food Commissary","establishmentType":"Food Service Establishment","establishmentStatus":"Open","riskCategory":null,"reviewFrequencyDays":"365.0","coords":"-83.00459,42.44206","geojson":{"id":"3654","type":"Feature","geometry":{"type":"Point","coordinates":[-83.0045941819999,42.4420635810001]},"properties":{"name":"State Fair Lounge, Inc.","owner":"Charles Gaston","address":"19910 Hoover Ave","zipcode":"48205","license_type":"Mobile Food Commissary","risk_category":null,"license_number":"226554","establishmentid":"3654","establishment_type":"Food Service Establishment","establishment_status":"Open","review_frequency_days":"365.0","most_recent_license_date":"9/22/2018"}},"nearbyList":[{"establishmentid":"1171","name":"Pulaski Elementary / Middle School","address":"19725 Strasburg","zipcode":"48205"},{"establishmentid":"1431","name":"BT'S (Tycoons DBA Celebrity Reservation)","address":"12210 E Eight Mile Rd","zipcode":"48205"},{"establishmentid":"5338","name":"R & D One Stop Meals","address":"11811 E Seven Mile Rd","zipcode":"48205"},{"establishmentid":"4772","name":"Me & My Girls Soul Food","address":"11831 E Seven Mile Rd. ","zipcode":"48205"},{"establishmentid":"5411","name":"Royal Fish & Chicken Inc.","address":"11429 E Seven Mile Rd","zipcode":"48234"},{"establishmentid":"2947","name":"Coliseum","address":"11300 E Eight Mile Rd","zipcode":"48205"},{"establishmentid":"940","name":"Osborn Senior High School","address":"11600 E Seven Mile Rd","zipcode":"48205"},{"establishmentid":"763","name":"Bel Air 10 Theater","address":"10100 E Eight Mile Rd","zipcode":"48234"},{"establishmentid":"2375","name":"New Robert's Coney Island Inc.","address":"12701 E Seven Mile Rd","zipcode":"48205"},{"establishmentid":"3321","name":"Brenda Scott Middle School","address":"18400 Hoover Rd","zipcode":"48214"}],"inspectionsByEstablishmentidList":[{"inspectionid":"41778","inspectionDate":"2018-03-08T00:00:00","inspectionType":"Routine Inspection","inCompliance":"Yes","violationsByInspectionidList":[]},{"inspectionid":"41739","inspectionDate":"2018-03-08T00:00:00","inspectionType":"Routine Inspection","inCompliance":"Yes","violationsByInspectionidList":[]},{"inspectionid":"41612","inspectionDate":"2017-10-31T00:00:00","inspectionType":"Plan Review/Pre-Open","inCompliance":"Yes","violationsByInspectionidList":[{"violationCode":"3-305.11","violationDescription":"FOOD shall be protected from contamination by storing the FOOD:\r\n(1)     In a clean, dry location;\r\n(2)     Where it is not exposed to splash, dust, or other contamination; and\r\n(3)     At least 15 cm (6 inches) above the floor, unless otherwise approved.\r\n","violationType":"Core","itemDescription":"Food item(s) in storage","subItem":"","problemDescription":null,"subProblem":"","location":"STORAGE AREA (DRY)","subLocation":"","corrected":"Not required","daysToCorrect":"30.0","correctedDate":null,"correctionDescription":null}]},{"inspectionid":"38409","inspectionDate":"2017-03-24T00:00:00","inspectionType":"Routine Inspection","inCompliance":"Yes","violationsByInspectionidList":[{"violationCode":"MFL289.2129","violationDescription":"Sec. 2129. (1) All of the following food establishments shall employ a minimum of 1 managerial employee who is currently certified under a personnel certification program accredited by the American national standards institute, utilizing the conference for food protection standards:  (a) A food service establishment that is not any of the following:    (i) Operating under a temporary food service establishment license.  (ii) A vending machine location.     (b) An extended retail food establishment.  (c) Operated within a retail grocery.  (2) An individual certified under subsection (1) shall be recognized with full faith and credit by the state and all local units of government throughout the state.  (3) The department may promulgate rules to do all of the following:  (a) Develop requirements for retail food establishments to follow when employing certified food safety managers or personnel.  (b) Set a reasonable date for compliance with the requirements under subdivision (a) taking into consideration existing local personnel certification requirements.  (c) Establish certification fees necessary to implement, maintain, and track certified individuals directly or by contract. The department may annually adjust the schedule of fees to provide that the fee charged is sufficient to cover the cost of the certification tracking program.  (d) Implement and enforce the requirements described in subdivision (a).    (4) The certification program developed by the American national standards institute, as it exists on April 1, 2008 , is incorporated by reference. The department may adopt updates to the certification program accreditation standards in subsection (1) by rule.     (5) This section does not prohibit any local legislative body from implementing a food handler program, an employee health certification program, or a manager certification program, if it is not in conflict with this section.","violationType":"Core","itemDescription":"Person-in-charge","subItem":"","problemDescription":"Missing","subProblem":"","location":"PERSON IN CHARGE","subLocation":"","corrected":"Not required","daysToCorrect":"30.0","correctedDate":null,"correctionDescription":"Provide."}]}]}]}},"pageContext":{"eid":"3654"}}