{"data":{"site":{"pathPrefix":"/restaurant-inspections"},"postgres":{"establishment":[{"establishmentid":"5344","name":"Oakland International Academy","address":"8228 Conant St","zipcode":"48211","owner":"Oakland International Academy","licenseNumber":"208208","licenseType":"Fixed Establishment","establishmentType":"Non-Public School","establishmentStatus":null,"riskCategory":"Medium","reviewFrequencyDays":"210","coords":"-83.04267,42.38982","geojson":{"id":"5344","type":"Feature","geometry":{"type":"Point","coordinates":[-83.042669571,42.389816954]},"properties":{"name":"Oakland International Academy","owner":"Oakland International Academy","address":"8228 Conant St","zipcode":"48211","license_type":"Fixed Establishment","risk_category":"Medium","license_number":"208208","establishmentid":"5344","establishment_type":"Non-Public School","establishment_status":null,"review_frequency_days":"210","most_recent_license_date":"8/2/2016"}},"nearbyList":[{"establishmentid":"5218","name":"S & A Ice Cream","address":"8189 Winkelman St","zipcode":"48211"},{"establishmentid":"4777","name":"Mr. Primo Softy","address":"8215 Winkelman Street","zipcode":"48211"},{"establishmentid":"5343","name":"Oakland International Academy","address":"4001 Miller St","zipcode":null},{"establishmentid":"51623058","name":"D Ice Cream","address":"3876 Oliver St","zipcode":"48212"},{"establishmentid":"5342","name":"Oakland International Academy","address":"6111 Miller St","zipcode":"48211"},{"establishmentid":"51623019","name":"Detroit Soft Serve","address":"6116 Georgia St","zipcode":"48211"},{"establishmentid":"4810","name":"U.S.A Ice Cream","address":"4069 Dodge St","zipcode":"48211"},{"establishmentid":"4005","name":"M H Soft Serve","address":"4177 Dodge St","zipcode":"48211"},{"establishmentid":"3944","name":"Ice Cream Land","address":"6338 Selkirk St","zipcode":"48211"},{"establishmentid":"51623014","name":"Saleh Ice Cream","address":"6356 Selkirk St","zipcode":"48211"}],"inspectionsByEstablishmentidList":[{"inspectionid":"42456","inspectionDate":"2018-05-04T00:00:00","inspectionType":"Routine Inspection","inCompliance":"Yes","violationsByInspectionidList":[{"violationCode":"6-202.15","violationDescription":"Outer openings of a FOOD ESTABLISHMENT shall be protected against the entry of insects and rodents. Unless otherwise allowed by law. \r\n","violationType":"Core","itemDescription":"holes or gaps along","subItem":"","problemDescription":null,"subProblem":"","location":"HALLWAY","subLocation":"","corrected":"Not required","daysToCorrect":"30","correctedDate":null,"correctionDescription":"Repair/replace to meet requirements above."}]},{"inspectionid":"38759","inspectionDate":"2017-05-15T00:00:00","inspectionType":"Routine Inspection","inCompliance":"Yes","violationsByInspectionidList":[{"violationCode":"6-301.14","violationDescription":"A sign or poster that notifies FOOD EMPLOYEES to wash their hands shall be provided at all HANDWASHING SINKS used by FOOD EMPLOYEES and shall be clearly visible to FOOD EMPLOYEES.\r\n","violationType":"Core","itemDescription":"Handwashing signage","subItem":"","problemDescription":"Not provided","subProblem":"","location":"HANDSINK(S)","subLocation":"","corrected":"Not required","daysToCorrect":"30","correctedDate":null,"correctionDescription":"Provide."}]}]}],"maxInspectionDate":[{"inspectionDate":"2020-10-30T00:00:00"}]}},"pageContext":{"eid":"5344"}}