{"data":{"postgres":{"establishment":[{"establishmentid":"51622852","name":"Asian Corned Beef","address":"3741 E Seven MIle Rd","zipcode":"48234","owner":null,"licenseNumber":"230563","licenseType":"Fixed Establishment","establishmentType":null,"establishmentStatus":"Open","riskCategory":null,"reviewFrequencyDays":"90.0","coords":"-83.06634,42.43330","geojson":{"id":"51622852","type":"Feature","geometry":{"type":"Point","coordinates":[-83.0663439579999,42.4333039380001]},"properties":{"name":"Asian Corned Beef","owner":null,"address":"3741 E Seven MIle Rd","zipcode":"48234","license_type":"Fixed Establishment","risk_category":null,"license_number":"230563","establishmentid":"51622852","establishment_type":null,"establishment_status":"Open","review_frequency_days":"90.0","most_recent_license_date":null}},"nearbyList":[{"establishmentid":"5128","name":"Yonka Grill & Dairy","address":"3741 E Seven Mile","zipcode":"48234"},{"establishmentid":"888","name":"Pershing Senior High","address":"18875 Ryan Rd","zipcode":"48234"},{"establishmentid":"1255","name":"Vernon Chapel Church","address":"18500 Norwood","zipcode":"48234"},{"establishmentid":"733","name":"Gold Coast","address":"2971 E Seven Mile Rd","zipcode":"48234"},{"establishmentid":"1751","name":"Ambiance","address":"2959 E Seven Mile Rd","zipcode":"48234"}],"inspectionsByEstablishmentidList":[{"inspectionid":"44724","inspectionDate":"2018-12-28T00:00:00","inspectionType":"Routine Inspection","inCompliance":"Yes","violationsByInspectionidList":[{"violationCode":"6-301.11","violationDescription":"Each HANDWASHING SINK or group of 2 adjacent HANDWASHING SINKS shall be provided with a supply of hand cleaning liquid, powder, or bar soap. (Pf)\r\n","violationType":"Foundation","itemDescription":"Soap","subItem":"","problemDescription":"Not provided","subProblem":"","location":"HANDSINK(S)","subLocation":"","corrected":"Yes","daysToCorrect":"10.0","correctedDate":"2018-12-28T00:00:00","correctionDescription":"Provide."},{"violationCode":"5-205.11","violationDescription":"(A) A HANDWASHING SINK shall be maintained so that it is accessible at all times for EMPLOYEE use and used for no other purpose. (Pf)\r\n(B)  An automatic handwashing facility shall be used in accordance with manufacturer's instructions. (Pf)\r\n","violationType":"Foundation","itemDescription":"Handwashing sink(s)","subItem":"","problemDescription":"Used for culinary purposes","subProblem":"","location":"HANDSINK(S)","subLocation":"","corrected":"Yes","daysToCorrect":"10.0","correctedDate":"2018-12-28T00:00:00","correctionDescription":"Discontinue use of hand sink for this use and use appropriate sink."}]}]}]}},"pageContext":{"eid":"51622852"}}