{"data":{"postgres":{"establishment":[{"establishmentid":"4823","name":"City Covenant Church","address":"13624 Stout","zipcode":"48223","owner":"Semmeal J Thomas","licenseNumber":"078747","licenseType":"Fixed Establishment","establishmentType":"Food Service Establishment","establishmentStatus":"Open","riskCategory":"Medium","reviewFrequencyDays":"365.0","coords":"-83.24063,42.38553","geojson":{"id":"4823","type":"Feature","geometry":{"type":"Point","coordinates":[-83.240625931,42.3855301070001]},"properties":{"name":"City Covenant Church","owner":"Semmeal J Thomas","address":"13624 Stout","zipcode":"48223","license_type":"Fixed Establishment","risk_category":"Medium","license_number":"078747","establishmentid":"4823","establishment_type":"Food Service Establishment","establishment_status":"Open","review_frequency_days":"365.0","most_recent_license_date":null}},"nearbyList":[{"establishmentid":"362","name":"Sonny's Hamburgers","address":"20001 Schoolcraft Rd","zipcode":"48223"},{"establishmentid":"51622684","name":"Fun on the Run Soul Food Catering","address":"19841 Schoolcraft Rd","zipcode":"48223"},{"establishmentid":"300","name":"Billy's Coney Island","address":"19441 Schoolcraft Rd","zipcode":"48223"},{"establishmentid":"3447","name":"Detroit Community Schools","address":"12675 Burt Rd","zipcode":"48223"},{"establishmentid":"4175","name":"Samuel Gompers Learning Academy PK-8","address":"14450 Burt Rd","zipcode":"48223"},{"establishmentid":"351","name":"Haydays/Four Winds Bar","address":"19338 Schoolcraft Rd","zipcode":"48223"},{"establishmentid":"4086","name":"Chevelle's Bar & Grill","address":"19339 Schoolcraft Rd","zipcode":"48223"},{"establishmentid":"2735","name":"Vickie's Bar & Grill","address":"19205 Schoolcraft Rd","zipcode":"48223"},{"establishmentid":"5299","name":"Plymouth Ocean Delight- Manhattan Fish","address":"20100 Plymouth Rd Suite B","zipcode":"48228"},{"establishmentid":"1786","name":"Burger King","address":"20240 Plymouth Rd","zipcode":"48228"},{"establishmentid":"991","name":"Rouge Park Golf Course","address":"11701 Burt Rd","zipcode":"48228"},{"establishmentid":"977","name":"Olympia Coney Island","address":"20040 Plymouth Rd","zipcode":"48228"},{"establishmentid":"4309","name":"Pinky's Shuga Shack","address":"18929 Schoolcraft Rd","zipcode":"48223"},{"establishmentid":"5176","name":"Mary's Grill #2","address":"20804 Plymouth","zipcode":"48228"},{"establishmentid":"1521","name":"Mt. Vernon Missionary Baptist Church","address":"15125 Burt Rd","zipcode":"48223"},{"establishmentid":"5025","name":"New Bentley Lounge","address":"19631 Plymouth Rd","zipcode":"48228"},{"establishmentid":"2471","name":"Ply Produce and Deli","address":"19615 Plymouth Rd","zipcode":"48228"},{"establishmentid":"3708","name":"Freeze Shop","address":"13590 Glastonbury","zipcode":"48223"},{"establishmentid":"4288","name":"Yusef's Place 2","address":"18516 Schoolcraft","zipcode":"48223"},{"establishmentid":"1241","name":"Mann Elementary School","address":"19625 Elmira","zipcode":"48228"}],"inspectionsByEstablishmentidList":[{"inspectionid":"44062","inspectionDate":"2018-11-08T00:00:00","inspectionType":"Routine Inspection","inCompliance":"Yes","violationsByInspectionidList":[{"violationCode":"4-903.11","violationDescription":"Cleaned EQUIPMENT and UTENSILS, laundered LINENS, and SINGLE-SERVICE and SINGLE-USE ARTICLES shall be stored in an approved manner and location.\r\n","violationType":"Core","itemDescription":"Single-service/single-use article(s)","subItem":"","problemDescription":"Stored on floor or less than 6 inches above floor","subProblem":"","location":"KITCHEN","subLocation":"","corrected":"Not required","daysToCorrect":"30.0","correctedDate":null,"correctionDescription":"Store at least 6 inches above the floor."}]},{"inspectionid":"40309","inspectionDate":"2017-10-02T00:00:00","inspectionType":"Routine Inspection","inCompliance":"Yes","violationsByInspectionidList":[{"violationCode":"4-903.11","violationDescription":"Cleaned EQUIPMENT and UTENSILS, laundered LINENS, and SINGLE-SERVICE and SINGLE-USE ARTICLES shall be stored in an approved manner and location.\r\n","violationType":"Core","itemDescription":"Single-service/single-use article(s)","subItem":"","problemDescription":"Stored on floor or less than 6 inches above floor","subProblem":"","location":"KITCHEN","subLocation":"","corrected":"Not required","daysToCorrect":"30.0","correctedDate":null,"correctionDescription":"Store at least 6 inches above the floor."},{"violationCode":"MFL289.2129","violationDescription":"Sec. 2129. (1) All of the following food establishments shall employ a minimum of 1 managerial employee who is currently certified under a personnel certification program accredited by the American national standards institute, utilizing the conference for food protection standards:  (a) A food service establishment that is not any of the following:    (i) Operating under a temporary food service establishment license.  (ii) A vending machine location.     (b) An extended retail food establishment.  (c) Operated within a retail grocery.  (2) An individual certified under subsection (1) shall be recognized with full faith and credit by the state and all local units of government throughout the state.  (3) The department may promulgate rules to do all of the following:  (a) Develop requirements for retail food establishments to follow when employing certified food safety managers or personnel.  (b) Set a reasonable date for compliance with the requirements under subdivision (a) taking into consideration existing local personnel certification requirements.  (c) Establish certification fees necessary to implement, maintain, and track certified individuals directly or by contract. The department may annually adjust the schedule of fees to provide that the fee charged is sufficient to cover the cost of the certification tracking program.  (d) Implement and enforce the requirements described in subdivision (a).    (4) The certification program developed by the American national standards institute, as it exists on April 1, 2008 , is incorporated by reference. The department may adopt updates to the certification program accreditation standards in subsection (1) by rule.     (5) This section does not prohibit any local legislative body from implementing a food handler program, an employee health certification program, or a manager certification program, if it is not in conflict with this section.","violationType":"Core","itemDescription":"Person-in-charge","subItem":"","problemDescription":null,"subProblem":"","location":"FACILITY","subLocation":"","corrected":"Not required","daysToCorrect":"30.0","correctedDate":null,"correctionDescription":null},{"violationCode":"5-205.15","violationDescription":"A PLUMBING SYSTEM shall be:\r\n(A) Repaired according to LAW; (P) and\r\n(B) Maintained in good repair.\r\n","violationType":"Core","itemDescription":"Plumbing system","subItem":"","problemDescription":"Not maintained","subProblem":"","location":"DISHWASHING AREA","subLocation":"","corrected":"Not required","daysToCorrect":"10.0","correctedDate":null,"correctionDescription":"Maintain in good repair"},{"violationCode":"4-204.112","violationDescription":"(A)  In a mechanically refrigerated or hot FOOD storage unit, the sensor of a TEMPERATURE MEASURING DEVICE shall be located to measure the air temperature in the warmest part of a mechanically refrigerated unit and in the coolest part of a hot FOOD storage unit.\r\n(B)  Cold or hot holding EQUIPMENT used for POTENTIALLY HAZARDOUS FOOD shall be designed to include and shall be equipped with at least one integral or permanently affixed TEMPERATURE MEASURING DEVICE that is located to allow easy viewing of the device's temperature display (EXCEPT, heat lamps, cold plates, steam tables, or other equipment where it is not practical).\r\n(C)  TEMPERATURE MEASURING DEVICES shall be designed to be easily readable.\r\n(D)  FOOD TEMPERATURE MEASURING DEVICES and water TEMPERATURE MEASURING DEVICES on WAREWASHING machines shall have a numerical scale, printed record, or digital readout in increments no greater than 1C or 2F in the intended range of use. (Pf)\r\n\r\n","violationType":"Core","itemDescription":"Thermometer(s)","subItem":"","problemDescription":"Not provided","subProblem":"","location":"FACILITY","subLocation":"","corrected":"Not required","daysToCorrect":"10.0","correctedDate":null,"correctionDescription":"Provide."}]},{"inspectionid":"36416","inspectionDate":"2016-09-07T00:00:00","inspectionType":"Routine Inspection","inCompliance":"Yes","violationsByInspectionidList":[]}]}]}},"pageContext":{"eid":"4823"}}