{"data":{"site":{"pathPrefix":"/restaurant-inspections"},"postgres":{"establishment":[{"establishmentid":"664","name":"Chandler Park Golf Course","address":"12801 Chandler Park Dr","zipcode":"48213","owner":"VARGO GOLF DETROIT","licenseNumber":"070688","licenseType":"Fixed Establishment","establishmentType":"Food Service Establishment","establishmentStatus":"Open","riskCategory":"Medium","reviewFrequencyDays":"365.0","coords":"-82.97402,42.39728","geojson":{"id":"664","type":"Feature","geometry":{"type":"Point","coordinates":[-82.9740228589999,42.3972753190001]},"properties":{"name":"Chandler Park Golf Course","owner":"VARGO GOLF DETROIT","address":"12801 Chandler Park Dr","zipcode":"48213","license_type":"Fixed Establishment","risk_category":"Medium","license_number":"070688","establishmentid":"664","establishment_type":"Food Service Establishment","establishment_status":"Open","review_frequency_days":"365.0","most_recent_license_date":"4/26/2016"}},"nearbyList":[{"establishmentid":"2244","name":"Family Aquatic Center at Chandler Park","address":"12600 Chandler Park Dr","zipcode":"48213"},{"establishmentid":"4961","name":"New Harper Seafood & Chicken","address":"12715 Harper Ave","zipcode":"48213"},{"establishmentid":"5240","name":"Red Sea Food Inc.","address":"12500 E Warren","zipcode":"48215"},{"establishmentid":"5425","name":"Spud Headz","address":"12700 E Warren","zipcode":"48215"},{"establishmentid":"5227","name":"Al Namer Fish & Seafood #2 LLC","address":"12332 E Warren","zipcode":"48215"},{"establishmentid":"1796","name":"Popeye's Chicken & Biscuits","address":"12218 E Warren Ave","zipcode":"48215"},{"establishmentid":"3662","name":"Captain J Fish & Chicken #105","address":"12248 E Warren Ave","zipcode":"48215"},{"establishmentid":"1196","name":"Church's Fried Chicken #975","address":"11965 E Warren Ave","zipcode":"48214"},{"establishmentid":"51622565","name":"Tasty Bob's","address":"13000 E Warren Ave","zipcode":"48215"},{"establishmentid":"517","name":"Subway","address":"11939 E Warren Ave","zipcode":"48214"}],"inspectionsByEstablishmentidList":[{"inspectionid":"43479","inspectionDate":"2018-09-11T00:00:00","inspectionType":"Routine Inspection","inCompliance":"No","violationsByInspectionidList":[{"violationCode":"6-501.111","violationDescription":"The presence of insects, rodents, and other pests shall be controlled to minimize their presence on the PREMISES.  by:\r\n(A) Routinely inspecting incoming shipments of FOOD and supplies; \r\n(B) Routinely inspecting the PREMISES for evidence of pests;\r\n(C) Using methods, if pests are found, such as trapping devices or other means of pest control as specified.(Pf) \r\n(D) Eliminating harborage conditions. \r\n","violationType":"Foundation","itemDescription":"Routine inspections","subItem":"of premises for evidence of pests","problemDescription":"Not performed","subProblem":"","location":"STORAGE ROOM","subLocation":"","corrected":"No","daysToCorrect":"10.0","correctedDate":null,"correctionDescription":"Inspections must be performed as stated above."},{"violationCode":"4-602.13","violationDescription":"NonFOOD-CONTACT SURFACES of EQUIPMENT shall be cleaned at a frequency necessary to preclude accumulation of soil residues.\r\n","violationType":"Core","itemDescription":"Nonfood contact surface(s)","subItem":"","problemDescription":"With accumulation of debris","subProblem":"","location":"COOLER","subLocation":"","corrected":"Yes","daysToCorrect":"30.0","correctedDate":"2018-09-11T00:00:00","correctionDescription":"Keep clean."},{"violationCode":"6-501.18","violationDescription":"PLUMBING FIXTURES such as HANDWASHING SINKS, toilets, and urinals shall be cleaned as often as necessary to keep them clean. \r\n","violationType":"Core","itemDescription":"Handwashing facility","subItem":"","problemDescription":"Not clean","subProblem":"","location":"HANDSINK(S)","subLocation":"","corrected":"Yes","daysToCorrect":"30.0","correctedDate":"2018-09-13T00:00:00","correctionDescription":"Clean"}]},{"inspectionid":"39640","inspectionDate":"2017-08-11T00:00:00","inspectionType":"Routine Inspection","inCompliance":"No","violationsByInspectionidList":[{"violationCode":"5-202.13","violationDescription":"An air gap between the water supply inlet and the flood level rim of the PLUMBING FIXTURE, EQUIPMENT, or nonFOOD EQUIPMENT shall be at least twice the diameter of the water supply inlet and may not be less than 1 inch. (P)\r\n","violationType":"Priority","itemDescription":"Air gap","subItem":"","problemDescription":"Not provided","subProblem":"","location":"ICE MACHINE","subLocation":"","corrected":"No","daysToCorrect":"10.0","correctedDate":null,"correctionDescription":"Install to meet requirements"},{"violationCode":"MFL289.2129","violationDescription":"Sec. 2129. (1) All food establishments shall employ a minimum of 1 managerial employee as a food safety manager, who must be an individual who is currently certified under a personnel certification program accredited by the American National Standards Institute, utilizing the Conference for Food Protection standards:\r\n(2) Beginning January 14, 2017 and every 5 years thereafter, a certified  food safety manager who supervises the operations of a food service establishment shall have completed a food safety training program\r\ncontaining an allergen awareness  component that has been approved by  the department. A food service establishment shall retain records on the  site of the food service establishment documenting compliance of its  certified food safety managers with this subsection. ","violationType":"Core","itemDescription":"Person-in-charge","subItem":"","problemDescription":"Missing","subProblem":"","location":"PERSON IN CHARGE","subLocation":"","corrected":"Not required","daysToCorrect":"30.0","correctedDate":null,"correctionDescription":"Provide."}]}]}],"maxInspectionDate":[{"inspectionDate":"2019-05-31T00:00:00"}]}},"pageContext":{"eid":"664"}}