{"componentChunkName":"component---src-templates-establishment-page-js","path":"/establishment/51623156","result":{"data":{"site":{"pathPrefix":"/restaurant-inspections"},"postgres":{"establishment":[{"establishmentid":"51623156","name":"Street Beet Vegan","address":"4626 Third Ave.","zipcode":"48201","owner":"Nina Marie Paletta/Meghan Shaw","licenseNumber":"246033","licenseType":"Fixed Establishment","establishmentType":"Food Service Establishment","establishmentStatus":"Open","riskCategory":"High","reviewFrequencyDays":"150","coords":"-83.06958,42.35219","geojson":{"id":"51623156","type":"Feature","geometry":{"type":"Point","coordinates":[-83.069582944,42.352186537]},"properties":{"name":"Street Beet Vegan","owner":"Nina Marie Paletta/Meghan Shaw","address":"4626 Third Ave.","zipcode":"48201","license_type":"Fixed Establishment","risk_category":"High","license_number":"246033","establishmentid":"51623156","establishment_type":"Food Service Establishment","establishment_status":"Open","review_frequency_days":"150","most_recent_license_date":"3/31/2021"}},"nearbyList":[{"establishmentid":"1715","name":"3rd Street Bar","address":"4626 Third Ave.","zipcode":"48201"},{"establishmentid":"4864","name":"Dangerously Delicious Pies","address":"4626 Third","zipcode":"48201"},{"establishmentid":"4392","name":"The Bottom Line Coffee House","address":"4474 Third Ave.","zipcode":"48201"},{"establishmentid":"1155","name":"Jolly Old Timers Club","address":"641 Forest Ave. W.","zipcode":"48201"},{"establishmentid":"4103","name":"Jayson & Stephanie's Hot Diggity Dogs","address":"648  Prentis","zipcode":"48201"},{"establishmentid":"4955","name":"Mid-Town Kabob House","address":"4445 Second Ave.","zipcode":"48201"},{"establishmentid":"3450","name":"Passport Pizza & Ribs Cafe","address":"4445 Second","zipcode":"48201"},{"establishmentid":"4215","name":"Thistle Coffee House","address":"4445  Second Ave.","zipcode":"48201"},{"establishmentid":"4573","name":"Shalimar Garden Rest. LLC","address":"4445 Second","zipcode":"48201"},{"establishmentid":"5036","name":"Maya's Indo-Pak Cuisine","address":"4445 Second Ave.","zipcode":"48201"}],"inspectionsByEstablishmentidList":[{"inspectionid":"54595","inspectionDate":"2021-04-01T00:00:00","inspectionType":"COVID19 SITE CHECK","inCompliance":"Yes","violationsByInspectionidList":[]},{"inspectionid":"53721","inspectionDate":"2020-09-24T00:00:00","inspectionType":"Covid19 Positive ","inCompliance":"Yes","violationsByInspectionidList":[]},{"inspectionid":"51605","inspectionDate":"2020-03-23T00:00:00","inspectionType":"COVID19-temp closed","inCompliance":"Yes","violationsByInspectionidList":[]},{"inspectionid":"50137","inspectionDate":"2019-12-12T00:00:00","inspectionType":"Routine Inspection","inCompliance":"Yes","violationsByInspectionidList":[{"violationCode":"3-302.12","violationDescription":"Except for containers holding FOOD that can be readily and unmistakably recognized such as dry pasta, working containers holding FOOD or FOOD ingredients that are removed from their original packages for use in the FOOD ESTABLISHMENT, such as cooking oils, flour, herbs, potato flakes, salt, spices, and sugar shall be identified with the common name of the FOOD.","violationType":"Core","itemDescription":"Food item(s)","subItem":null,"problemDescription":"Not identified","subProblem":null,"location":"GRILL AREA","subLocation":null,"corrected":"True","daysToCorrect":"30","correctedDate":"2019-12-12T00:00:00","correctionDescription":"Label containers with common name."}]},{"inspectionid":"50170","inspectionDate":"2019-12-12T00:00:00","inspectionType":"Routine Inspection","inCompliance":"Yes","violationsByInspectionidList":[{"violationCode":"3-302.12","violationDescription":"Except for containers holding FOOD that can be readily and unmistakably recognized such as dry pasta, working containers holding FOOD or FOOD ingredients that are removed from their original packages for use in the FOOD ESTABLISHMENT, such as cooking oils, flour, herbs, potato flakes, salt, spices, and sugar shall be identified with the common name of the FOOD.","violationType":"Core","itemDescription":"Food item(s)","subItem":null,"problemDescription":"Not identified","subProblem":null,"location":"GRILL AREA","subLocation":null,"corrected":"True","daysToCorrect":"30","correctedDate":"2019-12-12T00:00:00","correctionDescription":"Label containers with common name."}]}]}],"maxInspectionDate":[{"inspectionDate":"2022-07-25T00:00:00"}]}},"pageContext":{"eid":"51623156"}},"staticQueryHashes":["3649515864","63159454"]}