{"componentChunkName":"component---src-templates-establishment-page-js","path":"/establishment/4206","result":{"data":{"site":{"pathPrefix":"/restaurant-inspections"},"postgres":{"establishment":[{"establishmentid":"4206","name":"Joe Louis Arena- Concessions","address":"600 Civic Center Dr.","zipcode":"48226","owner":"Olympia Entertainment","licenseNumber":"069254","licenseType":"Fixed Establishment","establishmentType":"Food Service Establishment","establishmentStatus":"Permanently Closed","riskCategory":null,"reviewFrequencyDays":"335","coords":"-83.05128,42.32533","geojson":{"id":"4206","type":"Feature","geometry":{"type":"Point","coordinates":[-83.051278122,42.325329668]},"properties":{"name":"Joe Louis Arena- Concessions","owner":"Olympia Entertainment","address":"600 Civic Center Dr.","zipcode":"48226","license_type":"Fixed Establishment","risk_category":null,"license_number":"069254","establishmentid":"4206","establishment_type":"Food Service Establishment","establishment_status":"Permanently Closed","review_frequency_days":"335","most_recent_license_date":"5/10/2017"}},"nearbyList":[{"establishmentid":"4203","name":"Joe Louis Arena- Eastend Joes","address":"600 Civic Center Dr.","zipcode":"48226"},{"establishmentid":"4207","name":"Joe Louis Arena- Bars","address":"600 Civic Center Dr.","zipcode":"48226"},{"establishmentid":"4202","name":"Joe Louis Arena- Buffalo Wild Wings","address":"600 Civic Center Dr.","zipcode":"48226"},{"establishmentid":"1193","name":"Joe Louis Sports Arena","address":"600 Civic Center Dr.","zipcode":"48226"},{"establishmentid":"4204","name":"Joe Louis Arena- Little Ceasars","address":"600 Civic Center Dr.","zipcode":"48226"},{"establishmentid":"4205","name":"Joe Louis Arena- Little Ceasars Kiosk","address":"600 Civic Center Dr.","zipcode":"48226"},{"establishmentid":"4200","name":"Joe Louis Arena-Suite Kitchen","address":"600 Civic Center Dr.","zipcode":"48226"},{"establishmentid":"4201","name":"Joe Louis Arena-VIP Service Buffet","address":"600 Civic Center Dr.","zipcode":"48226"},{"establishmentid":"1148","name":"Cobo Arena","address":"600 Civic Center Dr.","zipcode":"48226"},{"establishmentid":"4208","name":"Joe Louis Arena - Beer Portables","address":"600 Civic Center Dr.","zipcode":"48226"}],"inspectionsByEstablishmentidList":[{"inspectionid":"38008","inspectionDate":"2017-01-31T00:00:00","inspectionType":"Routine Inspection","inCompliance":"Yes","violationsByInspectionidList":[{"violationCode":"5-205.11","violationDescription":"(A) A HANDWASHING SINK shall be maintained so that it is accessible at all times for EMPLOYEE use and used for no other purpose. (Pf)\n(B)  An automatic handwashing facility shall be used in accordance with manufacturer's instructions. (Pf)\n","violationType":"Foundation","itemDescription":"Handwashing sink(s)","subItem":null,"problemDescription":"Not easily accessible","subProblem":"Items stored In","location":"HANDSINK(S)","subLocation":null,"corrected":"True","daysToCorrect":"10","correctedDate":"2017-01-31T00:00:00","correctionDescription":"Remove items from handsink.  Do not store items at handsink."},{"violationCode":"6-501.11","violationDescription":"PHYSICAL FACILITIES shall be maintained in good repair.\n","violationType":"Core","itemDescription":"Physical facilities","subItem":"ceiling(s)","problemDescription":"In poor repair","subProblem":null,"location":"DRY STORAGE AREA","subLocation":null,"corrected":"False","daysToCorrect":"30","correctedDate":null,"correctionDescription":"Repair"}]},{"inspectionid":"37848","inspectionDate":"2017-01-25T00:00:00","inspectionType":"Routine Inspection","inCompliance":"No","violationsByInspectionidList":[{"violationCode":"5-205.11","violationDescription":"(A) A HANDWASHING SINK shall be maintained so that it is accessible at all times for EMPLOYEE use and used for no other purpose. (Pf)\n(B)  An automatic handwashing facility shall be used in accordance with manufacturer's instructions. (Pf)\n","violationType":"Foundation","itemDescription":"Handwashing sink(s)","subItem":null,"problemDescription":"Not easily accessible","subProblem":"Items stored In","location":"HANDSINK(S)","subLocation":null,"corrected":"True","daysToCorrect":"10","correctedDate":"2017-01-25T00:00:00","correctionDescription":"Remove items from handsink.  Do not store items at handsink."},{"violationCode":"5-205.15","violationDescription":"A PLUMBING SYSTEM shall be:\n(A) Repaired according to LAW; (P) and\n(B) Maintained in good repair.\n","violationType":"Core","itemDescription":"Plumbing system","subItem":"water line(s)","problemDescription":"Not maintained","subProblem":null,"location":"HANDSINK(S)","subLocation":null,"corrected":"False","daysToCorrect":"10","correctedDate":null,"correctionDescription":"Maintain in good repair"}]}]}],"maxInspectionDate":[{"inspectionDate":"2022-07-25T00:00:00"}]}},"pageContext":{"eid":"4206"}},"staticQueryHashes":["3649515864","63159454"]}