{"data":{"site":{"pathPrefix":"/restaurant-inspections"},"postgres":{"establishment":[{"establishmentid":"1041","name":"Golightly Middle School","address":"5536 St Antoine St","zipcode":"48202","owner":"Detroit Board of Education","licenseNumber":"070328","licenseType":"Fixed Establishment","establishmentType":"Public School","establishmentStatus":"Open","riskCategory":"Medium","reviewFrequencyDays":"210","coords":"-83.05945,42.36483","geojson":{"id":"1041","type":"Feature","geometry":{"type":"Point","coordinates":[-83.059452256,42.36482542]},"properties":{"name":"Golightly Middle School","owner":"Detroit Board of Education","address":"5536 St Antoine St","zipcode":"48202","license_type":"Fixed Establishment","risk_category":"Medium","license_number":"070328","establishmentid":"1041","establishment_type":"Public School","establishment_status":"Open","review_frequency_days":"210","most_recent_license_date":"4/15/2019"}},"nearbyList":[{"establishmentid":"2319","name":"Golightly EEC Elementary","address":"630 E Palmer Ave. ","zipcode":"48202"},{"establishmentid":"4091","name":"University Prep Academy Middle School","address":"5310 St Antoine St","zipcode":"48202"},{"establishmentid":"2778","name":"Chen's China House INC","address":"550 E Warren Ave","zipcode":"48201"},{"establishmentid":"51622507","name":"Xus China House Inc","address":"550 E Warren Ave","zipcode":"48201"},{"establishmentid":"51622950","name":"Boulevard Cafe & Coney","address":"540 E Warren Ave","zipcode":"48201"},{"establishmentid":"2392","name":"Royal Grill","address":"540 E Warren Ave","zipcode":"48201"},{"establishmentid":"1301","name":"Little Caesar's Pizza #43","address":"530 E Warren Ave","zipcode":"48201"},{"establishmentid":"5170","name":"Subway #34129","address":"498 E Warren Ave","zipcode":"48201"},{"establishmentid":"1704","name":"Museum of African American History","address":"315 E Warren Ave","zipcode":"48201"},{"establishmentid":"2808","name":"College for Creative Studies","address":"201 E Kirby St","zipcode":"48202"}],"inspectionsByEstablishmentidList":[{"inspectionid":"47836","inspectionDate":"2019-05-16T00:00:00","inspectionType":"Routine Inspection","inCompliance":"No","violationsByInspectionidList":[{"violationCode":"5-103.11","violationDescription":"(A) The water source and system shall be of sufficient capacity to meet the peak water demands of the FOOD ESTABLISHMENT. (Pf)\r\n(B) Hot water generation and distribution systems shall be sufficient to meet the peak hot water demands throughout the FOOD ESTABLISHMENT. (Pf)\r\n","violationType":"Foundation","itemDescription":"Hot water supply","subItem":"","problemDescription":"Insufficient to meet demands","subProblem":"","location":"KITCHEN","subLocation":"Sink","corrected":"No","daysToCorrect":"10","correctedDate":null,"correctionDescription":null},{"violationCode":"6-501.12","violationDescription":"(A) PHYSICAL FACILITIES shall be cleaned as often as necessary to keep them clean.\r\n(B) Except spill cleanup, cleaning shall be done during periods when the least amount of FOOD is exposed such as after closing. ","violationType":"Core","itemDescription":"Physical facilities/structures","subItem":"","problemDescription":"With accumulation of debris","subProblem":"","location":"KITCHEN","subLocation":"Floor drain(s)","corrected":"Not required","daysToCorrect":"30","correctedDate":null,"correctionDescription":null},{"violationCode":"4-501.11","violationDescription":"EQUIPMENT shall be maintained in a state of repair and condition that meets the requirements of the code.\r\n","violationType":"Core","itemDescription":"Equipment","subItem":"","problemDescription":"In poor repair","subProblem":"","location":"KITCHEN","subLocation":"Freezer (walk-in)","corrected":"Not required","daysToCorrect":"30","correctedDate":null,"correctionDescription":null},{"violationCode":"6-501.11","violationDescription":"PHYSICAL FACILITIES shall be maintained in good repair.\r\n","violationType":"Core","itemDescription":"Physical facilities","subItem":"","problemDescription":"In poor repair","subProblem":"","location":"KITCHEN","subLocation":"","corrected":"Not required","daysToCorrect":"30","correctedDate":null,"correctionDescription":null}]},{"inspectionid":"43909","inspectionDate":"2018-10-02T00:00:00","inspectionType":"Routine Inspection","inCompliance":"Yes","violationsByInspectionidList":[{"violationCode":"4-501.11","violationDescription":"EQUIPMENT shall be maintained in a state of repair and condition that meets the requirements of the code.\r\n","violationType":"Core","itemDescription":"Equipment","subItem":"","problemDescription":"Broken","subProblem":"","location":"KITCHEN","subLocation":"Cooler (milk)","corrected":"Yes","daysToCorrect":"30","correctedDate":"2019-05-16T00:00:00","correctionDescription":"Repair/replace."}]},{"inspectionid":"41635","inspectionDate":"2018-03-01T00:00:00","inspectionType":"Routine Inspection","inCompliance":"No","violationsByInspectionidList":[{"violationCode":"4-502.11","violationDescription":"(A) UTENSILS shall be maintained in a state of repair or condition that complies with the requirements specified under Parts 4-1 and 4-2 or shall be discarded.\r\n(B) FOOD TEMPERATURE MEASURING DEVICES shall be calibrated in accordance with manufacturer's specifications as necessary to ensure their accuracy. (Pf)   \r\n(C) Ambient air temperature, water pressure, and water TEMPERATURE MEAURING DEVICES shall be maintained in good repair and be accurate within the intended range of use.","violationType":"Foundation","itemDescription":"Food thermometer(s)","subItem":"","problemDescription":"Not calibrated","subProblem":"","location":"KITCHEN","subLocation":"","corrected":"No","daysToCorrect":"10","correctedDate":null,"correctionDescription":"Calibrate in accordance with manufacturer specifications."}]}]}],"maxInspectionDate":[{"inspectionDate":"2020-05-29T00:00:00"}]}},"pageContext":{"eid":"1041"}}