{"data":{"site":{"pathPrefix":"/restaurant-inspections"},"postgres":{"establishment":[{"establishmentid":"51622905","name":"Detroit Mini Donut","address":"214 E Grand River Ave ","zipcode":"48226","owner":"Karen Hudson/Detroit Mini Donu","licenseNumber":"238158","licenseType":"Fixed Establishment","establishmentType":"Food Service Establishment","establishmentStatus":"Open","riskCategory":"High","reviewFrequencyDays":"180","coords":"-83.04682,42.33554","geojson":{"id":"51622905","type":"Feature","geometry":{"type":"Point","coordinates":[-83.046815314,42.335544061]},"properties":{"name":"Detroit Mini Donut","owner":"Karen Hudson/Detroit Mini Donu","address":"214 E Grand River Ave ","zipcode":"48226","license_type":"Fixed Establishment","risk_category":"High","license_number":"238158","establishmentid":"51622905","establishment_type":"Food Service Establishment","establishment_status":"Open","review_frequency_days":"180","most_recent_license_date":"7/15/2019"}},"nearbyList":[{"establishmentid":"4427","name":"Steve's Detroit Deli","address":"212 E Grand River","zipcode":"48226"},{"establishmentid":"4906","name":"Jose's Tacos, LLC","address":"218 E Grand River Ave","zipcode":"48226"},{"establishmentid":"5337","name":"I Luv Cheese","address":"1368 Broadway","zipcode":"48226"},{"establishmentid":"4106","name":"Detroit Seafood Market","address":"1435 Randolph","zipcode":"48226"},{"establishmentid":"4317","name":"Colors","address":"311 E Grand River Ave","zipcode":"48226"},{"establishmentid":"4972","name":"Punch Bowl 360 Bar","address":"1331 Broadway St","zipcode":"48226"},{"establishmentid":"4912","name":"Punch Bowl Social-Detroit","address":"1331 Broadway St","zipcode":"48226"},{"establishmentid":"4973","name":"Punch Bowl VIP","address":"1331 Broadway St","zipcode":"48226"},{"establishmentid":"5132","name":"Vertical Detroit","address":"1538 Centre St","zipcode":"48226"},{"establishmentid":"3404","name":"Vicente's Cuban Cuisine","address":"1250 Library St","zipcode":"48226"}],"inspectionsByEstablishmentidList":[{"inspectionid":"50570","inspectionDate":"2020-01-28T00:00:00","inspectionType":"Routine Inspection","inCompliance":"Yes","violationsByInspectionidList":[{"violationCode":"6-501.19","violationDescription":"Toilet room doors shall be kept closed except during cleaning and maintenance operations.\r\n","violationType":"Core","itemDescription":"Door","subItem":"","problemDescription":"Propped open","subProblem":"","location":"RESTROOM (EMPLOYEE)","subLocation":"In the front","corrected":"Not required","daysToCorrect":"30","correctedDate":null,"correctionDescription":null},{"violationCode":"MFL289.4119","violationDescription":"Sec. 4119. (1) Except as otherwise provided in subsection (2), a person licensed as a food establishment under this chapter shall keep a copy of the current license or temporary license furnished by the department posted and exposed in a conspicuous place for public inspection. A conspicuous place is the principal place where food business is transacted.  (2) In the case of vending machines, the name and address and telephone number of the current vending machine location operator shall be conspicuously displayed on each vending machine.","violationType":"Core","itemDescription":"Food Service License","subItem":"","problemDescription":"Not displayed","subProblem":"","location":"ESTABLISHMENT","subLocation":"","corrected":"Not required","daysToCorrect":"30","correctedDate":null,"correctionDescription":null}]},{"inspectionid":"48619","inspectionDate":"2019-08-02T00:00:00","inspectionType":"Routine Inspection","inCompliance":"Yes","violationsByInspectionidList":[{"violationCode":"4-302.14","violationDescription":"A test kit or other device that accurately measures the concentration in mg/L of SANITIZING solutions shall be provided. (Pf)\r\n","violationType":"Foundation","itemDescription":"Sanitizer test kit","subItem":"","problemDescription":"Not provided","subProblem":"","location":"FACILITY","subLocation":"At the Restroom(s)","corrected":"Yes","daysToCorrect":"10","correctedDate":"2019-08-12T00:00:00","correctionDescription":null}]}]}],"maxInspectionDate":[{"inspectionDate":"2020-05-29T00:00:00"}]}},"pageContext":{"eid":"51622905"}}