{"componentChunkName":"component---src-templates-establishment-page-js","path":"/establishment/51623182","result":{"data":{"site":{"pathPrefix":"/restaurant-inspections"},"postgres":{"establishment":[{"establishmentid":"51623182","name":"Toast Entertainment LLC","address":"1000 Woodward Ave.","zipcode":"48226","owner":"Toast Entertainment LLC","licenseNumber":"249365","licenseType":"Fixed Establishment","establishmentType":"Food Service Establishment","establishmentStatus":"Open","riskCategory":"High","reviewFrequencyDays":"150","coords":"-83.04626,42.33370","geojson":{"id":"51623182","type":"Feature","geometry":{"type":"Point","coordinates":[-83.046264946,42.333701099]},"properties":{"name":"Toast Entertainment LLC","owner":"Toast Entertainment LLC","address":"1000 Woodward Ave.","zipcode":"48226","license_type":"Fixed Establishment","risk_category":"High","license_number":"249365","establishmentid":"51623182","establishment_type":"Food Service Establishment","establishment_status":"Open","review_frequency_days":"150","most_recent_license_date":"25/4/2022"}},"nearbyList":[{"establishmentid":"4321","name":"Texas De Brazil","address":"1000 Woodward Ave.","zipcode":"48226"},{"establishmentid":"4631","name":"Cottage Inn Pizza","address":"107 Monroe St.","zipcode":"48226"},{"establishmentid":"4146","name":"Mr. Kabob Xpress ","address":"119 Monroe St.","zipcode":"48226"},{"establishmentid":"3387","name":"Jimmy Johns Gourmet Sandwiches #421","address":"95 Monroe St.","zipcode":"48226"},{"establishmentid":"4420","name":"Carmines Pizza","address":"107 Monroe","zipcode":"48226"},{"establishmentid":"3269","name":"Orchid Thai","address":"115 Monroe St.","zipcode":"48226"},{"establishmentid":"3666","name":"Papa Romano's/Mr. Pita","address":"107 Monroe","zipcode":"48226"},{"establishmentid":"4022","name":"CK Mediteranian Grill","address":"119 Monroe","zipcode":"48226"},{"establishmentid":"5031","name":"Standby","address":"225 Gratiot Ave.","zipcode":"48226"},{"establishmentid":"51622470","name":"Standby / The Skip-Mobile Unit","address":"225 Gratiot","zipcode":"48226"}],"inspectionsByEstablishmentidList":[{"inspectionid":"62069","inspectionDate":"2023-04-10T00:00:00","inspectionType":"Routine Inspection","inCompliance":"Yes","violationsByInspectionidList":[]},{"inspectionid":"57784","inspectionDate":"2022-03-23T00:00:00","inspectionType":"Routine Inspection","inCompliance":"Yes","violationsByInspectionidList":[]},{"inspectionid":"55248","inspectionDate":"2021-06-29T00:00:00","inspectionType":"Routine Inspection","inCompliance":"Yes","violationsByInspectionidList":[]},{"inspectionid":"54899","inspectionDate":"2021-05-18T00:00:00","inspectionType":"COVID19-phone-low","inCompliance":"Yes","violationsByInspectionidList":[]},{"inspectionid":"50945","inspectionDate":"2020-02-27T00:00:00","inspectionType":"Pre-opening","inCompliance":"Yes","violationsByInspectionidList":[{"violationCode":"6-201.11","violationDescription":"Except otherwise approved, and except for antislip floor coverings or applications may be used for safety reasons, floors, floor coverings, walls, wall coverings, and ceilings shall be designed, constructed, and installed so they are SMOOTH and EASILY CLEANABLE.\n","violationType":"Core","itemDescription":"Floor(s)","subItem":"juncture","problemDescription":"Not coved","subProblem":"","location":"BAR(S)","subLocation":"At the Baseboard (tiles)","corrected":"False","daysToCorrect":"30","correctedDate":null,"correctionDescription":null},{"violationCode":"4-402.11","violationDescription":"EQUIPMENT that is fixed because it is not EASILY MOVABLE shall be installed so that it is spaced to allow access for cleaning along the sides, behind, and above the EQUIPMENT or sealed as required,  COUNTER-MOUNTED EQUIPMENT that is not EASILY MOVABLE shall be installed to allow cleaning of the EQUIPMENT and areas underneath and around the EQUIPMENT .\n","violationType":"Core","itemDescription":"Fixed equipment","subItem":"","problemDescription":"Not sealed to adjoining","subProblem":"Wall(s)","location":"BAR(S)","subLocation":"At the Counter(s)","corrected":"False","daysToCorrect":"30","correctedDate":null,"correctionDescription":"Seal to wall/equipment to facilitate cleaning."}]},{"inspectionid":"50751","inspectionDate":"2020-02-11T00:00:00","inspectionType":"Preopening/New","inCompliance":"No","violationsByInspectionidList":[{"violationCode":"4-204.112","violationDescription":"(A)  In a mechanically refrigerated or hot FOOD storage unit, the sensor of a TEMPERATURE MEASURING DEVICE shall be located to measure the air temperature in the warmest part of a mechanically refrigerated unit and in the coolest part of a hot FOOD storage unit.\n(B)  Cold or hot holding EQUIPMENT used for POTENTIALLY HAZARDOUS FOOD shall be designed to include and shall be equipped with at least one integral or permanently affixed TEMPERATURE MEASURING DEVICE that is located to allow easy viewing of the device's temperature display (EXCEPT, heat lamps, cold plates, steam tables, or other equipment where it is not practical).\n(C)  TEMPERATURE MEASURING DEVICES shall be designed to be easily readable.\n(D)  FOOD TEMPERATURE MEASURING DEVICES and water TEMPERATURE MEASURING DEVICES on WAREWASHING machines shall have a numerical scale, printed record, or digital readout in increments no greater than 1C or 2F in the intended range of use. (Pf)\n\n","violationType":"Core","itemDescription":"Thermometer(s)","subItem":"","problemDescription":"Not provided","subProblem":"","location":"HOT HOLDING CABINET","subLocation":"","corrected":"True","daysToCorrect":"10","correctedDate":"0001-01-01T00:00:00","correctionDescription":null}]}]}],"maxInspectionDate":[{"inspectionDate":"2023-04-13T00:00:00"}]}},"pageContext":{"eid":"51623182"}},"staticQueryHashes":["3649515864","63159454"]}