{"data":{"site":{"pathPrefix":"/restaurant-inspections"},"postgres":{"establishment":[{"establishmentid":"51622746","name":"Tacos El Rodeo","address":"1949 Michigan Ave","zipcode":"48216","owner":"Mauren & Emily Galvez","licenseNumber":"241587","licenseType":"Mobile Food Establishment","establishmentType":"LHD - Mobile Food Establishmen","establishmentStatus":"Open","riskCategory":"Medium","reviewFrequencyDays":"210","coords":"-83.19549,42.22753","geojson":{"id":"51622746","type":"Feature","geometry":{"type":"Point","coordinates":[-83.195490119,42.227525764]},"properties":{"name":"Tacos El Rodeo","owner":"Mauren & Emily Galvez","address":"1949 Michigan Ave","zipcode":"48216","license_type":"Mobile Food Establishment","risk_category":"Medium","license_number":"241587","establishmentid":"51622746","establishment_type":"LHD - Mobile Food Establishmen","establishment_status":"Open","review_frequency_days":"210","most_recent_license_date":"4/29/2019"}},"nearbyList":[{"establishmentid":"539","name":"Motor City Wine Bar","address":"1949 Michigan Ave","zipcode":"48216"},{"establishmentid":"2154","name":"White Castle #19","address":"1930-50  Michigan Ave","zipcode":"48216"},{"establishmentid":"1371","name":"The Works Bar & Grill","address":"1846 Michigan Ave","zipcode":"48216"},{"establishmentid":"592","name":"Gaelic League Irish American Club","address":"2066-68 Michigan Ave","zipcode":"48216"},{"establishmentid":"4904","name":"Gold Cash Gold","address":"2100 Michigan Ave","zipcode":"48216"},{"establishmentid":"5378","name":"Bobcat Bonnies","address":"1800 Michigan Ave","zipcode":"48216"},{"establishmentid":"4306","name":"Astro Coffee","address":"2124 Michigan Ave","zipcode":"48216"},{"establishmentid":"51622686","name":"Detroit Police Athletic League","address":"1680 Michigan Ave","zipcode":"48216"},{"establishmentid":"3590","name":"Happy's Pizza #22","address":"3517 S Fort St","zipcode":"48217"},{"establishmentid":"4246","name":"El Parian #1","address":"1064 London St","zipcode":"48149"}],"inspectionsByEstablishmentidList":[{"inspectionid":"43024","inspectionDate":"2018-07-30T00:00:00","inspectionType":"Mobile Inspection","inCompliance":"Yes","violationsByInspectionidList":[{"violationCode":"7-204.11","violationDescription":"Chemical SANITIZERS and other chemical antimicrobials applied to FOOD-CONTACT SURFACES shall meet the requirements specified in this code. (P)\r\n","violationType":"Priority","itemDescription":"Sanitizer(s)","subItem":"","problemDescription":"Do not comply with law","subProblem":"","location":"TRUCK","subLocation":"At the Bleach","corrected":"Yes","daysToCorrect":"10","correctedDate":"2018-07-31T00:00:00","correctionDescription":"Provide labels that comply with law."},{"violationCode":"6-301.12","violationDescription":"Each HANDWASHING SINK or group of adjacent HANDWASHING SINKS shall be provided with:\r\n(A) Individual, disposable towels; (Pf)\r\n(B) A continuous towel system that supplies the user with a clean towel;(Pf) or \r\n(C) A heated-air hand drying device.(Pf)\r\n(D) A hand drying device that employs an air-knife system that delivers high velocity pressurized air at ambient temperatures.(Pf)\r\n","violationType":"Foundation","itemDescription":"Sanitary hand drying provisions","subItem":"disposable, paper towels","problemDescription":"Not provided","subProblem":"At hand sink","location":"TRUCK","subLocation":"Missing Paper toweling","corrected":"Yes","daysToCorrect":"10","correctedDate":"2018-07-31T00:00:00","correctionDescription":"Provide"}]}]}],"maxInspectionDate":[{"inspectionDate":"2020-05-29T00:00:00"}]}},"pageContext":{"eid":"51622746"}}