{"data":{"site":{"pathPrefix":"/restaurant-inspections"},"postgres":{"establishment":[{"establishmentid":"51622639","name":"Meta Physica Wellness Center","address":"1701 Trumbull Ste 3","zipcode":"48216","owner":"Anahi Hollis","licenseNumber":"229206","licenseType":"Fixed Establishment","establishmentType":"Food Service Establishment","establishmentStatus":"Open","riskCategory":"High","reviewFrequencyDays":"180.0","coords":"-83.06586,42.32954","geojson":{"id":"51622639","type":"Feature","geometry":{"type":"Point","coordinates":[-83.065864,42.3295367490001]},"properties":{"name":"Meta Physica Wellness Center","owner":"Anahi Hollis","address":"1701 Trumbull Ste 3","zipcode":"48216","license_type":"Fixed Establishment","risk_category":"High","license_number":"229206","establishmentid":"51622639","establishment_type":"Food Service Establishment","establishment_status":"Open","review_frequency_days":"180.0","most_recent_license_date":"4/18/2019"}},"nearbyList":[{"establishmentid":"51622591","name":"The Farmer's Hand LLC /DBA Folk","address":"1701 Trumbull Ste B","zipcode":"48216"},{"establishmentid":"5416","name":"Lady of the House, LLC","address":"1426 Bagley Ave","zipcode":"48216"},{"establishmentid":"1409","name":"Manna Meals","address":"1950 Trumbull Ave","zipcode":"48216"},{"establishmentid":"4648","name":"Ottava Via","address":"1400 Michigan Ave","zipcode":"48226"},{"establishmentid":"4105","name":"Onassis Coney Island","address":"1501 Michigan Ave","zipcode":"48226"},{"establishmentid":"545","name":"Nemos","address":"1378 Michigan Ave","zipcode":"48226"},{"establishmentid":"500","name":"McShane's","address":"1460 Michigan Ave","zipcode":"48216"},{"establishmentid":"918","name":"Most Holy Trinity School","address":"1229 LaBrosse St","zipcode":"48226"},{"establishmentid":"51622514","name":"Burroughs","address":"1331 Trumbull Ave","zipcode":"48216"},{"establishmentid":"5174","name":"Red Dunn/ Events","address":"1331 Trumbull Ave","zipcode":"48216"}],"inspectionsByEstablishmentidList":[{"inspectionid":"48404","inspectionDate":"2019-07-18T00:00:00","inspectionType":"Routine Inspection","inCompliance":"Yes","violationsByInspectionidList":[]},{"inspectionid":"44875","inspectionDate":"2019-01-16T00:00:00","inspectionType":"Routine Inspection","inCompliance":"Yes","violationsByInspectionidList":[{"violationCode":"MFL289.4119","violationDescription":"Sec. 4119. (1) Except as otherwise provided in subsection (2), a person licensed as a food establishment under this chapter shall keep a copy of the current license or temporary license furnished by the department posted and exposed in a conspicuous place for public inspection. A conspicuous place is the principal place where food business is transacted.  (2) In the case of vending machines, the name and address and telephone number of the current vending machine location operator shall be conspicuously displayed on each vending machine.","violationType":"Core","itemDescription":"Food Service License","subItem":"","problemDescription":"Not displayed","subProblem":"","location":"ESTABLISHMENT","subLocation":"","corrected":"Yes","daysToCorrect":"30.0","correctedDate":"2019-01-29T00:00:00","correctionDescription":null}]},{"inspectionid":"42899","inspectionDate":"2018-07-17T00:00:00","inspectionType":"Routine Inspection","inCompliance":"Yes","violationsByInspectionidList":[]},{"inspectionid":"42289","inspectionDate":"2018-05-22T00:00:00","inspectionType":"Plan Review/Final/Ap","inCompliance":"Yes","violationsByInspectionidList":[]},{"inspectionid":"42288","inspectionDate":"2018-05-22T00:00:00","inspectionType":"Plan Review/Pre-Open","inCompliance":"No","violationsByInspectionidList":[{"violationCode":"5-402.11","violationDescription":"Except as otherwise allowed, a direct connection may not exist between the SEWAGE system and a drain originating from EQUIPMENT in which FOOD, portable EQUIPMENT, or UTENSILS are placed. (P)\r\n","violationType":"Priority","itemDescription":"Backflow/backsiphonage prevention device(s)","subItem":"Air gap","problemDescription":"Not provided on","subProblem":"Sink","location":"PREP SINK","subLocation":"At the AIR GAP","corrected":"No","daysToCorrect":"10.0","correctedDate":null,"correctionDescription":"Provide adequate air gap."},{"violationCode":"6-201.11","violationDescription":"Except otherwise approved, and except for antislip floor coverings or applications may be used for safety reasons, floors, floor coverings, walls, wall coverings, and ceilings shall be designed, constructed, and installed so they are SMOOTH and EASILY CLEANABLE.\r\n","violationType":"Core","itemDescription":"wall(s)","subItem":"","problemDescription":"Not constructed, designed, installed to be","subProblem":"Easily cleanable","location":"WALL(S)","subLocation":"","corrected":"Not required","daysToCorrect":"30.0","correctedDate":null,"correctionDescription":"Repair/replace to be smooth and easily cleanable."}]}]}],"maxInspectionDate":[{"inspectionDate":"2019-10-31T00:00:00"}]}},"pageContext":{"eid":"51622639"}}