{"data":{"site":{"pathPrefix":"/restaurant-inspections"},"postgres":{"establishment":[{"establishmentid":"51622649","name":"The Commissary","address":"4848 Grand River Ste 1A","zipcode":"48208","owner":"Brad Greenhill","licenseNumber":"233734","licenseType":"Fixed Establishment","establishmentType":"Food Service Establishment","establishmentStatus":"Open","riskCategory":"High","reviewFrequencyDays":"180","coords":"-83.08822,42.34861","geojson":{"id":"51622649","type":"Feature","geometry":{"type":"Point","coordinates":[-83.088219678,42.348613536]},"properties":{"name":"The Commissary","owner":"Brad Greenhill","address":"4848 Grand River Ste 1A","zipcode":"48208","license_type":"Fixed Establishment","risk_category":"High","license_number":"233734","establishmentid":"51622649","establishment_type":"Food Service Establishment","establishment_status":"Open","review_frequency_days":"180","most_recent_license_date":"4/18/2019"}},"nearbyList":[{"establishmentid":"5205","name":"Coriander","address":"4848 Grand River Blvd","zipcode":"48207"},{"establishmentid":"51622688","name":"Magnet","address":"4842 Grand River Ave","zipcode":"48208"},{"establishmentid":"1411","name":"St. Leo's","address":"4860 Fifteenth St","zipcode":"48208"},{"establishmentid":"51623197","name":"St. Leos Soup Kitchen","address":"4800 Grand River Ave","zipcode":"48208"},{"establishmentid":"2442","name":"George Crockett Academy","address":"4851 Fourteenth St","zipcode":"48208"},{"establishmentid":"3865","name":"Monte Bello Pizzeria","address":"5181 Grand River Ave","zipcode":"48208"},{"establishmentid":"51623311","name":"Big Mama Pizzeria LLC","address":"5181 Grand River","zipcode":"48208"},{"establishmentid":"952","name":"Douglass Academy For Young Men","address":"2001 W Warren Ave","zipcode":"48208"},{"establishmentid":"4459","name":"Legend's Coney Island","address":"5210 W Grand River","zipcode":"48208"},{"establishmentid":"4572","name":"Legends Grill","address":"5210 Grand River Ave","zipcode":"48208"}],"inspectionsByEstablishmentidList":[{"inspectionid":"44417","inspectionDate":"2018-12-10T00:00:00","inspectionType":"Plan Review/Pre-Open","inCompliance":"Yes","violationsByInspectionidList":[{"violationCode":"6-201.11","violationDescription":"Except otherwise approved, and except for antislip floor coverings or applications may be used for safety reasons, floors, floor coverings, walls, wall coverings, and ceilings shall be designed, constructed, and installed so they are SMOOTH and EASILY CLEANABLE.\r\n","violationType":"Core","itemDescription":"wall(s)","subItem":"wall covering(s)","problemDescription":"Not constructed, designed, installed to be","subProblem":"Easily cleanable","location":"KITCHEN","subLocation":"","corrected":"Not required","daysToCorrect":"30","correctedDate":null,"correctionDescription":"Repair/replace to be smooth and easily cleanable."},{"violationCode":"5-501.17","violationDescription":"A toilet room used by females shall be provided with a covered receptacle for sanitary napkins.\r\n","violationType":"Core","itemDescription":"Covered waste receptacle(s)","subItem":"","problemDescription":"Not provided","subProblem":"","location":"RESTROOM(S)","subLocation":"","corrected":"Not required","daysToCorrect":"30","correctedDate":null,"correctionDescription":"Provide as required"},{"violationCode":"6-202.15","violationDescription":"Outer openings of a FOOD ESTABLISHMENT shall be protected against the entry of insects and rodents. Unless otherwise allowed by law. \r\n","violationType":"Core","itemDescription":"Outer opening(s)","subItem":"door(s)","problemDescription":"Not tight-fitting","subProblem":"Gaps greater than 1/16 of an inch","location":"BACK DOOR","subLocation":"","corrected":"Not required","daysToCorrect":"30","correctedDate":null,"correctionDescription":"Repair/replace to meet requirements above."},{"violationCode":"6-101.11","violationDescription":"Materials for indoor floor, wall, and ceiling surfaces under conditions of normal use shall be:\r\n(1) SMOOTH, durable, and EASILY CLEANABLE for areas where FOOD ESTABLISHMENT operations are conducted;\r\n(2) Closely woven and EASILY CLEANABLE carpet for carpeted areas; and\r\n(3) Nonabsorbent for areas subject to moisture such as FOOD preparation areas, walk-in refrigerators, WAREWASHING areas, toilet rooms, mobile FOOD ESTABLISHMENT SERVICING AREAS, and areas subject to flushing or spray cleaning methods.\r\n","violationType":"Core","itemDescription":"wall(s)","subItem":"wall covering(s)","problemDescription":"Not constructed, designed, installed to be","subProblem":"Easily cleanable","location":"KITCHEN","subLocation":"","corrected":"Not required","daysToCorrect":"30","correctedDate":null,"correctionDescription":"Repair/replace to be smooth and easily cleanable."},{"violationCode":"4-402.11","violationDescription":"EQUIPMENT that is fixed because it is not EASILY MOVABLE shall be installed so that it is spaced to allow access for cleaning along the sides, behind, and above the EQUIPMENT or sealed as required,  COUNTER-MOUNTED EQUIPMENT that is not EASILY MOVABLE shall be installed to allow cleaning of the EQUIPMENT and areas underneath and around the EQUIPMENT .\r\n","violationType":"Core","itemDescription":"Fixed equipment","subItem":"","problemDescription":"Not sealed to adjoining","subProblem":"Wall(s)","location":"KITCHEN","subLocation":"","corrected":"Not required","daysToCorrect":"30","correctedDate":null,"correctionDescription":"Seal to wall/equipment to facilitate cleaning."}]}]}],"maxInspectionDate":[{"inspectionDate":"2020-10-30T00:00:00"}]}},"pageContext":{"eid":"51622649"}}