{"componentChunkName":"component---src-templates-establishment-page-js","path":"/establishment/51623302","result":{"data":{"site":{"pathPrefix":"/restaurant-inspections"},"postgres":{"establishment":[{"establishmentid":"51623302","name":"Trap Vegan ","address":"20198 Livernois ","zipcode":"48221","owner":"Rondy Raiford ","licenseNumber":"259455","licenseType":"Fixed Establishment","establishmentType":"Food Service Establishment","establishmentStatus":"Open","riskCategory":null,"reviewFrequencyDays":"335","coords":"-83.14165,42.44302","geojson":{"id":"51623302","type":"Feature","geometry":{"type":"Point","coordinates":[-83.141647163,42.443015911]},"properties":{"name":"Trap Vegan ","owner":"Rondy Raiford ","address":"20198 Livernois ","zipcode":"48221","license_type":"Fixed Establishment","risk_category":null,"license_number":"259455","establishmentid":"51623302","establishment_type":"Food Service Establishment","establishment_status":"Open","review_frequency_days":"335","most_recent_license_date":null}},"nearbyList":[{"establishmentid":"51623667","name":"LYV Detroit","address":"20238 Livernois","zipcode":"48221"},{"establishmentid":"4266","name":"Baker's Keyboard Lounge","address":"20150 Livernois Ave.","zipcode":"48221"},{"establishmentid":"2110","name":"Hangover's Lounge","address":"20143 Livernois Ave.","zipcode":"48221"},{"establishmentid":"51623421","name":"Petty Cash","address":"20050 Livernois","zipcode":"48221"},{"establishmentid":"1492","name":"O'Quinn's Shrimp House #2","address":"20050 Livernois Ave.","zipcode":"48221"},{"establishmentid":"367","name":"Jackson's Five Star Catering","address":"20504 Livernois Ave.","zipcode":"48221"},{"establishmentid":"51622720","name":"Durdens Catering LLC","address":"20504 Livernois","zipcode":"48221"},{"establishmentid":"4356","name":"We Will Cook For You","address":"20504 Livernois Ave.","zipcode":"48221"},{"establishmentid":"51623206","name":"The Gripper Food Truck ","address":"20504 Livernois","zipcode":"48221"},{"establishmentid":"51623505","name":"Reca Creations Food Truck LLC","address":"3931 Norfolk","zipcode":"48221"}],"inspectionsByEstablishmentidList":[{"inspectionid":"56256","inspectionDate":"2021-10-08T00:00:00","inspectionType":"Preopening/New","inCompliance":"Yes","violationsByInspectionidList":[{"violationCode":"3-307.11","violationDescription":"FOOD shall be protected from contamination that may result from a factor or source not specified under Subparts 3-301 - 3-306.\n","violationType":"Core","itemDescription":"Food","subItem":"","problemDescription":"Not protected","subProblem":"From contamination","location":"DISHWASHING AREA","subLocation":"Not provided (with) SPLASH GUARD","corrected":"False","daysToCorrect":"30","correctedDate":null,"correctionDescription":null},{"violationCode":"6-202.14","violationDescription":"Except as otherwise allowed, a toilet room located on the PREMISES shall be completely enclosed and provided with a tight-fitting and self-closing door. \n","violationType":"Core","itemDescription":"Toilet room(s)","subItem":"","problemDescription":"Not provided with","subProblem":"Self-closing door","location":"RESTROOM (UNISEX)","subLocation":"Not provided (with) Self-closing device","corrected":"False","daysToCorrect":"30","correctedDate":null,"correctionDescription":"Provide self-closing door."}]}]}],"maxInspectionDate":[{"inspectionDate":"2023-04-13T00:00:00"}]}},"pageContext":{"eid":"51623302"}},"staticQueryHashes":["3649515864","63159454"]}