{"data":{"site":{"pathPrefix":"/restaurant-inspections"},"postgres":{"establishment":[{"establishmentid":"1561","name":"Club International","address":"6060 Fort St W","zipcode":"48209","owner":"Club International, Inc.","licenseNumber":"035802","licenseType":"Fixed Establishment","establishmentType":"Food Service Establishment","establishmentStatus":"Open","riskCategory":null,"reviewFrequencyDays":"365","coords":"-83.10057,42.30792","geojson":{"id":"1561","type":"Feature","geometry":{"type":"Point","coordinates":[-83.100573068,42.307921676]},"properties":{"name":"Club International","owner":"Club International, Inc.","address":"6060 Fort St W","zipcode":"48209","license_type":"Fixed Establishment","risk_category":null,"license_number":"035802","establishmentid":"1561","establishment_type":"Food Service Establishment","establishment_status":"Open","review_frequency_days":"365","most_recent_license_date":"4/22/2015"}},"nearbyList":[{"establishmentid":"2473","name":"Universal Coney Island","address":"6260 W Fort St","zipcode":"48209"},{"establishmentid":"4417","name":"Community Health & Social Services Ctr. ","address":"5635 West Fort St","zipcode":"48209"},{"establishmentid":"51622590","name":"El Caporal","address":"1414 Junction St","zipcode":"48209"},{"establishmentid":"5111","name":"Detroit 75 II, LLC","address":"4800 W Fort St","zipcode":"48209"},{"establishmentid":"4917","name":"Detroit 75 Kitchen","address":"4800 W Fort St","zipcode":"48209"},{"establishmentid":"4662","name":"Tacos Morelotes","address":"1494 Junction Ave","zipcode":"48209"},{"establishmentid":"1525","name":"Holy Redeemer Grade School","address":"1711 Junction Ave","zipcode":"48209"},{"establishmentid":"3661","name":"Detroit Cristo Rey High School","address":"5679 W Vernor","zipcode":"48209"},{"establishmentid":"4311","name":"Holy Redeemer Church","address":"1721 Junction Ave","zipcode":"48209"},{"establishmentid":"461","name":"Ho Ho Village","address":"5821 W Vernor","zipcode":"48209"}],"inspectionsByEstablishmentidList":[{"inspectionid":"39885","inspectionDate":"2017-09-08T00:00:00","inspectionType":"Routine Inspection","inCompliance":"Yes","violationsByInspectionidList":[{"violationCode":"6-501.12","violationDescription":"(A) PHYSICAL FACILITIES shall be cleaned as often as necessary to keep them clean.\r\n(B) Except spill cleanup, cleaning shall be done during periods when the least amount of FOOD is exposed such as after closing. ","violationType":"Core","itemDescription":"Physical facilities/structures","subItem":"","problemDescription":"Soiled","subProblem":"","location":"FACILITY","subLocation":"","corrected":"Not required","daysToCorrect":"30","correctedDate":null,"correctionDescription":"Clean prior to opening."},{"violationCode":"6-301.14","violationDescription":"A sign or poster that notifies FOOD EMPLOYEES to wash their hands shall be provided at all HANDWASHING SINKS used by FOOD EMPLOYEES and shall be clearly visible to FOOD EMPLOYEES.\r\n","violationType":"Core","itemDescription":"Handwashing signage","subItem":"","problemDescription":"Not provided","subProblem":"","location":"BATHROOM","subLocation":"","corrected":"Not required","daysToCorrect":"30","correctedDate":null,"correctionDescription":"Provide."},{"violationCode":"4-501.11","violationDescription":"EQUIPMENT shall be maintained in a state of repair and condition that meets the requirements of the code.\r\n","violationType":"Core","itemDescription":"Equipment","subItem":"","problemDescription":"Broken","subProblem":"","location":"BAR","subLocation":"","corrected":"Not required","daysToCorrect":"30","correctedDate":null,"correctionDescription":"Repair/replace."}]},{"inspectionid":"36242","inspectionDate":"2016-08-25T00:00:00","inspectionType":"Routine Inspection","inCompliance":"No","violationsByInspectionidList":[]}]}],"maxInspectionDate":[{"inspectionDate":"2020-10-30T00:00:00"}]}},"pageContext":{"eid":"1561"}}