{"data":{"site":{"pathPrefix":"/restaurant-inspections"},"postgres":{"establishment":[{"establishmentid":"2413","name":"White Castle #58","address":"17739 Grand River Ave","zipcode":"48227","owner":"White Castle System, Inc.","licenseNumber":"043552","licenseType":"Fixed Establishment","establishmentType":"Food Service Establishment","establishmentStatus":"Open","riskCategory":null,"reviewFrequencyDays":"365.0","coords":"-83.21705,42.39992","geojson":{"id":"2413","type":"Feature","geometry":{"type":"Point","coordinates":[-83.217046297,42.3999195440001]},"properties":{"name":"White Castle #58","owner":"White Castle System, Inc.","address":"17739 Grand River Ave","zipcode":"48227","license_type":"Fixed Establishment","risk_category":null,"license_number":"043552","establishmentid":"2413","establishment_type":"Food Service Establishment","establishment_status":"Open","review_frequency_days":"365.0","most_recent_license_date":"5/16/2018"}},"nearbyList":[{"establishmentid":"2100","name":"Popeye's Chicken & Biscuits #6095","address":"17700 Grand River Ave","zipcode":"48227"},{"establishmentid":"2649","name":"Subway #30489","address":"17776 Grand River Ave","zipcode":"48227"},{"establishmentid":"2691","name":"Checkers","address":"17630 Grand River Ave","zipcode":"48227"},{"establishmentid":"2386","name":"Kentucky Fried Chicken F428107","address":"17750 Fenkell Ave","zipcode":"48227"},{"establishmentid":"787","name":"Omega Grill","address":"18130 Fenkell Ave","zipcode":"48223"},{"establishmentid":"2296","name":"Wendy's Old Fashioned Hamburgers #2259","address":"17420 Grand River Ave","zipcode":"48227"},{"establishmentid":"5405","name":"It'z a Wrap","address":"17400 W Grand River","zipcode":"48227"},{"establishmentid":"5417","name":"Brooklyn Fish and Chicken","address":"18354 Fenkell Ave","zipcode":"48223"},{"establishmentid":"1222","name":"Edison Elementary School","address":"17045 Grand River Ave","zipcode":"48227"},{"establishmentid":"2345","name":"Subway #11686/Mama Delucas","address":"18288 Grand River Ave","zipcode":"48223"},{"establishmentid":"2045","name":"McDonald's #567","address":"18403 Grand River Ave","zipcode":"48223"},{"establishmentid":"5237","name":"Metro Fish & Seafood LLC","address":"18440 Grand River","zipcode":"48223"},{"establishmentid":"51622571","name":"River Bistro Detroit","address":"18456 Grand River Ave","zipcode":"48223"},{"establishmentid":"2669","name":"Fish Express","address":"18509 Grand River Ave","zipcode":"48223"},{"establishmentid":"5420","name":"La Kabob Grill ","address":"18616 Fenkell","zipcode":"48223"},{"establishmentid":"1562","name":"Panda Chinese Restaurant","address":"18614 Fenkell Ave","zipcode":"48223"},{"establishmentid":"1501","name":"Tubby's Sub Shop #75","address":"16543 Grand River Ave","zipcode":"48227"},{"establishmentid":"5165","name":"Papa's Pizza","address":"16501 Grand River","zipcode":"48227"},{"establishmentid":"601","name":"North Rosedale Community House","address":"18445 Scarsdale St","zipcode":"48223"},{"establishmentid":"1582","name":"Communication and Media Arts School","address":"14771 Mansfield","zipcode":"48227"}],"inspectionsByEstablishmentidList":[{"inspectionid":"42637","inspectionDate":"2018-06-20T00:00:00","inspectionType":"Routine Inspection","inCompliance":"Yes","violationsByInspectionidList":[{"violationCode":"5-205.11","violationDescription":"(A) A HANDWASHING SINK shall be maintained so that it is accessible at all times for EMPLOYEE use and used for no other purpose. (Pf)\r\n(B)  An automatic handwashing facility shall be used in accordance with manufacturer's instructions. (Pf)\r\n","violationType":"Foundation","itemDescription":"Handwashing sink(s)","subItem":"","problemDescription":"Used for culinary purposes","subProblem":"Cooking","location":"HANDSINK(S)","subLocation":"","corrected":"Yes","daysToCorrect":"10.0","correctedDate":"2018-06-20T00:00:00","correctionDescription":"Discontinue use of hand sink for this use and use appropriate sink."}]},{"inspectionid":"39125","inspectionDate":"2017-06-29T00:00:00","inspectionType":"Routine Inspection","inCompliance":"Yes","violationsByInspectionidList":[{"violationCode":"3-304.12","violationDescription":"During pauses in FOOD preparation or dispensing, UTENSILS shall be stored:\r\n(A) In the FOOD with their handles above the top of the FOOD and the container;\r\n(B) In FOOD that is not POTENTIALLY HAZARDOUS with their handles above the      top of the FOOD within containers or EQUIPMENT that can be closed, such as      bins of sugar, flour, or cinnamon;\r\n(C) On a clean portion of the FOOD preparation table or cooking EQUIPMENT\r\n(D)  In running water, such as dipper well.\r\n(E)  In a clean, protected location if the UTENSILS, such as ice scoops, are   used only with a FOOD that is not POTENTIALLY HAZARDOUS; or\r\n(F)  In a container of water maintained at a temperature of at least 135Â° F.\r\n","violationType":"Core","itemDescription":"Dispensing utensil(s)","subItem":"","problemDescription":"Improperly stored","subProblem":"With handle in product","location":"KITCHEN","subLocation":"","corrected":"Yes","daysToCorrect":"30.0","correctedDate":"2017-06-29T00:00:00","correctionDescription":"Store with handle extended out of product."}]}]}]}},"pageContext":{"eid":"2413"}}