{"data":{"postgres":{"establishment":[{"establishmentid":"4776","name":"Motor City Casino - First Floor Service ","address":"2901 Grand River Ave ","zipcode":"48201","owner":"Detroit Entertainment Inc","licenseNumber":"075702","licenseType":"Fixed Establishment","establishmentType":"Food Service Establishment","establishmentStatus":"Open","riskCategory":"High","reviewFrequencyDays":"365.0","coords":"-83.06763,42.33944","geojson":{"id":"4776","type":"Feature","geometry":{"type":"Point","coordinates":[-83.067633488,42.3394391140001]},"properties":{"name":"Motor City Casino - First Floor Service ","owner":"Detroit Entertainment Inc","address":"2901 Grand River Ave ","zipcode":"48201","license_type":"Fixed Establishment","risk_category":"High","license_number":"075702","establishmentid":"4776","establishment_type":"Food Service Establishment","establishment_status":"Open","review_frequency_days":"365.0","most_recent_license_date":"4/13/2018"}},"nearbyList":[{"establishmentid":"4951","name":"Det. Delta Prep. Acad for Social Justice","address":"3550 John C Lodge","zipcode":"48201"},{"establishmentid":"1563","name":"Detroit Rescue Mission","address":"3535 Third St","zipcode":"48201"},{"establishmentid":"805","name":"Nancy Whiskey ","address":"2644 Harrison","zipcode":"48216"},{"establishmentid":"436","name":"Jumbo's Bar","address":"3736 Third St","zipcode":"48201"},{"establishmentid":"1865","name":"Detroit Housing Commission","address":"1231 Selden, Bldg 503","zipcode":"48201"},{"establishmentid":"3598","name":"Cass Technical High School","address":"2501 Second Ave","zipcode":"48201-34"},{"establishmentid":"4938","name":"UFO Factory","address":"2110 Trumbull St","zipcode":"48207"},{"establishmentid":"2015","name":"Motor City Coney & Grill","address":"3641 Grand River Ave","zipcode":"48208"},{"establishmentid":"5359","name":"Detroit Shipping Company- Bars","address":"474 Peterboro St","zipcode":"48201"},{"establishmentid":"51622714","name":"-320 Coffee & Creamery","address":"474 Peterboro Street #201","zipcode":"48201"},{"establishmentid":"51622644","name":"Coop","address":"474 Peterboro St #104","zipcode":"48201"},{"establishmentid":"51622705","name":"Brujo","address":"474 Peterboro St #105","zipcode":"48201"},{"establishmentid":"51622643","name":"Bangkok 96","address":"474 Peterboro Street #103","zipcode":"48201"},{"establishmentid":"500","name":"McShane's","address":"1460 Michigan Ave","zipcode":"48216"},{"establishmentid":"1140","name":"Masonic Temple","address":"500 Temple","zipcode":"48201"},{"establishmentid":"4648","name":"Ottava Via","address":"1400 Michigan Ave","zipcode":"48226"},{"establishmentid":"51622606","name":"Founders Brewing Company","address":"456 Charlotte St","zipcode":"48201"},{"establishmentid":"545","name":"Nemos","address":"1378 Michigan Ave","zipcode":"48226"},{"establishmentid":"51622463","name":"Corktown Tavern Inc.","address":"1716 Michigan Ave","zipcode":"48216"},{"establishmentid":"4781","name":"Bucharest Grill","address":"1623 Michigan Ave","zipcode":"48216"}],"inspectionsByEstablishmentidList":[{"inspectionid":"43071","inspectionDate":"2018-06-05T00:00:00","inspectionType":"Routine Inspection","inCompliance":"Yes","violationsByInspectionidList":[{"violationCode":"7-201.11","violationDescription":"POISONOUS OR TOXIC MATERIAL shall be stored so they can not contaminate FOOD, EQUIPMENT, UTENSILS, LINENS, AND SINGLE-SERVICE AND SINGLE-USE ARTICLES by:   \r\n(A) Separating the POISONOUS OR TOXIC MATERIAL by spacing or partitioning; (P) and   \r\n(B) Locating the POISONOUS OR TOXIC MATERIAL in an area that is not above FOOD, EQUIPMENT, UTENSILS, LINENS, AND SINGLE-SERVICE AND SINGLE-USE ARTICLES.  This paragraph does not apply to EQUIPMENT and UTENSIL cleaners and sanitizers that are stored in WAREWASHING areas for availability and convenience if the materials are stored to prevent contamination of FOOD, EQUIPMENT, UTENSILS, LINENS, AND SINGLE-SERVICE and SINGLE-USE ARTICLES. (P)","violationType":"Priority","itemDescription":"Poisonous/toxic material(s)","subItem":"","problemDescription":"Stored over/with","subProblem":"Food","location":"BAR","subLocation":"","corrected":"Yes","daysToCorrect":"10.0","correctedDate":"2018-06-05T00:00:00","correctionDescription":"Store toxics below and away from all other items."},{"violationCode":"6-501.12","violationDescription":"(A) PHYSICAL FACILITIES shall be cleaned as often as necessary to keep them clean.\r\n(B) Except spill cleanup, cleaning shall be done during periods when the least amount of FOOD is exposed such as after closing. ","violationType":"Core","itemDescription":"Physical facilities/structures","subItem":"floors","problemDescription":"Soiled","subProblem":"","location":"BAR","subLocation":"","corrected":"Not required","daysToCorrect":"30.0","correctedDate":null,"correctionDescription":"Clean."}]},{"inspectionid":"38988","inspectionDate":"2017-04-28T00:00:00","inspectionType":"Routine Inspection","inCompliance":"Yes","violationsByInspectionidList":[{"violationCode":"6-301.14","violationDescription":"A sign or poster that notifies FOOD EMPLOYEES to wash their hands shall be provided at all HANDWASHING SINKS used by FOOD EMPLOYEES and shall be clearly visible to FOOD EMPLOYEES.\r\n","violationType":"Core","itemDescription":"Handwashing signage","subItem":"","problemDescription":"Not provided","subProblem":"At hand sink","location":"HANDSINK(S)","subLocation":"","corrected":"Not required","daysToCorrect":"30.0","correctedDate":null,"correctionDescription":"Provide"},{"violationCode":"4-602.13","violationDescription":"NonFOOD-CONTACT SURFACES of EQUIPMENT shall be cleaned at a frequency necessary to preclude accumulation of soil residues.\r\n","violationType":"Core","itemDescription":"Nonfood contact surface(s)","subItem":"","problemDescription":"Soiled","subProblem":"","location":"SHELF","subLocation":"","corrected":"Not required","daysToCorrect":"30.0","correctedDate":null,"correctionDescription":"Clean."}]}]}]}},"pageContext":{"eid":"4776"}}