{"data":{"site":{"pathPrefix":"/restaurant-inspections"},"postgres":{"establishment":[{"establishmentid":"5315","name":"Mr. Softy","address":"7262 Memorial St","zipcode":"48228","owner":null,"licenseNumber":"202862","licenseType":"Mobile Food Establishment","establishmentType":null,"establishmentStatus":"Seasonal","riskCategory":"Medium","reviewFrequencyDays":"90.0","coords":"-83.21020,42.34448","geojson":{"id":"5315","type":"Feature","geometry":{"type":"Point","coordinates":[-83.210196733,42.3444836910001]},"properties":{"name":"Mr. Softy","owner":null,"address":"7262 Memorial St","zipcode":"48228","license_type":"Mobile Food Establishment","risk_category":"Medium","license_number":"202862","establishmentid":"5315","establishment_type":null,"establishment_status":"Seasonal","review_frequency_days":"90.0","most_recent_license_date":"5/30/2017"}},"nearbyList":[{"establishmentid":"212","name":"Nick's Detroit","address":"16807 W Warren Ave","zipcode":"48228"},{"establishmentid":"1014","name":"L. George's Restaurant Coney Island","address":"16835 W Warren Ave","zipcode":"48228"},{"establishmentid":"803","name":"Gigi's","address":"16920 W Warren Ave","zipcode":"48228"},{"establishmentid":"5330","name":"Halal Pizza Box","address":"16645 W Warren","zipcode":"48228"},{"establishmentid":"1459","name":"Rob's Deli","address":"16956-58 E Warren Ave","zipcode":"48224"},{"establishmentid":"4983","name":"Iraqi Bakery and Carry Out","address":"17022 W Warren Ave","zipcode":"48228"},{"establishmentid":"5123","name":"Superior Coney Island & Grill","address":"17032 Warren W","zipcode":"48228"},{"establishmentid":"51622496","name":"Amazing Grill LLC","address":"17044 W Warren Ave","zipcode":"48228"},{"establishmentid":"5030","name":"Good Night Lounge","address":"17621 W Warren","zipcode":"48228"},{"establishmentid":"4134","name":"Subway #47233","address":"17720 W Warren Ave","zipcode":"48228"}],"inspectionsByEstablishmentidList":[{"inspectionid":"42923","inspectionDate":"2018-05-11T00:00:00","inspectionType":"Routine Inspection","inCompliance":"Yes","violationsByInspectionidList":[{"violationCode":"4-301.12","violationDescription":"(A) Except as specified in ¶ (C) of this section, a sink with at least 3 compartments shall be provided for manually washing, rinsing, and SANITIZING EQUIPMENT and UTENSILS. (Pf)   \r\n(B) Sink compartments shall be large enough to accommodate immersion of the largest EQUIPMENT and UTENSILS. If EQUIPMENT or UTENSILS are too large for the WAREWASHING sink, a WAREWASHING machine or alternative EQUIPMENT as specified in ¶ (C) of this section shall be used. (Pf)\r\n(C) Before a 2-compartment sink is used the PERMIT HOLDER shall have its use APPROVED.\r\n(D) A 2-compartment sink may not be used for WAREWASHING operations where cleaning and SANITIZING solutions are used for a continuous or intermittent flow of KITCHENWARE or TABLEWARE in an ongoing WAREWASHING process.\r\n\r\n","violationType":"Foundation","itemDescription":"Three compartment sink","subItem":"","problemDescription":"Not provided","subProblem":"","location":"MOBILE UNIT","subLocation":"","corrected":"Yes","daysToCorrect":"10.0","correctedDate":"2018-05-16T00:00:00","correctionDescription":"Provide."},{"violationCode":"4-101.19","violationDescription":"NonFOOD-CONTACT SURFACES of EQUIPMENT that are exposed to splash, spillage, or other FOOD soiling or that require frequent cleaning shall be constructed of a CORROSION-RESISTANT, nonabsorbent, and SMOOTH material.\r\n","violationType":"Core","itemDescription":"Equipment","subItem":"","problemDescription":"Inadequate","subProblem":"","location":"MOBILE UNIT","subLocation":"","corrected":"Not required","daysToCorrect":"30.0","correctedDate":null,"correctionDescription":"Provide additional equipment to meet requirement above."},{"violationCode":"6-201.11","violationDescription":"Except otherwise approved, and except for antislip floor coverings or applications may be used for safety reasons, floors, floor coverings, walls, wall coverings, and ceilings shall be designed, constructed, and installed so they are SMOOTH and EASILY CLEANABLE.\r\n","violationType":"Core","itemDescription":"wall(s)","subItem":"","problemDescription":"Not constructed, designed, installed to be","subProblem":"","location":"MOBILE UNIT","subLocation":"","corrected":"Not required","daysToCorrect":"30.0","correctedDate":null,"correctionDescription":"Repair/replace to be smooth and easily cleanable."}]},{"inspectionid":"41139","inspectionDate":"2017-05-30T00:00:00","inspectionType":"Routine Inspection","inCompliance":"Yes","violationsByInspectionidList":[]}]}],"maxInspectionDate":[{"inspectionDate":"2019-03-31T00:00:00"}]}},"pageContext":{"eid":"5315"}}