{"data":{"postgres":{"establishment":[{"establishmentid":"1724","name":"Cornerstone School","address":"6861 E Nevada St","zipcode":"48234","owner":"Cornerstone Schools","licenseNumber":"036110","licenseType":"Fixed Establishment","establishmentType":"Non-Public School","establishmentStatus":"Open","riskCategory":"Medium","reviewFrequencyDays":"210.0","coords":"-83.03033,42.42783","geojson":{"id":"1724","type":"Feature","geometry":{"type":"Point","coordinates":[-83.030325874,42.4278269480001]},"properties":{"name":"Cornerstone School","owner":"Cornerstone Schools","address":"6861 E Nevada St","zipcode":"48234","license_type":"Fixed Establishment","risk_category":"Medium","license_number":"036110","establishmentid":"1724","establishment_type":"Non-Public School","establishment_status":"Open","review_frequency_days":"210.0","most_recent_license_date":"4/28/2016"}},"nearbyList":[{"establishmentid":"4987","name":"Playhouse Entertainment East","address":"7468 E Davison Ave","zipcode":"48212"},{"establishmentid":"4477","name":"Senior Community Exchange","address":"18341 Van Dyke Ave","zipcode":"48234"},{"establishmentid":"531","name":"Wing's Chop Suey","address":"18700 Van Dyke Ave","zipcode":"48234"},{"establishmentid":"1142","name":"C Note Lounge","address":"18912 Van Dyke Ave","zipcode":"49234"},{"establishmentid":"2250","name":"M. George's Coney Island","address":"7690 E Seven Mile Rd","zipcode":"48234"},{"establishmentid":"3620","name":"Captain Jay's Fish & Chicken","address":"19041 Van Dyke Ave","zipcode":"48234"},{"establishmentid":"560","name":"Tippin Inn, Inc.","address":"18430-34 Mt Elliott","zipcode":"48234"},{"establishmentid":"605","name":"Two Way Inn","address":"17897 Mt Elliott St","zipcode":"48212"},{"establishmentid":"51622515","name":"4 of a Kind Catering","address":"19153 Van Dyke Ave","zipcode":"48234"},{"establishmentid":"550","name":"Pandora's Boxx, LLC","address":"6221 E Davison Ave","zipcode":"48212"},{"establishmentid":"1863","name":"New Law Elementary","address":"19411 Cliff","zipcode":"48235"},{"establishmentid":"492","name":"Escape Lounge","address":"19404 Sherwood","zipcode":"48234"},{"establishmentid":"302","name":"Original Marcus Hamburger","address":"6349 E McNichols Rd","zipcode":"48212"},{"establishmentid":"361","name":"Brandy's on 7","address":"6141 E Seven Mile Rd","zipcode":"48234"},{"establishmentid":"5249","name":"Motown Cafe Grill","address":"19638 Van Dyke Street","zipcode":"48234"},{"establishmentid":"5043","name":"Grandys Coney Island","address":"4004 E Outer Dr","zipcode":"48234"},{"establishmentid":"629","name":"V.F.W. Post #2233 James Europe","address":"18651 Mound Rd","zipcode":"48234"},{"establishmentid":"1213","name":"Chili Boys (Lou's Coney Island)","address":"19100 Mound Rd","zipcode":"48234"},{"establishmentid":"1657","name":"McDonald's #14217","address":"19840 Van Dyke Ave","zipcode":"48234"},{"establishmentid":"1576","name":"Burger King Corp #6796","address":"19901 Van Dyke Ave","zipcode":"48234"}],"inspectionsByEstablishmentidList":[{"inspectionid":"44533","inspectionDate":"2018-12-20T00:00:00","inspectionType":"Routine Inspection","inCompliance":"Yes","violationsByInspectionidList":[{"violationCode":"6-101.11","violationDescription":"Materials for indoor floor, wall, and ceiling surfaces under conditions of normal use shall be:\r\n(1) SMOOTH, durable, and EASILY CLEANABLE for areas where FOOD ESTABLISHMENT operations are conducted;\r\n(2) Closely woven and EASILY CLEANABLE carpet for carpeted areas; and\r\n(3) Nonabsorbent for areas subject to moisture such as FOOD preparation areas, walk-in refrigerators, WAREWASHING areas, toilet rooms, mobile FOOD ESTABLISHMENT SERVICING AREAS, and areas subject to flushing or spray cleaning methods.\r\n","violationType":"Core","itemDescription":"Wall material(s)","subItem":"","problemDescription":"Not easily cleanable","subProblem":"","location":"WALK-IN COOLER","subLocation":"Wall(s)","corrected":"Not required","daysToCorrect":"30.0","correctedDate":null,"correctionDescription":"Repair/replace to be easily cleanable."}]},{"inspectionid":"42586","inspectionDate":"2018-06-19T00:00:00","inspectionType":"Routine Inspection","inCompliance":"Yes","violationsByInspectionidList":[{"violationCode":"7-204.11","violationDescription":"Chemical SANITIZERS and other chemical antimicrobials applied to FOOD-CONTACT SURFACES shall meet the requirements specified in this code. (P)\r\n","violationType":"Priority","itemDescription":"Sanitizer(s)","subItem":"","problemDescription":"Do not comply with law","subProblem":"","location":"THROUGHOUT FACILITY","subLocation":"","corrected":"Yes","daysToCorrect":"10.0","correctedDate":"2018-06-21T00:00:00","correctionDescription":"Provide labels that comply with law."},{"violationCode":"6-101.11","violationDescription":"Materials for indoor floor, wall, and ceiling surfaces under conditions of normal use shall be:\r\n(1) SMOOTH, durable, and EASILY CLEANABLE for areas where FOOD ESTABLISHMENT operations are conducted;\r\n(2) Closely woven and EASILY CLEANABLE carpet for carpeted areas; and\r\n(3) Nonabsorbent for areas subject to moisture such as FOOD preparation areas, walk-in refrigerators, WAREWASHING areas, toilet rooms, mobile FOOD ESTABLISHMENT SERVICING AREAS, and areas subject to flushing or spray cleaning methods.\r\n","violationType":"Core","itemDescription":"Floor(s)","subItem":"","problemDescription":"Not constructed, designed, installed to be","subProblem":"","location":"HOT HOLDING CABINET","subLocation":"","corrected":"Not required","daysToCorrect":"30.0","correctedDate":null,"correctionDescription":"Repair/replace to be smooth and easily cleanable."}]},{"inspectionid":"40779","inspectionDate":"2017-11-14T00:00:00","inspectionType":"Routine Inspection","inCompliance":"Yes","violationsByInspectionidList":[{"violationCode":"MFL289.2129","violationDescription":"Sec. 2129. (1) All of the following food establishments shall employ a minimum of 1 managerial employee who is currently certified under a personnel certification program accredited by the American national standards institute, utilizing the conference for food protection standards:  (a) A food service establishment that is not any of the following:    (i) Operating under a temporary food service establishment license.  (ii) A vending machine location.     (b) An extended retail food establishment.  (c) Operated within a retail grocery.  (2) An individual certified under subsection (1) shall be recognized with full faith and credit by the state and all local units of government throughout the state.  (3) The department may promulgate rules to do all of the following:  (a) Develop requirements for retail food establishments to follow when employing certified food safety managers or personnel.  (b) Set a reasonable date for compliance with the requirements under subdivision (a) taking into consideration existing local personnel certification requirements.  (c) Establish certification fees necessary to implement, maintain, and track certified individuals directly or by contract. The department may annually adjust the schedule of fees to provide that the fee charged is sufficient to cover the cost of the certification tracking program.  (d) Implement and enforce the requirements described in subdivision (a).    (4) The certification program developed by the American national standards institute, as it exists on April 1, 2008 , is incorporated by reference. The department may adopt updates to the certification program accreditation standards in subsection (1) by rule.     (5) This section does not prohibit any local legislative body from implementing a food handler program, an employee health certification program, or a manager certification program, if it is not in conflict with this section.","violationType":"Core","itemDescription":"Person-in-charge","subItem":"","problemDescription":null,"subProblem":"","location":"ESTABLISHMENT","subLocation":"","corrected":"Not required","daysToCorrect":"30.0","correctedDate":null,"correctionDescription":null},{"violationCode":"3-304.14","violationDescription":"(A)  Cloths that are in use for wiping FOOD spills on TABLEWARE shall be maintained dry and used for no other purpose. \r\n(B)  Cloths in-use for wiping counters and equipment shall be held between uses in   a chemical sanitizer solution, and laundered daily.\r\n(C)  Cloths in-use for wiping surfaces in contact with raw animal FOODS shall be      kept separate from cloths used for other purposes.\r\n(D)  Dry wiping cloths and the chemical sanitizing solutions shall be free of FOOD    debris or visible soil.\r\n(E)  Containers of chemical sanitizing solutions shall be stored off the floor and         used in a manner that prevents contamination of FOOD, EQUIPMENT, UTENSILS, LINENS, SINGLE-SERVICE, or SINGLE-USE ARTICLES.\r\n(E)  SINGLE-USE disposable sanitizer wipes shall be used in accordance lable               instructions.\r\n","violationType":"Core","itemDescription":"Wiping cloth(s)","subItem":"","problemDescription":"Stored in","subProblem":"Less than 50-100 ppm chlorine","location":"SERVING LINE","subLocation":"Under the Table(s)","corrected":"Yes","daysToCorrect":"30.0","correctedDate":"2017-11-14T00:00:00","correctionDescription":"Store wiping cloths in 50-100 ppm chlorine."}]},{"inspectionid":"38407","inspectionDate":"2017-03-27T00:00:00","inspectionType":"Routine Inspection","inCompliance":"Yes","violationsByInspectionidList":[{"violationCode":"5-205.11","violationDescription":"(A) A HANDWASHING SINK shall be maintained so that it is accessible at all times for EMPLOYEE use and used for no other purpose. (Pf)\r\n(B)  An automatic handwashing facility shall be used in accordance with manufacturer's instructions. (Pf)\r\n","violationType":"Foundation","itemDescription":"Handwashing sink(s)","subItem":"","problemDescription":"Not used according to manufacturer's label instructions","subProblem":"","location":"HANDSINK(S)","subLocation":"","corrected":"Yes","daysToCorrect":"10.0","correctedDate":"2017-03-27T00:00:00","correctionDescription":"Use according to manufacturer label directions."}]},{"inspectionid":"36316","inspectionDate":"2016-08-30T00:00:00","inspectionType":"Routine Inspection","inCompliance":"Yes","violationsByInspectionidList":[]}]}]}},"pageContext":{"eid":"1724"}}