{"data":{"site":{"pathPrefix":"/restaurant-inspections"},"postgres":{"establishment":[{"establishmentid":"51622883","name":"El Molcajete","address":"4930 Livernois Ave","zipcode":"4821","owner":"Madel R. Solis Soto","licenseNumber":"243139","licenseType":"Fixed Establishment","establishmentType":"Food Service Establishment","establishmentStatus":"Open","riskCategory":null,"reviewFrequencyDays":"180","coords":"-83.12357,42.33640","geojson":{"id":"51622883","type":"Feature","geometry":{"type":"Point","coordinates":[-83.123565715,42.33639526]},"properties":{"name":"El Molcajete","owner":"Madel R. Solis Soto","address":"4930 Livernois Ave","zipcode":"4821","license_type":"Fixed Establishment","risk_category":null,"license_number":"243139","establishmentid":"51622883","establishment_type":"Food Service Establishment","establishment_status":"Open","review_frequency_days":"180","most_recent_license_date":null}},"nearbyList":[{"establishmentid":"5089","name":"La Zacatecana","address":"4930 Livernois","zipcode":"4821"},{"establishmentid":"51623073","name":"Gloria's Tacos Regios","address":"4930 Livernois Ave","zipcode":"48219"},{"establishmentid":"5090","name":"Subway","address":"4930 Livernois Ave","zipcode":"4821"},{"establishmentid":"51623301","name":"La Fogata Mexican Grill","address":"5015 Livernois Ave","zipcode":"4821"},{"establishmentid":"2654","name":"Voyager Academy","address":"4321 N Military","zipcode":"4821"},{"establishmentid":"655","name":"PVT Kozdron Memorial  Home Assoc.","address":"2501 N Campell St","zipcode":"48209"},{"establishmentid":"4966","name":"Rincon Tropical","address":"6538 Michigan Ave","zipcode":"4821"},{"establishmentid":"950","name":"Kwong Village Chinese American","address":"6600 Michigan Ave","zipcode":"4821"},{"establishmentid":"4443","name":"Voyager Consortium","address":"4366 Military","zipcode":"4821"},{"establishmentid":"2953","name":"The Sting","address":"6609 Michigan Ave","zipcode":"4821"}],"inspectionsByEstablishmentidList":[{"inspectionid":"45274","inspectionDate":"2019-02-21T00:00:00","inspectionType":"Routine Inspection","inCompliance":"Yes","violationsByInspectionidList":[{"violationCode":"3-501.14","violationDescription":"(A)  Cooked POTENTIALLY HAZARDOUS FOOD (TIME/TEMPERATURE CONTROL FOR SAFETY FOOD)  shall be cooled:\r\n         (1)  Within 2 hours, from 135ºF to 70ºF; and (P) \r\n         (2)  Within 4 hours, from 70ºF to 41ºF or less (P)\r\n(B)  POTENTIALLY HAZARDOUS FOOD (TIME/TEMPERATURE CONTROL FOR SAFETY FOOD)  prepared from ingredients at ambient temperature shall be cooled within 4 hours to 41F or less. (P)\r\n(C)  POTENTIALLY HAZARDOUS FOOD (TIME/TEMPERATURE CONTROL FOR SAFETY FOOD)  received in compliance with LAWS   allowing a temperature above 41ºF during shipment from the supplier shall be cooled within 4 hours to 41ºF or less. (P)\r\n","violationType":"Priority","itemDescription":"Cooked food(s) cooled","subItem":"","problemDescription":"From 135 degrees f to 70 degrees F for more than 2 hours","subProblem":"","location":"PREP AREA(S)","subLocation":"","corrected":"Yes","daysToCorrect":"10","correctedDate":"2019-02-21T00:00:00","correctionDescription":"Utilize shallow pans, ice baths, agitation, or quick chilling to cool food items."},{"violationCode":"3-501.17","violationDescription":"(A)  READY-TO-EAT, POTENTIALLY HAZARDOUS FOOD (TIME/TEMPERATURE CONTROL FOR SAFETY FOOD)  prepared and held refrigerated for more than 24 hours in a FOOD ESTABLISHMENT  shall be clearly marked at the time of preparation to indicate the date or day by which the FOOD shall be consumed. (Pf)\r\n(B)  A container of refrigerated, commercially prepared READY-TO-EAT POTENTIALLY HAZARDOUS FOOD (TIME/TEMPERATURE CONTROL FOR SAFETY FOOD)  shall be clearly marked, at the time the original container is opened in a FOOD ESTABLISHMENT, to indicate the date or day by which the FOOD shall be consumed. (Pf)\r\n\r\nA date marking system that does not exceed 7 days, including date of preparation, or opening is to be used. (Pf)\r\n","violationType":"Foundation","itemDescription":"In house prepared ready-to-eat potentially hazardous  food(s)","subItem":"","problemDescription":"Without date of consumption marking","subProblem":"","location":"PREP AREA(S)","subLocation":"","corrected":"Yes","daysToCorrect":"10","correctedDate":"2019-02-21T00:00:00","correctionDescription":"Datemark with a discard date of 7 days or less."}]}]}],"maxInspectionDate":[{"inspectionDate":"2020-10-30T00:00:00"}]}},"pageContext":{"eid":"51622883"}}