{"data":{"site":{"pathPrefix":"/restaurant-inspections"},"postgres":{"establishment":[{"establishmentid":"313","name":"R.A.R.D. El Capri Bar","address":"1673 E Grand Blvd","zipcode":"48211","owner":"Robert Lovely","licenseNumber":"034001","licenseType":"Fixed Establishment","establishmentType":"Food Service Establishment","establishmentStatus":"Open","riskCategory":null,"reviewFrequencyDays":"365.0","coords":"-83.03103,42.37671","geojson":{"id":"313","type":"Feature","geometry":{"type":"Point","coordinates":[-83.03102523,42.3767096170001]},"properties":{"name":"R.A.R.D. El Capri Bar","owner":"Robert Lovely","address":"1673 E Grand Blvd","zipcode":"48211","license_type":"Fixed Establishment","risk_category":null,"license_number":"034001","establishmentid":"313","establishment_type":"Food Service Establishment","establishment_status":"Open","review_frequency_days":"365.0","most_recent_license_date":"4/26/2018"}},"nearbyList":[{"establishmentid":"4254","name":"Legends Grill","address":"5805 Mt Elliott Ave","zipcode":"48211"},{"establishmentid":"3814","name":"Royal Barbecue and Grill","address":"5844 Mt Elliott Ave","zipcode":"48211"},{"establishmentid":"1302","name":"Krystal's Korner","address":"5700 Canton St","zipcode":"48211"},{"establishmentid":"51622486","name":"Lumen Detroit","address":"1903 Grand River ","zipcode":"48226"},{"establishmentid":"548","name":"Israel of God Church","address":"3533 E Forest Ave","zipcode":"48207"},{"establishmentid":"51622484","name":"Avalon Commissary","address":"4731 Bellevue St","zipcode":"48207"},{"establishmentid":"51622851","name":"Dilla's Delights LLC","address":"4731 Bellevue St","zipcode":"48207"},{"establishmentid":"648","name":"Ivanhoe Cafe ","address":"5249 Joseph Campau Ave","zipcode":"48211"},{"establishmentid":"1073","name":"Hong Moy","address":"7415 Harper Ave","zipcode":"48213"},{"establishmentid":"4294","name":"King Fish Market","address":"1167 E Grand Blvd","zipcode":"48211"}],"inspectionsByEstablishmentidList":[{"inspectionid":"41790","inspectionDate":"2018-03-20T00:00:00","inspectionType":"Routine Inspection","inCompliance":"Yes","violationsByInspectionidList":[{"violationCode":"5-205.15","violationDescription":"A PLUMBING SYSTEM shall be:\r\n(A) Repaired according to LAW; (P) and\r\n(B) Maintained in good repair.\r\n","violationType":"Core","itemDescription":"Plumbing system","subItem":"water line(s) cold","problemDescription":"Not maintained","subProblem":"","location":"BAR","subLocation":"At the Handsink","corrected":"Not required","daysToCorrect":"10.0","correctedDate":null,"correctionDescription":"Maintain in good repair"},{"violationCode":"4-501.11","violationDescription":"EQUIPMENT shall be maintained in a state of repair and condition that meets the requirements of the code.\r\n","violationType":"Core","itemDescription":"Equipment components","subItem":"doors","problemDescription":"In poor repair","subProblem":"","location":"REAR STORAGE ROOM","subLocation":"At the Ice machine","corrected":"Not required","daysToCorrect":"30.0","correctedDate":null,"correctionDescription":null}]},{"inspectionid":"38383","inspectionDate":"2017-03-30T00:00:00","inspectionType":"Routine Inspection","inCompliance":"Yes","violationsByInspectionidList":[{"violationCode":"6-501.11","violationDescription":"PHYSICAL FACILITIES shall be maintained in good repair.\r\n","violationType":"Core","itemDescription":"Physical facilities","subItem":"Floor(s)","problemDescription":"In poor repair","subProblem":"","location":"RESTROOM (WOMEN'S PUBLIC)","subLocation":"At the Floor","corrected":"Not required","daysToCorrect":"30.0","correctedDate":null,"correctionDescription":null},{"violationCode":"4-602.13","violationDescription":"NonFOOD-CONTACT SURFACES of EQUIPMENT shall be cleaned at a frequency necessary to preclude accumulation of soil residues.\r\n","violationType":"Core","itemDescription":"Nonfood contact surface(s)","subItem":"","problemDescription":"Soiled","subProblem":"","location":"BAR","subLocation":"Inside the Microwave Oven(s)","corrected":"Not required","daysToCorrect":"30.0","correctedDate":null,"correctionDescription":"Keep clean."},{"violationCode":"5-501.113","violationDescription":"Receptacles and waste handling units for REFUSE, recyclables, and returnables shall be kept tightly covered, unless they are in continuous use.\r\n","violationType":"Core","itemDescription":"Waste container(s)/container(s)","subItem":"outside dumpsters","problemDescription":"Not covered","subProblem":"","location":"OUTSIDE PREMISES","subLocation":"At the Dumpster(s)","corrected":"Not required","daysToCorrect":"30.0","correctedDate":null,"correctionDescription":"Keep covered."}]}]}],"maxInspectionDate":[{"inspectionDate":"2019-01-31T00:00:00"}]}},"pageContext":{"eid":"313"}}