{"data":{"postgres":{"establishment":[{"establishmentid":"641","name":"Korner Coney Island ","address":"14253 Greenfield Rd","zipcode":"48227","owner":"Korner Coney Island of MI, LLC","licenseNumber":"208220","licenseType":"Fixed Establishment","establishmentType":"Food Service Establishment","establishmentStatus":"Permanently Closed","riskCategory":null,"reviewFrequencyDays":"180.0","coords":"-83.19860,42.39162","geojson":{"id":"641","type":"Feature","geometry":{"type":"Point","coordinates":[-83.198604782,42.3916156390001]},"properties":{"name":"Korner Coney Island ","owner":"Korner Coney Island of MI, LLC","address":"14253 Greenfield Rd","zipcode":"48227","license_type":"Fixed Establishment","risk_category":null,"license_number":"208220","establishmentid":"641","establishment_type":"Food Service Establishment","establishment_status":"Permanently Closed","review_frequency_days":"180.0","most_recent_license_date":null}},"nearbyList":[{"establishmentid":"340","name":"Little Caesar's Pizza #59","address":"14301 Greenfield Rd","zipcode":"48227"},{"establishmentid":"358","name":"Great Wall","address":"14307 Greenfield Rd","zipcode":"48227"},{"establishmentid":"5385","name":"Yum Yumz Snack Shack LLC","address":"15400 Grand River","zipcode":"48227"},{"establishmentid":"4838","name":"Bread Basket Deli","address":"15603 Grand River Ave","zipcode":"48227"},{"establishmentid":"5051","name":"Seven Days Fish and Chicken Inc.","address":"15370 Grand River Ave","zipcode":"48227"},{"establishmentid":"5379","name":"Seven Days Fish & Grill Inc.","address":"15370 Grand River Ave","zipcode":"48227"},{"establishmentid":"1463","name":"Rikshaw House","address":"14135 Greenfield Rd","zipcode":"48227"},{"establishmentid":"5229","name":"Big Star Fish & Seafood Inc.","address":"15540 Grand River","zipcode":"48227"},{"establishmentid":"2393","name":"Cosmos Coney Island","address":"14551 Greenfield Rd","zipcode":"48227"},{"establishmentid":"4801","name":"Hot Toppings","address":"15539 Schoolcraft","zipcode":"48227"},{"establishmentid":"51622464","name":"Burger Grille LLC","address":"15539 Schoolcraft","zipcode":"48227"},{"establishmentid":"435","name":"Chita's Nefertiti's Bar","address":"15942 Grand River Ave","zipcode":"48227"},{"establishmentid":"5228","name":"All Star Fish & Seafood Inc.","address":"13585 Greenfield Rd","zipcode":"48227"},{"establishmentid":"2078","name":"Universal Coney Island","address":"15951 Grand River Ave","zipcode":"48227"},{"establishmentid":"870","name":"Burns Elementary- Middle School","address":"14350 Terry St","zipcode":"48227"},{"establishmentid":"5215","name":"Showtime Ice Cream","address":"12874 Greenfield Rd","zipcode":"48227"},{"establishmentid":"1582","name":"Communication and Media Arts School","address":"14771 Mansfield","zipcode":"48227"},{"establishmentid":"51622734","name":"Club Caribbean Bar & Grill","address":"15331 Fenkell Ave","zipcode":"48227"},{"establishmentid":"4610","name":"Captain Jay's Fish & Chicken #110","address":"15321 Greenfield Rd","zipcode":"48227"},{"establishmentid":"5165","name":"Papa's Pizza","address":"16501 Grand River","zipcode":"48227"}],"inspectionsByEstablishmentidList":[{"inspectionid":"37046","inspectionDate":"2016-11-03T00:00:00","inspectionType":"Routine Inspection","inCompliance":"Yes","violationsByInspectionidList":[{"violationCode":"3-501.16","violationDescription":"Except during preparation, cooking, or cooling, or when time is used as the public health control POTENTIALLY HAZARDOUS FOOD (TIME/TEMPERATURE CONTROL FOR SAFETY FOOD) shall be maintained:\r\n(A)  135ºF or above, except that roasts properly cooked and cooled may be held              at a temperature of 130ºF; or (P)\r\n(B)   At 41ºF or less (P)\r\n","violationType":"Priority","itemDescription":"Cold food item(s)","subItem":"","problemDescription":"Stored above 41 degrees F","subProblem":"","location":"COOLER","subLocation":"","corrected":"Yes","daysToCorrect":"10.0","correctedDate":"2016-11-03T00:00:00","correctionDescription":"Store below 41 degrees F."},{"violationCode":"4-601.11","violationDescription":"(A) EQUIPMENT FOOD-CONTACT SURFACES and UTENSILS shall be clean to sight and touch. (Pf)\r\n(B) The FOOD-CONTACT SURFACES of cooking EQUIPMENT and pans shall be kept free of encrusted grease deposits and other soil accumulations. \r\n(C) NonFOOD-CONTACT SURFACES of EQUIPMENT shall be kept free of an accumulation of dust, dirt, FOOD residue, and other debris. \r\n","violationType":"Core","itemDescription":"Non-food contact surface(s)","subItem":"outsides of equipment cooler","problemDescription":"Not clean","subProblem":"","location":"COOLER","subLocation":"","corrected":"Not required","daysToCorrect":"10.0","correctedDate":null,"correctionDescription":"Clean"}]}]}]}},"pageContext":{"eid":"641"}}