{"componentChunkName":"component---src-templates-establishment-page-js","path":"/establishment/51623335","result":{"data":{"site":{"pathPrefix":"/restaurant-inspections"},"postgres":{"establishment":[{"establishmentid":"51623335","name":"Good Cookies","address":"19007 McNichols W.","zipcode":"48219","owner":"Jeffrey C. Gisstennar","licenseNumber":"266418","licenseType":"Fixed Establishment","establishmentType":"Food Service Establishment","establishmentStatus":"Open","riskCategory":"Low","reviewFrequencyDays":"335","coords":"-83.22819,42.41512","geojson":{"id":"51623335","type":"Feature","geometry":{"type":"Point","coordinates":[-83.228189971,42.415119335]},"properties":{"name":"Good Cookies","owner":"Jeffrey C. Gisstennar","address":"19007 McNichols W.","zipcode":"48219","license_type":"Fixed Establishment","risk_category":"Low","license_number":"266418","establishmentid":"51623335","establishment_type":"Food Service Establishment","establishment_status":"Open","review_frequency_days":"335","most_recent_license_date":null}},"nearbyList":[{"establishmentid":"4455","name":"Just a Bit Eclectic","address":"19015 McNichols Rd. W.","zipcode":"48219"},{"establishmentid":"1491","name":"Hungry Howie's #52","address":"18950 McNichols Rd. W.","zipcode":"48219"},{"establishmentid":"51622601","name":"Marie's Good Eats","address":"18950 McNichols W.","zipcode":"48228"},{"establishmentid":"2692","name":"L. George's Coney Island #2","address":"19109 McNichols Rd. W.","zipcode":"48219"},{"establishmentid":"51623793","name":"Black Bart's Barbecue Smokehouse","address":"19104 McNichols","zipcode":"48210"},{"establishmentid":"1173","name":"Tony's Shrimp House","address":"19210 McNichols rd. W.","zipcode":"48219"},{"establishmentid":"51623901","name":"Wing Star Trailer","address":"18636 McNichols W.","zipcode":"48219"},{"establishmentid":"51623666","name":"Lil Bros. Pizza","address":"18633 McNichols W.","zipcode":"48219"},{"establishmentid":"4929","name":"Urban Elixirs Juice Bar","address":"19335 McNichols Rd. W.","zipcode":"48219"},{"establishmentid":"4764","name":"Center for Literacy and Creativity","address":"18401 McNichols W.","zipcode":"48219"}],"inspectionsByEstablishmentidList":[{"inspectionid":"61633","inspectionDate":"2023-02-09T00:00:00","inspectionType":"Routine Inspection","inCompliance":"No","violationsByInspectionidList":[]},{"inspectionid":"56144","inspectionDate":"2021-09-29T00:00:00","inspectionType":"Routine Inspection","inCompliance":"Yes","violationsByInspectionidList":[]},{"inspectionid":"54898","inspectionDate":"2021-05-17T00:00:00","inspectionType":"Plan Review/Pre-Open","inCompliance":"Yes","violationsByInspectionidList":[{"violationCode":"6-202.14","violationDescription":"Except as otherwise allowed, a toilet room located on the PREMISES shall be completely enclosed and provided with a tight-fitting and self-closing door. \n","violationType":"Core","itemDescription":"Toilet room(s)","subItem":"","problemDescription":"Not provided with","subProblem":"Self-closing door","location":"RESTROOM (UNISEX)","subLocation":"At the Door","corrected":"False","daysToCorrect":"30","correctedDate":null,"correctionDescription":null},{"violationCode":"6-201.11","violationDescription":"Except otherwise approved, and except for antislip floor coverings or applications may be used for safety reasons, floors, floor coverings, walls, wall coverings, and ceilings shall be designed, constructed, and installed so they are SMOOTH and EASILY CLEANABLE.\n","violationType":"Core","itemDescription":"wall(s)","subItem":"","problemDescription":"Not constructed, designed, installed to be","subProblem":"Easily cleanable","location":"BACK DOOR AREA","subLocation":"Around the Door - back door","corrected":"False","daysToCorrect":"30","correctedDate":null,"correctionDescription":null},{"violationCode":"4-301.13","violationDescription":"Drainboards, UTENSIL racks, or tables large enough to accommodate all soiled and cleaned items that may accumulate during hours of operation shall be provided for necessary UTENSIL holding before cleaning and after SANITIZING.\n","violationType":"Core","itemDescription":"Drainboard(s)/table(s)/utensil rack(s)","subItem":"","problemDescription":"Not provided","subProblem":"","location":"3 COMPARTMENT SINK AREA","subLocation":"At the Three compartment sink","corrected":"False","daysToCorrect":"30","correctedDate":null,"correctionDescription":null},{"violationCode":"5-501.113","violationDescription":"Receptacles and waste handling units for REFUSE, recyclables, and returnables shall be kept tightly covered, unless they are in continuous use.\n","violationType":"Core","itemDescription":"Waste container(s)/container(s)","subItem":"outside dumpsters","problemDescription":"Not covered","subProblem":"","location":"OUTSIDE PREMISES","subLocation":"At the TRASH CAN","corrected":"False","daysToCorrect":"30","correctedDate":null,"correctionDescription":null}]}]}],"maxInspectionDate":[{"inspectionDate":"2023-04-25T00:00:00"}]}},"pageContext":{"eid":"51623335"}},"staticQueryHashes":["3649515864","63159454"]}