{"data":{"site":{"pathPrefix":"/restaurant-inspections"},"postgres":{"establishment":[{"establishmentid":"4953","name":"The Red Hook, Detroit, LLC","address":"8025 Agnes St","zipcode":"48214","owner":"Sandra Heaselgrave","licenseNumber":"081151","licenseType":"Fixed Establishment","establishmentType":"Food Service Establishment","establishmentStatus":"Plan Review","riskCategory":null,"reviewFrequencyDays":"365.0","coords":"-82.99713,42.35513","geojson":{"id":"4953","type":"Feature","geometry":{"type":"Point","coordinates":[-82.997132354,42.355128661]},"properties":{"name":"The Red Hook, Detroit, LLC","owner":"Sandra Heaselgrave","address":"8025 Agnes St","zipcode":"48214","license_type":"Fixed Establishment","risk_category":null,"license_number":"081151","establishmentid":"4953","establishment_type":"Food Service Establishment","establishment_status":"Plan Review","review_frequency_days":"365.0","most_recent_license_date":"4/27/2019"}},"nearbyList":[{"establishmentid":"4765","name":"Detroit Vegan Soul, LLC","address":"8029 Agnes St","zipcode":"48214"},{"establishmentid":"4817","name":"Craft Work","address":"8047 Agnes St","zipcode":"48214"},{"establishmentid":"51622473","name":"Yum Village Food Truck Works Detroit","address":"1415 Parker St #867 ","zipcode":"48214"},{"establishmentid":"1336","name":"Indian Village Tennis Club","address":"1502 Parker Ave","zipcode":"48214"},{"establishmentid":"51622821","name":"Destination 1905","address":"8130 Kercheval Ave","zipcode":"48214"},{"establishmentid":"1870","name":"Belle Isle Pizza (fka) Garalino's Pizza","address":"7869 E Jefferson Ave","zipcode":"48214"},{"establishmentid":"4233","name":"St. Charles","address":"1491 Baldwin","zipcode":"48214"},{"establishmentid":"2593","name":"Moses Field School","address":"1100 Sheridan","zipcode":"48214"},{"establishmentid":"833","name":"Marcus Garvey","address":"2301 Van Dyke Ave","zipcode":"48207"},{"establishmentid":"5284","name":"Conventional Missionary Baptist Church","address":"2255 Seminole","zipcode":"48214"}],"inspectionsByEstablishmentidList":[{"inspectionid":"44446","inspectionDate":"2018-12-11T00:00:00","inspectionType":"Routine Inspection","inCompliance":"Yes","violationsByInspectionidList":[{"violationCode":"4-302.14","violationDescription":"A test kit or other device that accurately measures the concentration in mg/L of SANITIZING solutions shall be provided. (Pf)\r\n","violationType":"Foundation","itemDescription":"Sanitizer test kit","subItem":"","problemDescription":"Not provided","subProblem":"","location":"COFFEE HOUSE","subLocation":"Missing Test strips","corrected":"Yes","daysToCorrect":"10.0","correctedDate":"2018-12-14T00:00:00","correctionDescription":"Provide as required"}]},{"inspectionid":"41194","inspectionDate":"2018-01-09T00:00:00","inspectionType":"Routine Inspection","inCompliance":"Yes","violationsByInspectionidList":[{"violationCode":"6-501.12","violationDescription":"(A) PHYSICAL FACILITIES shall be cleaned as often as necessary to keep them clean.\r\n(B) Except spill cleanup, cleaning shall be done during periods when the least amount of FOOD is exposed such as after closing. ","violationType":"Core","itemDescription":"Physical facilities/structures","subItem":"floors","problemDescription":"Soiled","subProblem":"","location":"BASEMENT STOREROOM","subLocation":"On the Floor","corrected":"Not required","daysToCorrect":"30.0","correctedDate":null,"correctionDescription":"Keep clean."}]},{"inspectionid":"37753","inspectionDate":"2017-01-25T00:00:00","inspectionType":"Routine Inspection","inCompliance":"Yes","violationsByInspectionidList":[]}]}],"maxInspectionDate":[{"inspectionDate":"2019-05-31T00:00:00"}]}},"pageContext":{"eid":"4953"}}