{"data":{"site":{"pathPrefix":"/restaurant-inspections"},"postgres":{"establishment":[{"establishmentid":"1919","name":"L & L Adult Day Care","address":"1485 E Outer Dr","zipcode":"48234","owner":"Detroit Area Agency on Aging","licenseNumber":"037819","licenseType":"Fixed Establishment","establishmentType":"Food Service Establishment","establishmentStatus":"Open","riskCategory":null,"reviewFrequencyDays":"365.0","coords":"-83.08092,42.44043","geojson":{"id":"1919","type":"Feature","geometry":{"type":"Point","coordinates":[-83.080923447,42.440429259]},"properties":{"name":"L & L Adult Day Care","owner":"Detroit Area Agency on Aging","address":"1485 E Outer Dr","zipcode":"48234","license_type":"Fixed Establishment","risk_category":null,"license_number":"037819","establishmentid":"1919","establishment_type":"Food Service Establishment","establishment_status":"Open","review_frequency_days":"365.0","most_recent_license_date":"4/28/2017"}},"nearbyList":[{"establishmentid":"2377","name":"Pete's Grill","address":"1400 E Outer Dr","zipcode":"48234"},{"establishmentid":"1502","name":"Fish King Restaurant","address":"20351 Conant Ave","zipcode":"48234"},{"establishmentid":"3220","name":"Hash Brown Cafe","address":"19458 Conant Ave","zipcode":"48234"},{"establishmentid":"1017","name":"McDonald's Detroit","address":"20405 Conant Ave","zipcode":"48234"},{"establishmentid":"384","name":"Subway #66","address":"2240 E Eight Mile Rd","zipcode":"48234"},{"establishmentid":"1212","name":"Little Caesar's Pizza #15","address":"2024 E Eight Mile Rd","zipcode":"48234"},{"establishmentid":"4475","name":"Applebee's #7833","address":"2111 W Eight Mile Rd","zipcode":"48203"},{"establishmentid":"250","name":"Erotic City","address":"19326 Conant Ave","zipcode":"48234"},{"establishmentid":"953","name":"Golden Greek Lounge","address":"1800 E Eight Mile Rd","zipcode":"48203"},{"establishmentid":"686","name":"West Indian Amerian Assn","address":"2015 E Seven Mile Rd","zipcode":"48234"}],"inspectionsByEstablishmentidList":[{"inspectionid":"44480","inspectionDate":"2018-12-11T00:00:00","inspectionType":"Routine Inspection","inCompliance":"Yes","violationsByInspectionidList":[{"violationCode":"4-204.112","violationDescription":"(A)  In a mechanically refrigerated or hot FOOD storage unit, the sensor of a TEMPERATURE MEASURING DEVICE shall be located to measure the air temperature in the warmest part of a mechanically refrigerated unit and in the coolest part of a hot FOOD storage unit.\r\n(B)  Cold or hot holding EQUIPMENT used for POTENTIALLY HAZARDOUS FOOD shall be designed to include and shall be equipped with at least one integral or permanently affixed TEMPERATURE MEASURING DEVICE that is located to allow easy viewing of the device's temperature display (EXCEPT, heat lamps, cold plates, steam tables, or other equipment where it is not practical).\r\n(C)  TEMPERATURE MEASURING DEVICES shall be designed to be easily readable.\r\n(D)  FOOD TEMPERATURE MEASURING DEVICES and water TEMPERATURE MEASURING DEVICES on WAREWASHING machines shall have a numerical scale, printed record, or digital readout in increments no greater than 1C or 2F in the intended range of use. (Pf)\r\n\r\n","violationType":"Core","itemDescription":null,"subItem":"","problemDescription":null,"subProblem":"","location":null,"subLocation":"","corrected":"Yes","daysToCorrect":"10.0","correctedDate":"2018-12-12T00:00:00","correctionDescription":null}]},{"inspectionid":"40710","inspectionDate":"2017-11-08T00:00:00","inspectionType":"Routine Inspection","inCompliance":"No","violationsByInspectionidList":[{"violationCode":"7-204.11","violationDescription":"Chemical SANITIZERS and other chemical antimicrobials applied to FOOD-CONTACT SURFACES shall meet the requirements specified in this code. (P)\r\n","violationType":"Priority","itemDescription":"Sanitizer(s)","subItem":"","problemDescription":"Not approved for use","subProblem":"","location":"KITCHEN","subLocation":"At the Three compartment sink","corrected":"No","daysToCorrect":"10.0","correctedDate":null,"correctionDescription":"Discontinue use.  Provide approved source."}]},{"inspectionid":"37144","inspectionDate":"2016-11-11T00:00:00","inspectionType":"Routine Inspection","inCompliance":"Yes","violationsByInspectionidList":[]}]}],"maxInspectionDate":[{"inspectionDate":"2019-04-30T00:00:00"}]}},"pageContext":{"eid":"1919"}}