{"data":{"postgres":{"establishment":[{"establishmentid":"5393","name":"Five Hundred Degrees","address":"15090 Schaefer","zipcode":"48227","owner":"Beverly Koonce","licenseNumber":"ps110416","licenseType":"Fixed Establishment","establishmentType":"Food Service Establishment","establishmentStatus":"Permanently Closed","riskCategory":null,"reviewFrequencyDays":"180.0","coords":"-83.17878,42.40123","geojson":{"id":"5393","type":"Feature","geometry":{"type":"Point","coordinates":[-83.1787753949999,42.401232866]},"properties":{"name":"Five Hundred Degrees","owner":"Beverly Koonce","address":"15090 Schaefer","zipcode":"48227","license_type":"Fixed Establishment","risk_category":null,"license_number":"ps110416","establishmentid":"5393","establishment_type":"Food Service Establishment","establishment_status":"Permanently Closed","review_frequency_days":"180.0","most_recent_license_date":null}},"nearbyList":[{"establishmentid":"1214","name":"Church's Fried Chicken #964","address":"13531 Fenkell Ave","zipcode":"48227"},{"establishmentid":"782","name":"Toya's Bar & Grill","address":"14906 Schaefer Hwy","zipcode":"48227"},{"establishmentid":"5175","name":"Gunny Ray's Shrimp & Chicken","address":"15391 Schaefer Hwy","zipcode":"48227"},{"establishmentid":"1866","name":"Lee's Texas Style Bar-B-Que","address":"14001 Fenkell","zipcode":"48227"},{"establishmentid":"1873","name":"Suite 100","address":"15789 Schaefer Hwy","zipcode":"48227"},{"establishmentid":"766","name":"Akbar's Coffee Shop","address":"12943 Fenkell Ave","zipcode":"48227"},{"establishmentid":"4907","name":"Javon's Kitchen","address":"14445 Schaefer Hwy","zipcode":"48227"},{"establishmentid":"4164","name":"Disabled Am. Vets K-R Metro Chp. No.1","address":"13221 Puritan Ave","zipcode":"48227"},{"establishmentid":"1366","name":"Little Caesar's Pizza #64","address":"12712 Fenkell Ave","zipcode":"48227"},{"establishmentid":"5400","name":"Hubbell Fish & Chicken","address":"14535 Fenkell","zipcode":"48227"},{"establishmentid":"5391","name":"Desmond's Elegant Affairs","address":"12924 Puritan Ave","zipcode":"48227"},{"establishmentid":"1406","name":"Christland Missionary Baptist Church","address":"12901 Puritan Ave","zipcode":"48227"},{"establishmentid":"852","name":"John R King Academic & Performing Arts ","address":"15850 Strathmoor","zipcode":"48227"},{"establishmentid":"2405","name":"Mark's A. Eagles #4 Coney Island","address":"12701 Puritan Ave","zipcode":"48227"},{"establishmentid":"1319","name":"Coleman A. Young Elementary","address":"15771 Hubbell St","zipcode":"48227"},{"establishmentid":"4914","name":"Loyola High School Detroit","address":"15325 Pinehurst","zipcode":"48238"},{"establishmentid":"2280","name":"Mary's Grille","address":"13900 Schaefer Hwy","zipcode":"48227"},{"establishmentid":"3582","name":"Lincoln-King Academy","address":"13436 Grove St","zipcode":"48235"},{"establishmentid":"1913","name":"Happy's Pizza #4","address":"16850 Schaefer Hwy","zipcode":"48235"},{"establishmentid":"870","name":"Burns Elementary- Middle School","address":"14350 Terry St","zipcode":"48227"}],"inspectionsByEstablishmentidList":[{"inspectionid":"40019","inspectionDate":"2016-11-18T00:00:00","inspectionType":"Routine Inspection","inCompliance":"No","violationsByInspectionidList":[{"violationCode":"5-202.13","violationDescription":"An air gap between the water supply inlet and the flood level rim of the PLUMBING FIXTURE, EQUIPMENT, or nonFOOD EQUIPMENT shall be at least twice the diameter of the water supply inlet and may not be less than 1 inch. (P)\r\n","violationType":"Priority","itemDescription":"Air gap","subItem":"","problemDescription":"Less than","subProblem":"1 inch","location":"PREP SINK","subLocation":"","corrected":"No","daysToCorrect":"10.0","correctedDate":null,"correctionDescription":"Provide"},{"violationCode":"6-301.11","violationDescription":"Each HANDWASHING SINK or group of 2 adjacent HANDWASHING SINKS shall be provided with a supply of hand cleaning liquid, powder, or bar soap. (Pf)\r\n","violationType":"Foundation","itemDescription":"Soap","subItem":"","problemDescription":"Not provided","subProblem":"","location":"HANDSINK(S)","subLocation":"","corrected":"Yes","daysToCorrect":"10.0","correctedDate":"2016-11-18T00:00:00","correctionDescription":"Provide."},{"violationCode":"6-301.12","violationDescription":"Each HANDWASHING SINK or group of adjacent HANDWASHING SINKS shall be provided with:\r\n(A) Individual, disposable towels; (Pf)\r\n(B) A continuous towel system that supplies the user with a clean towel;(Pf) or \r\n(C) A heated-air hand drying device.(Pf)\r\n(D) A hand drying device that employs an air-knife system that delivers high velocity pressurized air at ambient temperatures.(Pf)\r\n","violationType":"Foundation","itemDescription":"Sanitary hand drying provisions","subItem":"","problemDescription":"Not provided","subProblem":"","location":"HANDSINK(S)","subLocation":"","corrected":"Yes","daysToCorrect":"10.0","correctedDate":"2016-11-18T00:00:00","correctionDescription":"Provide."},{"violationCode":"6-201.13","violationDescription":"(A) In FOOD ESTABLISHMENTS in which cleaning methods other than water flushing are used for cleaning floors, the floor and wall junctures shall be coved and closed to no larger than one thirty-second inch.\r\n(B) The floors in FOOD ESTABLISHMENTS in which water flush cleaning methods are used shall be provided with drains and be graded to drain, and the floor and wall junctures shall be coved and SEALED.","violationType":"Core","itemDescription":"Floor(s)","subItem":"","problemDescription":"Not coved","subProblem":"","location":"WALK-IN COOLER & FREEZER","subLocation":"","corrected":"Not required","daysToCorrect":"30.0","correctedDate":null,"correctionDescription":"Provide / install coved molding."}]}]}]}},"pageContext":{"eid":"5393"}}