{"data":{"site":{"pathPrefix":"/restaurant-inspections"},"postgres":{"establishment":[{"establishmentid":"5308","name":"Mangonadas Del Barrio #1, LLC","address":"4029 W Vernor Hwy","zipcode":"48209","owner":"Edgar Ramirez","licenseNumber":"203376","licenseType":"Fixed Establishment","establishmentType":"Food Service Establishment","establishmentStatus":null,"riskCategory":null,"reviewFrequencyDays":"365.0","coords":"-83.09225,42.32163","geojson":{"id":"5308","type":"Feature","geometry":{"type":"Point","coordinates":[-83.092248233,42.3216252130001]},"properties":{"name":"Mangonadas Del Barrio #1, LLC","owner":"Edgar Ramirez","address":"4029 W Vernor Hwy","zipcode":"48209","license_type":"Fixed Establishment","risk_category":null,"license_number":"203376","establishmentid":"5308","establishment_type":"Food Service Establishment","establishment_status":null,"review_frequency_days":"365.0","most_recent_license_date":null}},"nearbyList":[{"establishmentid":"5209","name":"El Club","address":"4114 W Vernor","zipcode":"48209"},{"establishmentid":"822","name":"Western Senior High School","address":"1500 Scotten Ave","zipcode":"48209"},{"establishmentid":"5409","name":"PizzaPlex","address":"4454-58 Vernor","zipcode":"48214"},{"establishmentid":"5387","name":"Flowers of Vietnam","address":"4430 W Vernor Hwy","zipcode":"4821"},{"establishmentid":"2128","name":"Maybury School","address":"4410 Porter St","zipcode":"48209"},{"establishmentid":"5402","name":"Antojitos Los Tres Hermanos","address":"4627 W Vernor St","zipcode":"48209"},{"establishmentid":"979","name":"Clippert Academy","address":"1981 McKinstry St","zipcode":"48209"},{"establishmentid":"4176","name":"Amelia Earhart Elementary/Middle School","address":"1000 Scotten St","zipcode":"48209"},{"establishmentid":"2402","name":"China House","address":"1650 Lansing St","zipcode":"48209"},{"establishmentid":"51622884","name":"China House","address":"1650 Lansing St","zipcode":"48209"}],"inspectionsByEstablishmentidList":[{"inspectionid":"42089","inspectionDate":"2018-04-29T00:00:00","inspectionType":"Routine Inspection","inCompliance":"Yes","violationsByInspectionidList":[{"violationCode":"4-501.11","violationDescription":"EQUIPMENT shall be maintained in a state of repair and condition that meets the requirements of the code.\r\n","violationType":"Core","itemDescription":"Equipment","subItem":"","problemDescription":"Broken","subProblem":"","location":"COOLER","subLocation":"","corrected":"Yes","daysToCorrect":"30.0","correctedDate":"2018-04-29T00:00:00","correctionDescription":"Repair/replace."},{"violationCode":"3-304.14","violationDescription":"(A)  Cloths that are in use for wiping FOOD spills on TABLEWARE shall be maintained dry and used for no other purpose. \r\n(B)  Cloths in-use for wiping counters and equipment shall be held between uses in   a chemical sanitizer solution, and laundered daily.\r\n(C)  Cloths in-use for wiping surfaces in contact with raw animal FOODS shall be      kept separate from cloths used for other purposes.\r\n(D)  Dry wiping cloths and the chemical sanitizing solutions shall be free of FOOD    debris or visible soil.\r\n(E)  Containers of chemical sanitizing solutions shall be stored off the floor and         used in a manner that prevents contamination of FOOD, EQUIPMENT, UTENSILS, LINENS, SINGLE-SERVICE, or SINGLE-USE ARTICLES.\r\n(E)  SINGLE-USE disposable sanitizer wipes shall be used in accordance lable               instructions.\r\n","violationType":"Core","itemDescription":"Wiping cloth(s)","subItem":"","problemDescription":"Stored on","subProblem":"Counter","location":"KITCHEN","subLocation":"","corrected":"Yes","daysToCorrect":"30.0","correctedDate":"2018-04-29T00:00:00","correctionDescription":"Store wiping cloths completely submersed in sanitizer."}]},{"inspectionid":"39325","inspectionDate":"2017-07-18T00:00:00","inspectionType":"Routine Inspection","inCompliance":"No","violationsByInspectionidList":[{"violationCode":"3-201.11","violationDescription":"FOOD shall be obtained from sources that comply with LAW (P); \r\nand properly labeled as required (Pf), \r\nFOOD prepared in a private home may not be used or offered for human consumption in a FOOD ESTABLISHMENT. (P)","violationType":"Priority","itemDescription":null,"subItem":"","problemDescription":null,"subProblem":"","location":"KITCHEN","subLocation":"","corrected":"No","daysToCorrect":"10.0","correctedDate":null,"correctionDescription":null},{"violationCode":"5-402.11","violationDescription":"Except as otherwise allowed, a direct connection may not exist between the SEWAGE system and a drain originating from EQUIPMENT in which FOOD, portable EQUIPMENT, or UTENSILS are placed. (P)\r\n","violationType":"Priority","itemDescription":null,"subItem":"","problemDescription":null,"subProblem":"","location":"KITCHEN","subLocation":"","corrected":"No","daysToCorrect":"10.0","correctedDate":null,"correctionDescription":null}]}]}],"maxInspectionDate":[{"inspectionDate":"2019-01-31T00:00:00"}]}},"pageContext":{"eid":"5308"}}