{"data":{"site":{"pathPrefix":"/restaurant-inspections"},"postgres":{"establishment":[{"establishmentid":"893","name":"Cody Senior High School","address":"18445 Cathedral St","zipcode":"48228","owner":"Detroit Board of Education","licenseNumber":"078727","licenseType":"Fixed Establishment","establishmentType":"Public School","establishmentStatus":"Open","riskCategory":null,"reviewFrequencyDays":"210","coords":"-83.22146,42.36026","geojson":{"id":"893","type":"Feature","geometry":{"type":"Point","coordinates":[-83.221461118,42.360263045]},"properties":{"name":"Cody Senior High School","owner":"Detroit Board of Education","address":"18445 Cathedral St","zipcode":"48228","license_type":"Fixed Establishment","risk_category":null,"license_number":"078727","establishmentid":"893","establishment_type":"Public School","establishment_status":"Open","review_frequency_days":"210","most_recent_license_date":"4/15/2019"}},"nearbyList":[{"establishmentid":"2579","name":"Subway #29018","address":"18334 Joy Rd","zipcode":"48228"},{"establishmentid":"51623032","name":"Joy Southfield Community Develop. Corp","address":"18900 Joy Rd","zipcode":"48228"},{"establishmentid":"1729","name":"McDonald's #17266","address":"18137 Joy Rd","zipcode":"48228"},{"establishmentid":"2797","name":"Little Caesar's Pizza ","address":"18310 W Chicago Rd","zipcode":"48228"},{"establishmentid":"4981","name":"Market Fresh Deli","address":"18200 W Chicago Rd","zipcode":"48228"},{"establishmentid":"1130","name":"Mike's Coney Island","address":"19241 Joy Rd","zipcode":"48228"},{"establishmentid":"4816","name":"WAY Academy West Campus","address":"19321 Chicago W","zipcode":"48228"},{"establishmentid":"51622735","name":"The Custard Hut","address":"18435 Plymouth Rd","zipcode":"48228"},{"establishmentid":"4416","name":"Detroit Innovation Academy","address":"18211 Plymouth Road","zipcode":"48228"},{"establishmentid":"455","name":"Starters Lounge","address":"18426 Plymouth Rd","zipcode":"48228"}],"inspectionsByEstablishmentidList":[{"inspectionid":"47996","inspectionDate":"2019-06-04T00:00:00","inspectionType":"Routine Inspection","inCompliance":"Yes","violationsByInspectionidList":[{"violationCode":"4-302.14","violationDescription":"A test kit or other device that accurately measures the concentration in mg/L of SANITIZING solutions shall be provided. (Pf)\r\n","violationType":"Foundation","itemDescription":"Sanitizer test kit","subItem":"","problemDescription":"Damaged","subProblem":"","location":"DISHWASHING AREA","subLocation":"","corrected":"Yes","daysToCorrect":"10","correctedDate":"2019-06-04T00:00:00","correctionDescription":"Replace."}]},{"inspectionid":"40308","inspectionDate":"2017-10-02T00:00:00","inspectionType":"Routine Inspection","inCompliance":"Yes","violationsByInspectionidList":[{"violationCode":"4-702.11","violationDescription":"UTENSILS and FOOD-CONTACT SURFACES of EQUIPMENT shall be SANITIZED before use after cleaning. (P)\r\n","violationType":"Priority","itemDescription":"Clean utensil(s) and food-contact surface(s)","subItem":"","problemDescription":"Not sanitized","subProblem":"","location":"SERVING LINE","subLocation":"","corrected":"Yes","daysToCorrect":"10","correctedDate":"2017-10-02T00:00:00","correctionDescription":"Equipment/utensils must be sanitized after cleaning."},{"violationCode":"4-302.14","violationDescription":"A test kit or other device that accurately measures the concentration in mg/L of SANITIZING solutions shall be provided. (Pf)\r\n","violationType":"Foundation","itemDescription":"Sanitizer test kit","subItem":"","problemDescription":"Damaged","subProblem":"","location":"DISHWASHING AREA","subLocation":"","corrected":"Yes","daysToCorrect":"10","correctedDate":"2017-10-02T00:00:00","correctionDescription":"Replace."},{"violationCode":"4-901.11","violationDescription":"After cleaning and SANITIZING, EQUIPMENT and UTENSILS shall be air-dried or used after adequate draining.\r\n","violationType":"Core","itemDescription":"Clean equipment and utensil(s)","subItem":"","problemDescription":"Stored/stacked wet","subProblem":"","location":"STORAGE ROOM (POTS/PANS)","subLocation":"","corrected":"Yes","daysToCorrect":"30","correctedDate":"2017-10-02T00:00:00","correctionDescription":"Completely air dry all items prior to storage/use."}]}]}],"maxInspectionDate":[{"inspectionDate":"2020-05-29T00:00:00"}]}},"pageContext":{"eid":"893"}}