{"data":{"site":{"pathPrefix":null},"postgres":{"establishment":[{"establishmentid":"51622558","name":"Pablo Tacos","address":"17036 Cicotte","zipcode":"48101","owner":"Pablo Lopez","licenseNumber":"221055","licenseType":"Mobile Food Establishment","establishmentType":"LHD - Mobile Food Establishmen","establishmentStatus":"Open","riskCategory":"Medium","reviewFrequencyDays":"395.0","coords":"-83.21277,42.27465","geojson":{"id":"51622558","type":"Feature","geometry":{"type":"Point","coordinates":[-83.212770725,42.274645508]},"properties":{"name":"Pablo Tacos","owner":"Pablo Lopez","address":"17036 Cicotte","zipcode":"48101","license_type":"Mobile Food Establishment","risk_category":"Medium","license_number":"221055","establishmentid":"51622558","establishment_type":"LHD - Mobile Food Establishmen","establishment_status":"Open","review_frequency_days":"395.0","most_recent_license_date":"5/31/2018"}},"nearbyList":[{"establishmentid":"51622557","name":"Takito Loko","address":"17966 Harman St","zipcode":"48122"},{"establishmentid":"4306","name":"Astro Coffee","address":"2124 Michigan Ave","zipcode":"48216"},{"establishmentid":"4904","name":"Gold Cash Gold","address":"2100 Michigan Ave","zipcode":"48216"},{"establishmentid":"592","name":"Gaelic League Irish American Club","address":"2066-68 Michigan Ave","zipcode":"48216"},{"establishmentid":"4876","name":"El Parian #3","address":"1064 London","zipcode":"48146"},{"establishmentid":"4246","name":"El Parian #1","address":"1064 London","zipcode":"48149"},{"establishmentid":"4660","name":"El Parian #2","address":"1064 London","zipcode":"48149"},{"establishmentid":"539","name":"Motor City Wine Bar","address":"1949 Michigan Ave","zipcode":"48216"},{"establishmentid":"51622746","name":"Tacos El Rodeo","address":"1949 Michigan Ave","zipcode":"48216"},{"establishmentid":"2154","name":"White Castle #19","address":"1930-50  Michigan Ave","zipcode":"48216"}],"inspectionsByEstablishmentidList":[{"inspectionid":"44822","inspectionDate":"2018-07-14T00:00:00","inspectionType":"Routine Inspection","inCompliance":"Yes","violationsByInspectionidList":[{"violationCode":"6-202.11","violationDescription":"Except as otherwise approved, light bulbs shall be shielded, coated, or otherwise shatter-resistant in areas where there is exposed FOOD; clean EQUIPMENT, UTENSILS, and LINENS; or unwrapped SINGLE-SERVICE and SINGLE-USE ARTICLES.\r\n","violationType":"Core","itemDescription":"Light shielding","subItem":"","problemDescription":"Missing","subProblem":"","location":"KITCHEN","subLocation":"","corrected":"Not required","daysToCorrect":"30.0","correctedDate":null,"correctionDescription":"Provide."}]},{"inspectionid":"44688","inspectionDate":"2017-08-19T00:00:00","inspectionType":"Routine Inspection","inCompliance":"Yes","violationsByInspectionidList":[{"violationCode":"3-501.16","violationDescription":"Except during preparation, cooking, or cooling, or when time is used as the public health control POTENTIALLY HAZARDOUS FOOD (TIME/TEMPERATURE CONTROL FOR SAFETY FOOD) shall be maintained:\r\n(A)  135ºF or above, except that roasts properly cooked and cooled may be held              at a temperature of 130ºF; or (P)\r\n(B)   At 41ºF or less (P)\r\n","violationType":"Priority","itemDescription":"Cold food item(s)","subItem":"","problemDescription":"Stored above 41 degrees F","subProblem":"","location":"MOBILE UNIT","subLocation":"","corrected":"Yes","daysToCorrect":"10.0","correctedDate":"2017-08-19T00:00:00","correctionDescription":"Store below 41 degrees F."},{"violationCode":"3-501.14","violationDescription":"(A)  Cooked POTENTIALLY HAZARDOUS FOOD (TIME/TEMPERATURE CONTROL FOR SAFETY FOOD)  shall be cooled:\r\n         (1)  Within 2 hours, from 135ºF to 70ºF; and (P) \r\n         (2)  Within 4 hours, from 70ºF to 41ºF or less (P)\r\n(B)  POTENTIALLY HAZARDOUS FOOD (TIME/TEMPERATURE CONTROL FOR SAFETY FOOD)  prepared from ingredients at ambient temperature shall be cooled within 4 hours to 41F or less. (P)\r\n(C)  POTENTIALLY HAZARDOUS FOOD (TIME/TEMPERATURE CONTROL FOR SAFETY FOOD)  received in compliance with LAWS   allowing a temperature above 41ºF during shipment from the supplier shall be cooled within 4 hours to 41ºF or less. (P)\r\n","violationType":"Priority","itemDescription":"Food(s) prepared from ingredients at room temperature","subItem":"","problemDescription":"Not cooled to 41 degrees F with in 4 hours","subProblem":"","location":"MOBILE UNIT","subLocation":"","corrected":"Yes","daysToCorrect":"10.0","correctedDate":"2017-08-19T00:00:00","correctionDescription":"Utilize shallow pans, ice baths, agitation, or quick chilling to cool food items."},{"violationCode":"2-401.11","violationDescription":"(A)    An EMPLOYEE shall eat, drink, or use any form of tobacco only in designated areas where the contamination of exposed FOOD; clean EQUIPMENT, UTENSILS, and LINENS; unwrapped SINGLE-SERVICE and SINGLE-USE ARTICLES; or other items needing protection can not result.\r\n(B)     A FOOD EMPLOYEE may drink from a closed BEVERAGE container if the container is handled to prevent contamination of:\r\n         (1)     The EMPLOYEE'S hands;\r\n         (2)     The container; and\r\n         (3)     Exposed FOOD; clean EQUIPMENT, UTENSILS, and LINENS; and unwrapped SINGLE-SERVICE and SINGLE-USE ARTICLES.\r\n","violationType":"Core","itemDescription":"Beverage container","subItem":"","problemDescription":"Not covered","subProblem":"","location":"MOBILE UNIT","subLocation":"","corrected":"Yes","daysToCorrect":"30.0","correctedDate":"2017-08-19T00:00:00","correctionDescription":"Keep covered."}]}]}]}},"pageContext":{"eid":"51622558"}}