{"data":{"site":{"pathPrefix":"/restaurant-inspections"},"postgres":{"establishment":[{"establishmentid":"4831","name":"Cesar Chavez Academy - East","address":"4130 Maxwell","zipcode":"48214","owner":"Leona Group","licenseNumber":"081160","licenseType":"Fixed Establishment","establishmentType":"Non-Public School","establishmentStatus":null,"riskCategory":null,"reviewFrequencyDays":"210.0","coords":"-83.00615,42.37063","geojson":{"id":"4831","type":"Feature","geometry":{"type":"Point","coordinates":[-83.0061466289999,42.370632302]},"properties":{"name":"Cesar Chavez Academy - East","owner":"Leona Group","address":"4130 Maxwell","zipcode":"48214","license_type":"Fixed Establishment","risk_category":null,"license_number":"081160","establishmentid":"4831","establishment_type":"Non-Public School","establishment_status":null,"review_frequency_days":"210.0","most_recent_license_date":"5/4/2018"}},"nearbyList":[{"establishmentid":"51622465","name":"The Commons","address":"7900 Mack Ave","zipcode":"48214"},{"establishmentid":"1158","name":"Franklin Gourmet Dairy Bar","address":"8405 Mack Ave","zipcode":"48214"},{"establishmentid":"3555","name":"Friends of Detroit & Tri County","address":"8230 E Forest Ave","zipcode":"48214"},{"establishmentid":"3874","name":"Covenant East /Lifeskills","address":"7600 Goethe St","zipcode":"48214"},{"establishmentid":"317","name":"Elbow Lounge","address":"7310 Mack Ave","zipcode":"48214"},{"establishmentid":"1006","name":"John Nichols Elementary","address":"3000 Burns","zipcode":"48214"},{"establishmentid":"2327","name":"Wendy's ","address":"7850 Gratiot Ave","zipcode":"48213"},{"establishmentid":"1548","name":"Anani ","address":"7650 Gratiot Ave","zipcode":"48213"},{"establishmentid":"51622619","name":"Detroit Prep","address":"2411 Iroquois St","zipcode":"48214"},{"establishmentid":"4017","name":"Little Caesars Pizza","address":"7447 Gratiot Ave","zipcode":"48213"}],"inspectionsByEstablishmentidList":[{"inspectionid":"43648","inspectionDate":"2018-10-04T00:00:00","inspectionType":"Routine Inspection","inCompliance":"Yes","violationsByInspectionidList":[{"violationCode":"6-201.11","violationDescription":"Except otherwise approved, and except for antislip floor coverings or applications may be used for safety reasons, floors, floor coverings, walls, wall coverings, and ceilings shall be designed, constructed, and installed so they are SMOOTH and EASILY CLEANABLE.\r\n","violationType":"Core","itemDescription":"ceiling(s)","subItem":"","problemDescription":"Not constructed, designed, installed to be","subProblem":"Easily cleanable","location":"REAR PREP AREA","subLocation":"At the Ceiling tile(s)","corrected":"Not required","daysToCorrect":"30.0","correctedDate":null,"correctionDescription":"Repair/replace to be smooth and easily cleanable."},{"violationCode":"4-602.12","violationDescription":"(A) The FOOD-CONTACT SURFACES of cooking and baking EQUIPMENT shall be cleaned at least every 24 hours. This section does not apply to hot oil cooking and filtering EQUIPMENT if it is cleaned as specified in Subparagraph 4-602.11(D)(6).   \r\n(B) The cavities and door seals of microwave ovens shall be cleaned at least every 24 hours by using the manufacturer's recommended cleaning procedure.","violationType":"Core","itemDescription":"Microwave oven door seals and cavities","subItem":"","problemDescription":"Not cleaned","subProblem":"","location":"REAR PREP AREA","subLocation":"Inside the Microwave Oven(s)","corrected":"Not required","daysToCorrect":"30.0","correctedDate":null,"correctionDescription":"Clean as required above."}]},{"inspectionid":"42133","inspectionDate":"2018-05-10T00:00:00","inspectionType":"Routine Inspection","inCompliance":"Yes","violationsByInspectionidList":[{"violationCode":"6-301.12","violationDescription":"Each HANDWASHING SINK or group of adjacent HANDWASHING SINKS shall be provided with:\r\n(A) Individual, disposable towels; (Pf)\r\n(B) A continuous towel system that supplies the user with a clean towel;(Pf) or \r\n(C) A heated-air hand drying device.(Pf)\r\n(D) A hand drying device that employs an air-knife system that delivers high velocity pressurized air at ambient temperatures.(Pf)\r\n","violationType":"Foundation","itemDescription":"Sanitary hand drying provisions","subItem":"disposable, paper towels","problemDescription":"Not provided","subProblem":"At hand sink","location":"REAR AREA","subLocation":"Missing Paper toweling","corrected":"Yes","daysToCorrect":"10.0","correctedDate":"2018-05-10T00:00:00","correctionDescription":"Provide"}]},{"inspectionid":"40269","inspectionDate":"2017-10-06T00:00:00","inspectionType":"Routine Inspection","inCompliance":"Yes","violationsByInspectionidList":[{"violationCode":"6-501.112","violationDescription":"Dead or trapped birds, insects, rodents, and other pests shall be removed from control devices and the PREMISES at a frequency that prevents their accumulation,  decomposition, or the attraction of pests.\r\n","violationType":"Core","itemDescription":"Dead/trapped pest(s)","subItem":"insects","problemDescription":"Not removed from facility","subProblem":"","location":"FRONT PREP AREA","subLocation":"At the iNSECT CONTROL DEVICE","corrected":"Not required","daysToCorrect":"30.0","correctedDate":null,"correctionDescription":"Remove from facility/premises."}]},{"inspectionid":"38871","inspectionDate":"2017-06-05T00:00:00","inspectionType":"Routine Inspection","inCompliance":"Yes","violationsByInspectionidList":[]},{"inspectionid":"37139","inspectionDate":"2016-11-16T00:00:00","inspectionType":"Routine Inspection","inCompliance":"Yes","violationsByInspectionidList":[]}]}],"maxInspectionDate":[{"inspectionDate":"2019-01-31T00:00:00"}]}},"pageContext":{"eid":"4831"}}