{"componentChunkName":"component---src-templates-establishment-page-js","path":"/establishment/5317","result":{"data":{"site":{"pathPrefix":"/restaurant-inspections"},"postgres":{"establishment":[{"establishmentid":"5317","name":"Comfort Cafe","address":"6533  Jefferson E.","zipcode":"48207","owner":"Ysahai Martin","licenseNumber":"204146","licenseType":"Mobile Food Establishment","establishmentType":"LHD - Mobile Food Establishmen","establishmentStatus":"Seasonal","riskCategory":null,"reviewFrequencyDays":"180","coords":"-83.00693,42.34568","geojson":{"id":"5317","type":"Feature","geometry":{"type":"Point","coordinates":[-83.006930201,42.345678846]},"properties":{"name":"Comfort Cafe","owner":"Ysahai Martin","address":"6533  Jefferson E.","zipcode":"48207","license_type":"Mobile Food Establishment","risk_category":null,"license_number":"204146","establishmentid":"5317","establishment_type":"LHD - Mobile Food Establishmen","establishment_status":"Seasonal","review_frequency_days":"180","most_recent_license_date":null}},"nearbyList":[{"establishmentid":"1800","name":"Wendy's","address":"6601 Jefferson Ave. E.","zipcode":"48207"},{"establishmentid":"51622615","name":"Le Petit Dejeuner","address":"6470  E. Jefferson","zipcode":"48207"},{"establishmentid":"4030","name":"The Bridge","address":"6470 E. Jefferson Ave.","zipcode":"48207"},{"establishmentid":"4264","name":"Zen Bar & Restaurant","address":"6452 E. Jefferson","zipcode":"48207"},{"establishmentid":"2374","name":"Southern Fires","address":"575 Bellevue","zipcode":"48207"},{"establishmentid":"5161","name":"Southern Fire Bistro & Lounge","address":"575 Bellevue","zipcode":"48207"},{"establishmentid":"3203","name":"Happy's Pizza #11","address":"6412  Jefferson Ave. E.","zipcode":"48207"},{"establishmentid":"51623733","name":"Streetcredit Coworking & Events LLC","address":"6340 Jefferson E.","zipcode":"48207"},{"establishmentid":"1882","name":"City Pekin Chinese Food","address":"6905 Jefferson Ave. E.","zipcode":"48207"},{"establishmentid":"2332","name":"City Pekins Chinese Food","address":"6905 Jefferson E.","zipcode":"48207"}],"inspectionsByEstablishmentidList":[{"inspectionid":"42100","inspectionDate":"2018-05-05T00:00:00","inspectionType":"Routine Inspection","inCompliance":"No","violationsByInspectionidList":[{"violationCode":"4-302.12","violationDescription":"(A) FOOD TEMPERATURE MEASURING DEVICES shall be provided and readily accessible for use in ensuring attainment and maintenance of FOOD temperatures as specified under Chapter 3. (Pf)   \n(B) A TEMPERATURE MEASURING DEVICE with a suitable small-diameter probe that is designed to measure the temperature of thin masses shall be provided and readily accessible to accurately measure the temperature in thin FOODS such as MEAT patties and FISH filets. (Pf)\n","violationType":"Foundation","itemDescription":"Food thermometer(s)","subItem":null,"problemDescription":"Not provided","subProblem":null,"location":"TRUCK","subLocation":"Above the ACCESS","corrected":"True","daysToCorrect":"10","correctedDate":"2018-06-20T00:00:00","correctionDescription":"Provide."},{"violationCode":"4-302.14","violationDescription":"A test kit or other device that accurately measures the concentration in mg/L of SANITIZING solutions shall be provided. (Pf)\n","violationType":"Foundation","itemDescription":null,"subItem":null,"problemDescription":null,"subProblem":null,"location":"TRUCK","subLocation":null,"corrected":"False","daysToCorrect":"10","correctedDate":"2018-06-20T00:00:00","correctionDescription":null}]},{"inspectionid":"44686","inspectionDate":"2017-07-27T00:00:00","inspectionType":"Routine Inspection","inCompliance":"No","violationsByInspectionidList":[{"violationCode":"5-205.11","violationDescription":"(A) A HANDWASHING SINK shall be maintained so that it is accessible at all times for EMPLOYEE use and used for no other purpose. (Pf)\n(B)  An automatic handwashing facility shall be used in accordance with manufacturer's instructions. (Pf)\n","violationType":"Foundation","itemDescription":"Handwashing sink(s)","subItem":null,"problemDescription":"Not easily accessible","subProblem":null,"location":"MOBILE UNIT","subLocation":null,"corrected":"False","daysToCorrect":"10","correctedDate":null,"correctionDescription":"Make easily accessible."},{"violationCode":"4-302.14","violationDescription":"A test kit or other device that accurately measures the concentration in mg/L of SANITIZING solutions shall be provided. (Pf)\n","violationType":"Foundation","itemDescription":"Sanitizer test kit","subItem":null,"problemDescription":"Not provided","subProblem":null,"location":"MOBILE UNIT","subLocation":null,"corrected":"False","daysToCorrect":"10","correctedDate":null,"correctionDescription":"Provide."}]}]}],"maxInspectionDate":[{"inspectionDate":"2022-08-31T00:00:00"}]}},"pageContext":{"eid":"5317"}},"staticQueryHashes":["3649515864","63159454"]}