{"data":{"postgres":{"establishment":[{"establishmentid":"1371","name":"The Works Bar & Grill","address":"1846 Michigan Ave","zipcode":"48216","owner":"Ambern, Inc.","licenseNumber":"035518","licenseType":"Fixed Establishment","establishmentType":"Food Service Establishment","establishmentStatus":"Open","riskCategory":null,"reviewFrequencyDays":"365.0","coords":"-83.19317,42.22772","geojson":{"id":"1371","type":"Feature","geometry":{"type":"Point","coordinates":[-83.193169941,42.2277245400001]},"properties":{"name":"The Works Bar & Grill","owner":"Ambern, Inc.","address":"1846 Michigan Ave","zipcode":"48216","license_type":"Fixed Establishment","risk_category":null,"license_number":"035518","establishmentid":"1371","establishment_type":"Food Service Establishment","establishment_status":"Open","review_frequency_days":"365.0","most_recent_license_date":null}},"nearbyList":[{"establishmentid":"5378","name":"Bobcat Bonnies","address":"1800 Michigan Ave","zipcode":"48216"},{"establishmentid":"2154","name":"White Castle #19","address":"1930-50  Michigan Ave","zipcode":"48216"},{"establishmentid":"51622746","name":"Tacos El Rodeo","address":"1949 Michigan Ave","zipcode":"48216"},{"establishmentid":"539","name":"Motor City Wine Bar","address":"1949 Michigan Ave","zipcode":"48216"},{"establishmentid":"592","name":"Gaelic League Irish American Club","address":"2066-68 Michigan Ave","zipcode":"48216"},{"establishmentid":"4904","name":"Gold Cash Gold","address":"2100 Michigan Ave","zipcode":"48216"},{"establishmentid":"4306","name":"Astro Coffee","address":"2124 Michigan Ave","zipcode":"48216"},{"establishmentid":"3590","name":"Happy's Pizza","address":"3517 S Fort St","zipcode":"48217"},{"establishmentid":"4876","name":"El Parian #3","address":"1064 London","zipcode":"48146"},{"establishmentid":"4246","name":"El Parian #1","address":"1064 London","zipcode":"48149"},{"establishmentid":"4660","name":"El Parian #2","address":"1064 London","zipcode":"48149"},{"establishmentid":"5222","name":"El Paisano ","address":"4370 6th Street","zipcode":"48229"},{"establishmentid":"51622558","name":"Pablo Tacos","address":"17036 Cicotte","zipcode":"48101"},{"establishmentid":"885","name":"Mark Twain K-8","address":"12800 Visger St","zipcode":"48217"},{"establishmentid":"617","name":"New Paradigm College Prep School","address":"2450  S Beatrice St ","zipcode":"48217"},{"establishmentid":"51622557","name":"Takito Loko","address":"17966 Harman St","zipcode":"48122"},{"establishmentid":"2245","name":"Perfect Beat","address":"1941 Fort St S","zipcode":"48217"},{"establishmentid":"51622742","name":"Lorent Coney Island","address":"601 S Schaefer Rd","zipcode":"48217"},{"establishmentid":"2312","name":"Taqueria La Salsa Mexican Cuisine","address":"1310 Oakwood Blvd S","zipcode":"48217"},{"establishmentid":"4979","name":"Pathway Academy","address":"11340-43 E Jefferson Ave","zipcode":"48214"}],"inspectionsByEstablishmentidList":[{"inspectionid":"42086","inspectionDate":"2018-05-04T00:00:00","inspectionType":"Routine Inspection","inCompliance":"No","violationsByInspectionidList":[{"violationCode":"4-302.14","violationDescription":"A test kit or other device that accurately measures the concentration in mg/L of SANITIZING solutions shall be provided. (Pf)\r\n","violationType":"Foundation","itemDescription":"Sanitizer test kit","subItem":"quaternary ammonia","problemDescription":"Damaged","subProblem":"","location":"BAR","subLocation":"At the Test strips","corrected":"No","daysToCorrect":"10.0","correctedDate":null,"correctionDescription":"Replace."}]},{"inspectionid":"38548","inspectionDate":"2017-04-26T00:00:00","inspectionType":"Routine Inspection","inCompliance":"Yes","violationsByInspectionidList":[{"violationCode":"MFL289.2129","violationDescription":"Sec. 2129. (1) All of the following food establishments shall employ a minimum of 1 managerial employee who is currently certified under a personnel certification program accredited by the American national standards institute, utilizing the conference for food protection standards:  (a) A food service establishment that is not any of the following:    (i) Operating under a temporary food service establishment license.  (ii) A vending machine location.     (b) An extended retail food establishment.  (c) Operated within a retail grocery.  (2) An individual certified under subsection (1) shall be recognized with full faith and credit by the state and all local units of government throughout the state.  (3) The department may promulgate rules to do all of the following:  (a) Develop requirements for retail food establishments to follow when employing certified food safety managers or personnel.  (b) Set a reasonable date for compliance with the requirements under subdivision (a) taking into consideration existing local personnel certification requirements.  (c) Establish certification fees necessary to implement, maintain, and track certified individuals directly or by contract. The department may annually adjust the schedule of fees to provide that the fee charged is sufficient to cover the cost of the certification tracking program.  (d) Implement and enforce the requirements described in subdivision (a).    (4) The certification program developed by the American national standards institute, as it exists on April 1, 2008 , is incorporated by reference. The department may adopt updates to the certification program accreditation standards in subsection (1) by rule.     (5) This section does not prohibit any local legislative body from implementing a food handler program, an employee health certification program, or a manager certification program, if it is not in conflict with this section.","violationType":"Core","itemDescription":"Person-in-charge","subItem":"","problemDescription":"Missing","subProblem":"","location":"BAR","subLocation":"At the PERSON IN CHARGE","corrected":"Not required","daysToCorrect":"30.0","correctedDate":null,"correctionDescription":"Provide."},{"violationCode":"4-602.13","violationDescription":"NonFOOD-CONTACT SURFACES of EQUIPMENT shall be cleaned at a frequency necessary to preclude accumulation of soil residues.\r\n","violationType":"Core","itemDescription":"Nonfood contact surface(s)","subItem":"","problemDescription":"With accumulation of debris","subProblem":"","location":"BAR","subLocation":"At the Fan","corrected":"Not required","daysToCorrect":"30.0","correctedDate":null,"correctionDescription":"Keep clean."}]}]}]}},"pageContext":{"eid":"1371"}}