{"data":{"site":{"pathPrefix":"/restaurant-inspections"},"postgres":{"establishment":[{"establishmentid":"51622705","name":"Brujo","address":"474 Peterboro St #105","zipcode":"48201","owner":"Petro G Drakopoulos","licenseNumber":"jb022618","licenseType":"Fixed Establishment","establishmentType":"Food Service Establishment","establishmentStatus":"Open","riskCategory":"High","reviewFrequencyDays":"180.0","coords":"-83.06167,42.34422","geojson":{"id":"51622705","type":"Feature","geometry":{"type":"Point","coordinates":[-83.0616724239999,42.3442225970001]},"properties":{"name":"Brujo","owner":"Petro G Drakopoulos","address":"474 Peterboro St #105","zipcode":"48201","license_type":"Fixed Establishment","risk_category":"High","license_number":"jb022618","establishmentid":"51622705","establishment_type":"Food Service Establishment","establishment_status":"Open","review_frequency_days":"180.0","most_recent_license_date":"7/9/2018"}},"nearbyList":[{"establishmentid":"5094","name":"Peterboro","address":"420 Peterboro ","zipcode":"48201"},{"establishmentid":"51622606","name":"Founders Brewing Company","address":"456 Charlotte St","zipcode":"48201"},{"establishmentid":"51622795","name":"Faye's Coffee Convenience","address":"3550 Cass Ave","zipcode":"48221"},{"establishmentid":"51622553","name":"Rocco's Italian Deli LLC","address":"3627 Cass Ave","zipcode":"48201"},{"establishmentid":"1140","name":"Masonic Temple","address":"500 Temple","zipcode":"48201"},{"establishmentid":"692","name":"Temple Bar","address":"2906 Cass","zipcode":"48201"},{"establishmentid":"1563","name":"Detroit Rescue Mission","address":"3535 Third St","zipcode":"48201"},{"establishmentid":"51622663","name":"SheWolf Pastificio & Bar","address":"438 Selden","zipcode":"48201"},{"establishmentid":"2140","name":"Honest John's Bar & Grill","address":"488 Selden St","zipcode":"48201"},{"establishmentid":"739","name":"Coalition on Temporary Shelter","address":"26 Peterboro St","zipcode":"48201"},{"establishmentid":"3354","name":"DSA Detroit School of Arts (9-12)","address":"123 Selden St","zipcode":"48201"},{"establishmentid":"4827","name":"Selden Standard","address":"3921-29 Second Ave","zipcode":"48201"},{"establishmentid":"1092","name":"St. Patrick Senior Center, Inc.","address":"58 Parsons St","zipcode":"48201"},{"establishmentid":"436","name":"Jumbo's Bar","address":"3736 Third St","zipcode":"48201"},{"establishmentid":"1337","name":"Old Miami Bar","address":"3930 Cass Ave","zipcode":"48201"},{"establishmentid":"5372","name":"Foundation Rock Spirits LLC dba Castalia","address":"3980 Second Ave Unit E","zipcode":"48201"},{"establishmentid":"371","name":"Detroit #1 Coney Island","address":"3433 Woodward Ave","zipcode":"48201"},{"establishmentid":"3070","name":"Detroit Symphony Orchestra Hall","address":"3711 Woodward Ave","zipcode":"48201"},{"establishmentid":"4889","name":"Top China One","address":"3157 Woodward Ave","zipcode":"48201"},{"establishmentid":"51622555","name":"Empire","address":"3148 Woodward Ave","zipcode":"48201"}],"inspectionsByEstablishmentidList":[{"inspectionid":"43483","inspectionDate":"2018-09-19T00:00:00","inspectionType":"Routine Inspection","inCompliance":"Yes","violationsByInspectionidList":[{"violationCode":"3-305.11","violationDescription":"FOOD shall be protected from contamination by storing the FOOD:\r\n(1)     In a clean, dry location;\r\n(2)     Where it is not exposed to splash, dust, or other contamination; and\r\n(3)     At least 15 cm (6 inches) above the floor, unless otherwise approved.\r\n","violationType":"Core","itemDescription":"Food item(s) in storage","subItem":"","problemDescription":"Stored on floor or less than 6 inches above floor","subProblem":"","location":"FACILITY","subLocation":"","corrected":"Not required","daysToCorrect":"30.0","correctedDate":null,"correctionDescription":"Store at least 6 inches above the floor."},{"violationCode":"2-402.11","violationDescription":"FOOD EMPLOYEES shall wear hair restraints such as hats, hair coverings or nets, beard restraints, and clothing that covers body hair, that are designed and worn to effectively keep their hair from contacting exposed FOOD; clean EQUIPMENT, UTENSILS, and LINENS; or unwrapped SINGLE-SERVICE or SINGLE-USE ARTICLES.","violationType":"Core","itemDescription":"Hair restraint","subItem":"hair/beard net","problemDescription":"Not worn on head/hair","subProblem":"","location":"FACILITY","subLocation":"","corrected":"Not required","daysToCorrect":"30.0","correctedDate":null,"correctionDescription":"Provide hat or hair net."}]},{"inspectionid":"43031","inspectionDate":"2018-07-13T00:00:00","inspectionType":"Preopening/New","inCompliance":"Yes","violationsByInspectionidList":[{"violationCode":"5-402.11","violationDescription":"Except as otherwise allowed, a direct connection may not exist between the SEWAGE system and a drain originating from EQUIPMENT in which FOOD, portable EQUIPMENT, or UTENSILS are placed. (P)\r\n","violationType":"Priority","itemDescription":"Backflow/backsiphonage prevention device(s)","subItem":"Air gap","problemDescription":"Not provided on","subProblem":"","location":"PREP SINK","subLocation":"AIR GAP","corrected":"Yes","daysToCorrect":"10.0","correctedDate":"2018-07-13T00:00:00","correctionDescription":"Provide adequate air gap."}]}]}]}},"pageContext":{"eid":"51622705"}}