{"data":{"postgres":{"establishment":[{"establishmentid":"1004","name":"Kentucky Fried Chicken ","address":"9848 Livernois Ave","zipcode":"48204","owner":"FQSR LLC dba KBP FOODS","licenseNumber":"202848","licenseType":"Fixed Establishment","establishmentType":"Food Service Establishment","establishmentStatus":"Open","riskCategory":null,"reviewFrequencyDays":"180.0","coords":"-83.13848,42.36935","geojson":{"id":"1004","type":"Feature","geometry":{"type":"Point","coordinates":[-83.138484964,42.36935399]},"properties":{"name":"Kentucky Fried Chicken ","owner":"FQSR LLC dba KBP FOODS","address":"9848 Livernois Ave","zipcode":"48204","license_type":"Fixed Establishment","risk_category":null,"license_number":"202848","establishmentid":"1004","establishment_type":"Food Service Establishment","establishment_status":"Open","review_frequency_days":"180.0","most_recent_license_date":"5/31/2017"}},"nearbyList":[{"establishmentid":"1128","name":"Royal Grill","address":"9850 Livernois Ave","zipcode":"48204"},{"establishmentid":"1709","name":"Wendy's ","address":"9768 Grand River Ave","zipcode":"48204"},{"establishmentid":"2650","name":"McDonald's #12122","address":"9815 Grand River Ave","zipcode":"48204"},{"establishmentid":"1012","name":"Burger King ","address":"9871 Livernois Ave","zipcode":"48204"},{"establishmentid":"4883","name":"Livernois & I96 Subway Inc","address":"9600 Livernois Ave","zipcode":"48204"},{"establishmentid":"271","name":"Bailey's Lounge","address":"11700 Livernois Ave","zipcode":"48204"},{"establishmentid":"286","name":"Jerry's Pizza & B-B-Q Inc.","address":"11749 Livernois Ave","zipcode":"48204"},{"establishmentid":"1084","name":"Paradise Chop Suey","address":"9333 Grand River Ave","zipcode":"48204"},{"establishmentid":"1270","name":"Ebenezer A.M.E Church","address":"5151 W Chicago","zipcode":"48204"},{"establishmentid":"3644","name":"Penthouse Lounge","address":"8867 Livernois Ave","zipcode":"48204"},{"establishmentid":"1146","name":"Church's Fried Chicken #855","address":"9137 W Grand River Ave","zipcode":"48204"},{"establishmentid":"4806","name":"Hope Academy","address":"12121 Broadstreet Ave","zipcode":"48204"},{"establishmentid":"5201","name":"Roy Allen Family Life Center","address":"4924 Joy Rd","zipcode":"48204"},{"establishmentid":"924","name":"Keidan Special Education Center","address":"4441 Collingwood","zipcode":"48204"},{"establishmentid":"1183","name":"Club Temptation","address":"8203 W Chicago Rd","zipcode":"48204"},{"establishmentid":"1695","name":"Zebee Fish","address":"8233 Livernois Ave","zipcode":"48204"},{"establishmentid":"4169","name":"Lynn's Fish & Chicken","address":"12863 Livernois Ave","zipcode":"48238"},{"establishmentid":"598","name":"Elmer's LLC","address":"8515 W Chicago W","zipcode":"48204"},{"establishmentid":"793","name":"Trade Union Leadership Council","address":"8670 Grand River Ave","zipcode":"48204"},{"establishmentid":"3426","name":"Manhattan Fish & Chicken","address":"13325 Livernois Ave","zipcode":"48238"}],"inspectionsByEstablishmentidList":[{"inspectionid":"45263","inspectionDate":"2018-07-16T00:00:00","inspectionType":"Routine Inspection","inCompliance":"Yes","violationsByInspectionidList":[{"violationCode":"3-501.16","violationDescription":"Except during preparation, cooking, or cooling, or when time is used as the public health control POTENTIALLY HAZARDOUS FOOD (TIME/TEMPERATURE CONTROL FOR SAFETY FOOD) shall be maintained:\r\n(A)  135ºF or above, except that roasts properly cooked and cooled may be held              at a temperature of 130ºF; or (P)\r\n(B)   At 41ºF or less (P)\r\n","violationType":"Priority","itemDescription":"Cold food item(s)","subItem":"","problemDescription":"Stored above 41 degrees F","subProblem":"","location":"FOOD SERVICE AREA","subLocation":"Under the Counter(s)","corrected":"Yes","daysToCorrect":"10.0","correctedDate":"2018-07-16T00:00:00","correctionDescription":"Discard"},{"violationCode":"8-304.11","violationDescription":"Upon acceptance of the PERMIT issued by the REGULATORY AUTHORITY, the PERMIT HOLDER in order to retain the PERMIT shall:\r\n(A) Post the PERMIT in a location in the FOOD ESTABLISHMENT that is conspicuous to CONSUMERS; \r\n(B) Comply with the provisions of this Code including the conditions of a granted VARIANCE as specified under § 8-103.12, and APPROVED plans as specified under § 8-201.12;\r\n(C) If a FOOD ESTABLISHMENT is required under § 8-201.13 to operate under a HACCP PLAN, comply with the plan as specified under § 8-103.12;\r\n(D) Immediately contact the REGULATORY AUTHORITY to report an illness of a FOOD EMPLOYEE or CONDITIONAL EMPLOYEE as specified under ¶ 2-201.11(B); \r\n(E) Immediately discontinue operations and notify the REGULATORY AUTHORITY if an IMMINENT HEALTH HAZARD may exist as specified under § 8-404.11;\r\n(F) Allow representatives of the REGULATORY AUTHORITY access to the FOOD ESTABLISHMENT as specified under § 8-402.11;\r\n(G) Except as specified under ¶ (H) of this section, replace existing facilities and EQUIPMENT specified in § 8-101.10 with facilities and EQUIPMENT that comply with this Code if:\r\n(1) The REGULATORY AUTHORITY directs the replacement because the facilities and EQUIPMENT constitute a public health HAZARD or nuisance or no longer comply with the criteria upon which the facilities and EQUIPMENT were accepted,\r\n(2) The REGULATORY AUTHORITY directs the replacement of the facilities and EQUIPMENT because of a change of ownership, or\r\n(3) The facilities and EQUIPMENT are replaced in the normal course of operation;\r\n(H) Upgrade or replace refrigeration EQUIPMENT as specified under Subparagraph 3-501.16(A)(2)(b), if the circumstances specified under Subparagraphs (G)(1) - (3) of this section do not occur first, and 5 years pass after the REGULATORY AUTHORITY adopts this Code;\r\n(I) Comply with directives of the REGULATORY AUTHORITY including time frames for corrective actions specified in inspection reports, notices, orders, warnings, and other directives issued by the REGULATORY AUTHORITY in regard to the PERMIT HOLDER'S FOOD ESTABLISHMENT or in response to community emergencies; \r\n(J) Accept notices issued and served by the REGULATORY AUTHORITY according to LAW; and \r\n(K) Be subject to the administrative, civil, injunctive, and criminal remedies authorized in LAW for failure to comply with this Code or a directive of the REGULATORY AUTHORITY, including time frames for corrective actions specified in inspection reports, notices, orders, warnings, and other directives.","violationType":"Core","itemDescription":null,"subItem":"","problemDescription":null,"subProblem":"","location":"ESTABLISHMENT","subLocation":"","corrected":"Not required","daysToCorrect":"30.0","correctedDate":null,"correctionDescription":null}]},{"inspectionid":"45176","inspectionDate":"2018-07-16T00:00:00","inspectionType":"Complaint","inCompliance":"Yes","violationsByInspectionidList":[{"violationCode":"3-501.16","violationDescription":"Except during preparation, cooking, or cooling, or when time is used as the public health control POTENTIALLY HAZARDOUS FOOD (TIME/TEMPERATURE CONTROL FOR SAFETY FOOD) shall be maintained:\r\n(A)  135ºF or above, except that roasts properly cooked and cooled may be held              at a temperature of 130ºF; or (P)\r\n(B)   At 41ºF or less (P)\r\n","violationType":"Priority","itemDescription":"Cold food item(s)","subItem":"","problemDescription":"Stored above 41 degrees F","subProblem":"","location":"FOOD SERVICE AREA","subLocation":"Under the Counter(s)","corrected":"Yes","daysToCorrect":"10.0","correctedDate":"2018-07-16T00:00:00","correctionDescription":"Discard"}]},{"inspectionid":"41665","inspectionDate":"2018-02-13T00:00:00","inspectionType":"Routine Inspection","inCompliance":"Yes","violationsByInspectionidList":[]},{"inspectionid":"39603","inspectionDate":"2017-08-15T00:00:00","inspectionType":"Routine Inspection","inCompliance":"Yes","violationsByInspectionidList":[]},{"inspectionid":"37925","inspectionDate":"2017-02-03T00:00:00","inspectionType":"Routine Inspection","inCompliance":"Yes","violationsByInspectionidList":[{"violationCode":"4-601.11","violationDescription":"(A) EQUIPMENT FOOD-CONTACT SURFACES and UTENSILS shall be clean to sight and touch. (Pf)\r\n(B) The FOOD-CONTACT SURFACES of cooking EQUIPMENT and pans shall be kept free of encrusted grease deposits and other soil accumulations. \r\n(C) NonFOOD-CONTACT SURFACES of EQUIPMENT shall be kept free of an accumulation of dust, dirt, FOOD residue, and other debris. \r\n","violationType":"Core","itemDescription":"Non-food contact surface(s)","subItem":"","problemDescription":"Not clean","subProblem":"","location":"BEVERAGE AREA","subLocation":"","corrected":"Not required","daysToCorrect":"10.0","correctedDate":null,"correctionDescription":"Clean"},{"violationCode":"6-501.12","violationDescription":"(A) PHYSICAL FACILITIES shall be cleaned as often as necessary to keep them clean.\r\n(B) Except spill cleanup, cleaning shall be done during periods when the least amount of FOOD is exposed such as after closing. ","violationType":"Core","itemDescription":"Physical facilities/structures","subItem":"","problemDescription":"Soiled","subProblem":"","location":"FLOOR","subLocation":"","corrected":"Yes","daysToCorrect":"30.0","correctedDate":"2017-02-03T00:00:00","correctionDescription":"Clean."}]}]}]}},"pageContext":{"eid":"1004"}}