{"data":{"postgres":{"establishment":[{"establishmentid":"1118","name":"Bow Elementary School","address":"19801 Prevost Ave","zipcode":"48235","owner":"Detroit Board of Education","licenseNumber":"035195","licenseType":"Fixed Establishment","establishmentType":"Public School","establishmentStatus":"Open","riskCategory":null,"reviewFrequencyDays":"210.0","coords":"-83.20513,42.43696","geojson":{"id":"1118","type":"Feature","geometry":{"type":"Point","coordinates":[-83.205125504,42.4369642670001]},"properties":{"name":"Bow Elementary School","owner":"Detroit Board of Education","address":"19801 Prevost Ave","zipcode":"48235","license_type":"Fixed Establishment","risk_category":null,"license_number":"035195","establishmentid":"1118","establishment_type":"Public School","establishment_status":"Open","review_frequency_days":"210.0","most_recent_license_date":"4/30/2018"}},"nearbyList":[{"establishmentid":"2037","name":"Michigan Technical Academy","address":"19940 Mansfield Ave","zipcode":"48235"},{"establishmentid":"51622825","name":"Pembroke Academy","address":"19940 Mansfield St","zipcode":"48235"},{"establishmentid":"4414","name":"Saucebar","address":"15838 W Seven Mile Rd","zipcode":"48235"},{"establishmentid":"5009","name":"Uncle Big John's Fresh Fish Mkt.","address":"15834 W Seven Mile Rd","zipcode":"48235"},{"establishmentid":"2130","name":"White Castle #38","address":"20409 James Couzens","zipcode":"48235"},{"establishmentid":"3537","name":"Fat Boyz Steak and Chicken","address":"15917 W Seven Mile Rd","zipcode":"48235"},{"establishmentid":"4974","name":"Motor City Sweet Shop","address":"16311 W Seven Mile Rd","zipcode":"48235"},{"establishmentid":"1475","name":"Burger King ","address":"15500 W Seven Mile Rd","zipcode":"48235"},{"establishmentid":"1179","name":"Nicky D's Coney Island","address":"15447 W Seven Mile Rd","zipcode":"48235"},{"establishmentid":"4998","name":"Encore Lounge and Grill","address":"15407 W Seven Mile Rd","zipcode":"48235"},{"establishmentid":"3199","name":"Detroit Fish & Shrimp III","address":"20030 James Couzens","zipcode":"48235"},{"establishmentid":"4286","name":"Jalen Rose Leadership Acadamy","address":"15000 Trojan St","zipcode":"48235"},{"establishmentid":"352","name":"Lon's Coney Island","address":"17501 W Seven Mile Rd","zipcode":"48235"},{"establishmentid":"5246","name":"Jamaica Jamaica Restaurant","address":"17550 W Seven Mile Rd","zipcode":"48227"},{"establishmentid":"5107","name":"Mighty Sub Shop","address":"17602 W Seven Mile","zipcode":"48235"},{"establishmentid":"51622648","name":"Great Lakes Sport Bar","address":"17602 W Seven Mile Rd","zipcode":"48235"},{"establishmentid":"2776","name":"Nu Wave Fish & Chicken","address":"15030 E Eight Mile Rd","zipcode":"48205"},{"establishmentid":"4839","name":"Asian Corned Beef","address":"14820 Seven Mile Rd W","zipcode":"48235"},{"establishmentid":"5116","name":"Subway","address":"15000 E Eight Mile Rd","zipcode":"48205"},{"establishmentid":"5355","name":"Los Chapos Restaurante Mexicano","address":"17805 W Seven Mile Rd","zipcode":"48235"}],"inspectionsByEstablishmentidList":[{"inspectionid":"43694","inspectionDate":"2018-10-09T00:00:00","inspectionType":"Routine Inspection","inCompliance":"Yes","violationsByInspectionidList":[{"violationCode":"4-501.11","violationDescription":"EQUIPMENT shall be maintained in a state of repair and condition that meets the requirements of the code.\r\n","violationType":"Core","itemDescription":"Equipment","subItem":"","problemDescription":"In poor repair","subProblem":"","location":"KITCHEN","subLocation":"","corrected":"Not required","daysToCorrect":"30.0","correctedDate":null,"correctionDescription":"Repair"}]},{"inspectionid":"42702","inspectionDate":"2018-06-27T00:00:00","inspectionType":"Routine Inspection","inCompliance":"Yes","violationsByInspectionidList":[{"violationCode":"4-501.11","violationDescription":"EQUIPMENT shall be maintained in a state of repair and condition that meets the requirements of the code.\r\n","violationType":"Core","itemDescription":"Equipment","subItem":"","problemDescription":"In poor repair","subProblem":"","location":"KITCHEN","subLocation":"","corrected":"Not required","daysToCorrect":"30.0","correctedDate":null,"correctionDescription":"Repair"}]},{"inspectionid":"40867","inspectionDate":"2017-11-16T00:00:00","inspectionType":"Routine Inspection","inCompliance":"Yes","violationsByInspectionidList":[]},{"inspectionid":"38852","inspectionDate":"2017-05-24T00:00:00","inspectionType":"Routine Inspection","inCompliance":"Yes","violationsByInspectionidList":[]},{"inspectionid":"36904","inspectionDate":"2016-10-26T00:00:00","inspectionType":"Routine Inspection","inCompliance":"Yes","violationsByInspectionidList":[]}]}]}},"pageContext":{"eid":"1118"}}