{"data":{"site":{"pathPrefix":"/restaurant-inspections"},"postgres":{"establishment":[{"establishmentid":"1709","name":"Wendy's ","address":"9768 Grand River Ave","zipcode":"48204","owner":"Douglas Corp. of Michigan","licenseNumber":"221962","licenseType":"Fixed Establishment","establishmentType":"Food Service Establishment","establishmentStatus":"Open","riskCategory":"Medium","reviewFrequencyDays":"365.0","coords":"-83.13826,42.36881","geojson":{"id":"1709","type":"Feature","geometry":{"type":"Point","coordinates":[-83.138258638,42.3688123330001]},"properties":{"name":"Wendy's ","owner":"Douglas Corp. of Michigan","address":"9768 Grand River Ave","zipcode":"48204","license_type":"Fixed Establishment","risk_category":"Medium","license_number":"221962","establishmentid":"1709","establishment_type":"Food Service Establishment","establishment_status":"Open","review_frequency_days":"365.0","most_recent_license_date":null}},"nearbyList":[{"establishmentid":"1004","name":"Kentucky Fried Chicken ","address":"9848 Livernois Ave","zipcode":"48204"},{"establishmentid":"2650","name":"McDonald's #12122","address":"9815 Grand River Ave","zipcode":"48204"},{"establishmentid":"4883","name":"Livernois & I96 Subway Inc","address":"9600 Livernois Ave","zipcode":"48204"},{"establishmentid":"1128","name":"Royal Grill","address":"9850 Livernois Ave","zipcode":"48204"},{"establishmentid":"1012","name":"Burger King ","address":"9871 Livernois Ave","zipcode":"48204"},{"establishmentid":"271","name":"Bailey's Lounge","address":"11700 Livernois Ave","zipcode":"48204"},{"establishmentid":"286","name":"Jerry's Pizza & B-B-Q Inc.","address":"11749 Livernois Ave","zipcode":"48204"},{"establishmentid":"1084","name":"Paradise Chop Suey","address":"9333 Grand River Ave","zipcode":"48204"},{"establishmentid":"1270","name":"Ebenezer A.M.E Church","address":"5151 W Chicago","zipcode":"48204"},{"establishmentid":"3644","name":"Penthouse Lounge","address":"8867 Livernois Ave","zipcode":"48204"},{"establishmentid":"1146","name":"Church's Fried Chicken #855","address":"9137 W Grand River Ave","zipcode":"48204"},{"establishmentid":"5201","name":"Roy Allen Family Life Center","address":"4924 Joy Rd","zipcode":"48204"},{"establishmentid":"4806","name":"Hope Academy","address":"12121 Broadstreet Ave","zipcode":"48204"},{"establishmentid":"924","name":"Keidan Special Education Center","address":"4441 Collingwood","zipcode":"48204"},{"establishmentid":"1183","name":"Club Temptation","address":"8203 W Chicago Rd","zipcode":"48204"},{"establishmentid":"1695","name":"Zebee Fish","address":"8233 Livernois Ave","zipcode":"48204"},{"establishmentid":"4169","name":"Lynn's Fish & Chicken","address":"12863 Livernois Ave","zipcode":"48238"},{"establishmentid":"598","name":"Elmer's LLC","address":"8515 W Chicago W","zipcode":"48204"},{"establishmentid":"793","name":"Trade Union Leadership Council","address":"8670 Grand River Ave","zipcode":"48204"},{"establishmentid":"1278","name":"Onasis Coney Island ","address":"8001 Livernois Ave","zipcode":"48204"}],"inspectionsByEstablishmentidList":[{"inspectionid":"43799","inspectionDate":"2018-10-18T00:00:00","inspectionType":"Routine Inspection","inCompliance":"No","violationsByInspectionidList":[{"violationCode":"6-501.111","violationDescription":"The presence of insects, rodents, and other pests shall be controlled to minimize their presence on the PREMISES.  by:\r\n(A) Routinely inspecting incoming shipments of FOOD and supplies; \r\n(B) Routinely inspecting the PREMISES for evidence of pests;\r\n(C) Using methods, if pests are found, such as trapping devices or other means of pest control as specified.(Pf) \r\n(D) Eliminating harborage conditions. \r\n","violationType":"Foundation","itemDescription":"Pest(s)","subItem":"gnats","problemDescription":"Present in facility","subProblem":"","location":"FACILITY","subLocation":"At the Handsink","corrected":"No","daysToCorrect":"10.0","correctedDate":null,"correctionDescription":"Remove pests from facility."},{"violationCode":"4-601.11","violationDescription":"(A) EQUIPMENT FOOD-CONTACT SURFACES and UTENSILS shall be clean to sight and touch. (Pf)\r\n(B) The FOOD-CONTACT SURFACES of cooking EQUIPMENT and pans shall be kept free of encrusted grease deposits and other soil accumulations. \r\n(C) NonFOOD-CONTACT SURFACES of EQUIPMENT shall be kept free of an accumulation of dust, dirt, FOOD residue, and other debris. \r\n","violationType":"Foundation","itemDescription":"Food-contact surface(s)","subItem":"Utensil(s) tongs","problemDescription":"Soiled","subProblem":"","location":"DISHWASHING AREA","subLocation":"On the Rack(s)","corrected":"Yes","daysToCorrect":"10.0","correctedDate":"2018-10-18T00:00:00","correctionDescription":"Clean."},{"violationCode":"6-501.12","violationDescription":"(A) PHYSICAL FACILITIES shall be cleaned as often as necessary to keep them clean.\r\n(B) Except spill cleanup, cleaning shall be done during periods when the least amount of FOOD is exposed such as after closing. ","violationType":"Core","itemDescription":"Physical facilities/structures","subItem":"floors","problemDescription":"Not clean","subProblem":"","location":"FACILITY","subLocation":"","corrected":"Not required","daysToCorrect":"30.0","correctedDate":null,"correctionDescription":"Clean"},{"violationCode":"4-501.11","violationDescription":"EQUIPMENT shall be maintained in a state of repair and condition that meets the requirements of the code.\r\n","violationType":"Core","itemDescription":"Equipment","subItem":"","problemDescription":"In poor repair","subProblem":"","location":"FACILITY","subLocation":"At the Ice machine","corrected":"Not required","daysToCorrect":"30.0","correctedDate":null,"correctionDescription":null}]},{"inspectionid":"40028","inspectionDate":"2017-09-20T00:00:00","inspectionType":"Routine Inspection","inCompliance":"Yes","violationsByInspectionidList":[{"violationCode":"3-501.18","violationDescription":"A FOOD specified in ¶ 3-501.17(A) or (B) shall be discarded if it:  \r\n    (1) Exceeds the temperature and time combination specified in ¶ 3-501.17(A),              except time that the product is frozen; (P)\r\n    (2) Is in a container or PACKAGE that does not bear a date or day; (P) or\r\n    (3) Is appropriately marked with a date or day that exceeds a temperature and              time combination as specified in ¶ 3-501.17(A). (P)  \r\n\r\n","violationType":"Priority","itemDescription":"Ready to eat, potentially hazardous food(s)","subItem":"","problemDescription":"Beyond consume by date","subProblem":"","location":"WALK-IN COOLER","subLocation":"On the Shelves","corrected":"Yes","daysToCorrect":"10.0","correctedDate":"2017-09-20T00:00:00","correctionDescription":"Discard."},{"violationCode":"3-305.11","violationDescription":"FOOD shall be protected from contamination by storing the FOOD:\r\n(1)     In a clean, dry location;\r\n(2)     Where it is not exposed to splash, dust, or other contamination; and\r\n(3)     At least 15 cm (6 inches) above the floor, unless otherwise approved.\r\n","violationType":"Core","itemDescription":"Food item(s) in storage","subItem":"","problemDescription":"Stored on floor or less than 6 inches above floor","subProblem":"","location":"WALK-IN FREEZER","subLocation":"On the floor Food products","corrected":"Not required","daysToCorrect":"30.0","correctedDate":null,"correctionDescription":"Store at least 6 inches above the floor."},{"violationCode":"4-501.11","violationDescription":"EQUIPMENT shall be maintained in a state of repair and condition that meets the requirements of the code.\r\n","violationType":"Core","itemDescription":"Equipment","subItem":"","problemDescription":"In poor repair","subProblem":"","location":"RESTAURANT","subLocation":"At the Equipment","corrected":"Not required","daysToCorrect":"30.0","correctedDate":null,"correctionDescription":"Repair"},{"violationCode":"6-303.11","violationDescription":"Light of the proper intensity shall be provided as specified.\r\n","violationType":"Core","itemDescription":"Lighting intensity","subItem":"at work levels","problemDescription":"Not maintained","subProblem":"","location":"WALK-IN FREEZER","subLocation":"At the Lights","corrected":"Not required","daysToCorrect":"30.0","correctedDate":null,"correctionDescription":"Maintain in good repair"},{"violationCode":"2-401.11","violationDescription":"(A)    An EMPLOYEE shall eat, drink, or use any form of tobacco only in designated areas where the contamination of exposed FOOD; clean EQUIPMENT, UTENSILS, and LINENS; unwrapped SINGLE-SERVICE and SINGLE-USE ARTICLES; or other items needing protection can not result.\r\n(B)     A FOOD EMPLOYEE may drink from a closed BEVERAGE container if the container is handled to prevent contamination of:\r\n         (1)     The EMPLOYEE'S hands;\r\n         (2)     The container; and\r\n         (3)     Exposed FOOD; clean EQUIPMENT, UTENSILS, and LINENS; and unwrapped SINGLE-SERVICE and SINGLE-USE ARTICLES.\r\n","violationType":"Core","itemDescription":"Beverage container","subItem":"","problemDescription":"Not covered","subProblem":"","location":"KITCHEN","subLocation":"At the Uncovered beverage container","corrected":"Yes","daysToCorrect":"30.0","correctedDate":"2017-09-20T00:00:00","correctionDescription":"Keep covered."}]}]}]}},"pageContext":{"eid":"1709"}}