{"componentChunkName":"component---src-templates-establishment-page-js","path":"/establishment/2681","result":{"data":{"site":{"pathPrefix":"/restaurant-inspections"},"postgres":{"establishment":[{"establishmentid":"2681","name":"Beijing China","address":"1136 Seven Mile Rd. E.","zipcode":"48203","owner":"Wen Hui Ma","licenseNumber":"062154","licenseType":"Fixed Establishment","establishmentType":"Food Service Establishment","establishmentStatus":"Permanently Closed","riskCategory":null,"reviewFrequencyDays":"150","coords":"-83.09183,42.43241","geojson":{"id":"2681","type":"Feature","geometry":{"type":"Point","coordinates":[-83.091830519,42.43241335]},"properties":{"name":"Beijing China","owner":"Wen Hui Ma","address":"1136 Seven Mile Rd. E.","zipcode":"48203","license_type":"Fixed Establishment","risk_category":null,"license_number":"062154","establishmentid":"2681","establishment_type":"Food Service Establishment","establishment_status":"Permanently Closed","review_frequency_days":"150","most_recent_license_date":"4/16/2015"}},"nearbyList":[{"establishmentid":"51623130","name":"Beijing China","address":"1136 Seven Mile E.","zipcode":"48203"},{"establishmentid":"5339","name":"Liangs Beijing","address":"1136 Seven Mile Rd. E.","zipcode":"48203"},{"establishmentid":"1713","name":"Aunt Bessie's Bar-B-Q","address":"1141 Seven Mile Rd. E.","zipcode":"48203"},{"establishmentid":"5281","name":"Davison Fish N Seafood LLC","address":"1520 Seven Mile E.","zipcode":"48203"},{"establishmentid":"897","name":"Nolan Junior High School","address":"1150 Lantz E.","zipcode":"48238"},{"establishmentid":"682","name":"Mr. Mapps Lounge","address":"1627 Seven Mile Rd. E.","zipcode":"48203"},{"establishmentid":"51623333","name":"Jeds Detroit/ AMV Hospitality Group","address":"1648 Seven Mile. E","zipcode":"48203"},{"establishmentid":"2724","name":"Grinder 2","address":"1648 Seven Mile Rd. E.","zipcode":"48203"},{"establishmentid":"1234","name":"Field Trainable Center","address":"19670 Cameron","zipcode":"48238"},{"establishmentid":"3063","name":"Variety Vending","address":"301 Grixdale E.","zipcode":"48203"}],"inspectionsByEstablishmentidList":[{"inspectionid":"53917","inspectionDate":"2021-01-21T00:00:00","inspectionType":"Routine Inspection","inCompliance":"Yes","violationsByInspectionidList":[{"violationCode":"6-501.11","violationDescription":"PHYSICAL FACILITIES shall be maintained in good repair.\n","violationType":"Core","itemDescription":"Physical facilities","subItem":null,"problemDescription":"In poor repair","subProblem":null,"location":"CEILING","subLocation":null,"corrected":"False","daysToCorrect":"30","correctedDate":null,"correctionDescription":null},{"violationCode":"3-501.13","violationDescription":"POTENTIALLY HAZARDOUS FOOD (TIME/TEMPERATURE CONTROL FOR SAFETY FOOD)  shall be thawed:  Under refrigeration, or under cool running water (<70° F), or as part of cooking process, and total accumulated time above 41° F, for thawed portions, shall not exceed 4 hours.  Any thawing procedure may be used for immediate service for individual consumers order of READY-TO-EAT foods.\n","violationType":"Core","itemDescription":"Frozen food(s) for thawing","subItem":null,"problemDescription":"Stored above 41 degrees F thawed or partially thawed","subProblem":null,"location":"COUNTER","subLocation":null,"corrected":"True","daysToCorrect":"30","correctedDate":"2021-01-21T00:00:00","correctionDescription":null},{"violationCode":"4-602.13","violationDescription":"NonFOOD-CONTACT SURFACES of EQUIPMENT shall be cleaned at a frequency necessary to preclude accumulation of soil residues.\n","violationType":"Core","itemDescription":"Nonfood contact surface(s)","subItem":null,"problemDescription":"Soiled","subProblem":null,"location":"COUNTER","subLocation":null,"corrected":"False","daysToCorrect":"30","correctedDate":null,"correctionDescription":null}]}]}],"maxInspectionDate":[{"inspectionDate":"2022-08-31T00:00:00"}]}},"pageContext":{"eid":"2681"}},"staticQueryHashes":["3649515864","63159454"]}