{"componentChunkName":"component---src-templates-establishment-page-js","path":"/establishment/51623048","result":{"data":{"site":{"pathPrefix":"/restaurant-inspections"},"postgres":{"establishment":[{"establishmentid":"51623048","name":"Cold Truth","address":"2135 Michigan","zipcode":"48206","owner":"Timothy Mahoney","licenseNumber":"238156","licenseType":"Fixed Establishment","establishmentType":"Food Service Establishment","establishmentStatus":"Open","riskCategory":"High","reviewFrequencyDays":"75","coords":"-83.07583,42.33114","geojson":{"id":"51623048","type":"Feature","geometry":{"type":"Point","coordinates":[-83.075833393,42.3311384]},"properties":{"name":"Cold Truth","owner":"Timothy Mahoney","address":"2135 Michigan","zipcode":"48206","license_type":"Fixed Establishment","risk_category":"High","license_number":"238156","establishmentid":"51623048","establishment_type":"Food Service Establishment","establishment_status":"Open","review_frequency_days":"75","most_recent_license_date":"2019-07-03"}},"nearbyList":[{"establishmentid":"51622645","name":"Grandma Bobs Pizza","address":"2135 Michigan Ave.","zipcode":"48216"},{"establishmentid":"3745","name":"Mercury Burger Bar","address":"2163 Michigan Ave.","zipcode":"48216"},{"establishmentid":"4300","name":"Sugar House","address":"2130 Michigan Ave.","zipcode":"48216"},{"establishmentid":"2950","name":"Slows BBQ","address":"2138 Michigan Ave.","zipcode":"48216"},{"establishmentid":"4306","name":"Astro Coffee","address":"2124 Michigan Ave.","zipcode":"48216"},{"establishmentid":"284","name":"L J'S Sweetheart bar","address":"2114 Michigan Ave.","zipcode":"48216"},{"establishmentid":"4904","name":"Gold Cash Gold","address":"2100 Michigan","zipcode":"48216"},{"establishmentid":"51623570","name":"Ima Corktown","address":"2100 Michigan Ave.","zipcode":"48216"},{"establishmentid":"592","name":"Gaelic League Irish American Club","address":"2066-68 Michigan","zipcode":"48216"},{"establishmentid":"4674","name":"Rubbed","address":"2015 Michigan Ave.","zipcode":"48216"}],"inspectionsByEstablishmentidList":[{"inspectionid":"52138","inspectionDate":"2020-07-28T00:00:00","inspectionType":"Closed - permenant","inCompliance":"Yes","violationsByInspectionidList":[]},{"inspectionid":"51577","inspectionDate":"2020-04-21T00:00:00","inspectionType":"COVID19-temp closed","inCompliance":"Yes","violationsByInspectionidList":[]},{"inspectionid":"50278","inspectionDate":"2020-01-07T00:00:00","inspectionType":"Routine Inspection","inCompliance":"Yes","violationsByInspectionidList":[{"violationCode":"4-601.11","violationDescription":"(A) EQUIPMENT FOOD-CONTACT SURFACES and UTENSILS shall be clean to sight and touch. (Pf)\n(B) The FOOD-CONTACT SURFACES of cooking EQUIPMENT and pans shall be kept free of encrusted grease deposits and other soil accumulations. \n(C) NonFOOD-CONTACT SURFACES of EQUIPMENT shall be kept free of an accumulation of dust, dirt, FOOD residue, and other debris. \n","violationType":"Foundation","itemDescription":"Food-contact surface(s)","subItem":"","problemDescription":"With accumulation of debris","subProblem":"","location":"ICE CREAM MACHINE","subLocation":"","corrected":"True","daysToCorrect":"10","correctedDate":"2020-03-16T00:00:00","correctionDescription":null}]},{"inspectionid":"49556","inspectionDate":"2019-10-20T00:00:00","inspectionType":"Routine Inspection","inCompliance":"Yes","violationsByInspectionidList":[{"violationCode":"4-602.13","violationDescription":"NonFOOD-CONTACT SURFACES of EQUIPMENT shall be cleaned at a frequency necessary to preclude accumulation of soil residues.\n","violationType":"Core","itemDescription":"Nonfood contact surface(s)","subItem":"","problemDescription":"Soiled","subProblem":"","location":"ICE CREAM MACHINE","subLocation":"","corrected":"False","daysToCorrect":"30","correctedDate":null,"correctionDescription":null}]},{"inspectionid":"48389","inspectionDate":"2019-07-17T00:00:00","inspectionType":"Routine Inspection","inCompliance":"Yes","violationsByInspectionidList":[]},{"inspectionid":"48342","inspectionDate":"2019-07-11T00:00:00","inspectionType":"Plan Review/Pre-Open","inCompliance":"Yes","violationsByInspectionidList":[]}]}],"maxInspectionDate":[{"inspectionDate":"2023-04-25T00:00:00"}]}},"pageContext":{"eid":"51623048"}},"staticQueryHashes":["3649515864","63159454"]}