{"data":{"site":{"pathPrefix":"/restaurant-inspections"},"postgres":{"establishment":[{"establishmentid":"51622598","name":"Clarks Smokehouse Grill","address":"2440 E Seven Mile Rd","zipcode":"48234","owner":"Myron Clark","licenseNumber":"217973","licenseType":"Fixed Establishment","establishmentType":"Food Service Establishment","establishmentStatus":"Temporarily Closed","riskCategory":null,"reviewFrequencyDays":"365.0","coords":"-83.07766,42.43261","geojson":{"id":"51622598","type":"Feature","geometry":{"type":"Point","coordinates":[-83.0776584079999,42.4326140430001]},"properties":{"name":"Clarks Smokehouse Grill","owner":"Myron Clark","address":"2440 E Seven Mile Rd","zipcode":"48234","license_type":"Fixed Establishment","risk_category":null,"license_number":"217973","establishmentid":"51622598","establishment_type":"Food Service Establishment","establishment_status":"Temporarily Closed","review_frequency_days":"365.0","most_recent_license_date":null}},"nearbyList":[{"establishmentid":"1197","name":"Yiu Chan Restaurant","address":"2415 E Seven Mile Rd","zipcode":"48234"},{"establishmentid":"4486","name":"Christian Guidance Center","address":"19211 Anglin St","zipcode":"48234"},{"establishmentid":"1398","name":"Asian Corned Beef","address":"2847 E Seven Mile Rd","zipcode":"48234"},{"establishmentid":"337","name":"Happy's Pizza #2","address":"2855 E Seven Mile Rd","zipcode":"48234"},{"establishmentid":"686","name":"West Indian Amerian Assn","address":"2015 E Seven Mile Rd","zipcode":"48234"},{"establishmentid":"3621","name":"Nunn's Bar-B-Que Restaurant II","address":"19196 Conant Ave","zipcode":"48234"},{"establishmentid":"3072","name":"Munchee's Mania","address":"19310 Conant Ave","zipcode":"48234"},{"establishmentid":"250","name":"Erotic City","address":"19326 Conant Ave","zipcode":"48234"},{"establishmentid":"51622580","name":"The New  Conant Street Grill","address":"19132 Conant St","zipcode":"48234"},{"establishmentid":"51622584","name":"Conant St. Grill","address":"19132 Conant ","zipcode":"48234"}],"inspectionsByEstablishmentidList":[{"inspectionid":"44529","inspectionDate":"2018-12-20T00:00:00","inspectionType":"Closed - Temporary","inCompliance":"Yes","violationsByInspectionidList":[]},{"inspectionid":"44530","inspectionDate":"2018-09-20T00:00:00","inspectionType":"Closed - left messag","inCompliance":"Yes","violationsByInspectionidList":[]},{"inspectionid":"40955","inspectionDate":"2017-10-20T00:00:00","inspectionType":"Routine Inspection","inCompliance":"No","violationsByInspectionidList":[{"violationCode":"7-204.11","violationDescription":"Chemical SANITIZERS and other chemical antimicrobials applied to FOOD-CONTACT SURFACES shall meet the requirements specified in this code. (P)\r\n","violationType":"Priority","itemDescription":"Sanitizer(s)","subItem":"","problemDescription":"Do not comply with law","subProblem":"","location":"3 COMPARTMENT SINK AREA","subLocation":"","corrected":"Yes","daysToCorrect":"10.0","correctedDate":"2017-10-20T00:00:00","correctionDescription":"Provide labels that comply with law."},{"violationCode":"4-302.14","violationDescription":"A test kit or other device that accurately measures the concentration in mg/L of SANITIZING solutions shall be provided. (Pf)\r\n","violationType":"Foundation","itemDescription":"Sanitizer test kit","subItem":"","problemDescription":"Not provided","subProblem":"","location":"3 COMPARTMENT SINK AREA","subLocation":"","corrected":"No","daysToCorrect":"10.0","correctedDate":null,"correctionDescription":"Provide as required"},{"violationCode":"3-305.11","violationDescription":"FOOD shall be protected from contamination by storing the FOOD:\r\n(1)     In a clean, dry location;\r\n(2)     Where it is not exposed to splash, dust, or other contamination; and\r\n(3)     At least 15 cm (6 inches) above the floor, unless otherwise approved.\r\n","violationType":"Core","itemDescription":"Food item(s) in storage","subItem":"","problemDescription":"Exposed to dust, splash, or other contaminates","subProblem":"","location":"COOLER","subLocation":"","corrected":"Yes","daysToCorrect":"30.0","correctedDate":"2017-10-20T00:00:00","correctionDescription":"Store in manner that does not contaminate items"}]}]}],"maxInspectionDate":[{"inspectionDate":"2019-01-31T00:00:00"}]}},"pageContext":{"eid":"51622598"}}