{"data":{"site":{"pathPrefix":"/restaurant-inspections"},"postgres":{"establishment":[{"establishmentid":"5343","name":"Oakland International Academy","address":"4001 Miller St","zipcode":null,"owner":"Oakland International Academy","licenseNumber":"208207","licenseType":"Fixed Establishment","establishmentType":"Non-Public School","establishmentStatus":null,"riskCategory":"Medium","reviewFrequencyDays":"210","coords":"-83.04106,42.39065","geojson":{"id":"5343","type":"Feature","geometry":{"type":"Point","coordinates":[-83.041055778,42.390654475]},"properties":{"name":"Oakland International Academy","owner":"Oakland International Academy","address":"4001 Miller St","zipcode":null,"license_type":"Fixed Establishment","risk_category":"Medium","license_number":"208207","establishmentid":"5343","establishment_type":"Non-Public School","establishment_status":null,"review_frequency_days":"210","most_recent_license_date":"8/2/2016"}},"nearbyList":[{"establishmentid":"4777","name":"Mr. Primo Softy","address":"8215 Winkelman Street","zipcode":"48211"},{"establishmentid":"5218","name":"S & A Ice Cream","address":"8189 Winkelman St","zipcode":"48211"},{"establishmentid":"5342","name":"Oakland International Academy","address":"6111 Miller St","zipcode":"48211"},{"establishmentid":"5344","name":"Oakland International Academy","address":"8228 Conant St","zipcode":"48211"},{"establishmentid":"51623019","name":"Detroit Soft Serve","address":"6116 Georgia St","zipcode":"48211"},{"establishmentid":"4810","name":"U.S.A Ice Cream","address":"4069 Dodge St","zipcode":"48211"},{"establishmentid":"51623058","name":"D Ice Cream","address":"3876 Oliver St","zipcode":"48212"},{"establishmentid":"4005","name":"M H Soft Serve","address":"4177 Dodge St","zipcode":"48211"},{"establishmentid":"3944","name":"Ice Cream Land","address":"6338 Selkirk St","zipcode":"48211"},{"establishmentid":"51623014","name":"Saleh Ice Cream","address":"6356 Selkirk St","zipcode":"48211"}],"inspectionsByEstablishmentidList":[{"inspectionid":"48020","inspectionDate":"2019-06-11T00:00:00","inspectionType":"Routine Inspection","inCompliance":"Yes","violationsByInspectionidList":[{"violationCode":"4-101.11","violationDescription":"Materials that are used in the construction of UTENSILS and FOOD-CONTACT SURFACES of EQUIPMENT  shall be :\r\n(A) Safe;(P)\r\n(B) Durable, CORROSION-RESISTANT, and nonabsorbent;\r\n(C) Sufficient in weight and thickness to withstand repeated WAREWASHING;\r\n(D) Finished to have a SMOOTH, EASILY CLEANABLE surface; and \r\n(E) Resistant to pitting, chipping, crazing, scratching, scoring, distortion, and  decomposition.\r\n","violationType":"Core","itemDescription":"Food-contact surface(s) and utensils","subItem":"","problemDescription":"Constructed from materials that are not","subProblem":"Finished to be smooth & easily cleanable","location":"HANDSINK(S)","subLocation":"","corrected":"Not required","daysToCorrect":"10","correctedDate":null,"correctionDescription":null},{"violationCode":"6-501.11","violationDescription":"PHYSICAL FACILITIES shall be maintained in good repair.\r\n","violationType":"Core","itemDescription":"Physical facilities","subItem":"","problemDescription":"In poor repair","subProblem":"","location":"KITCHEN","subLocation":"","corrected":"Not required","daysToCorrect":"30","correctedDate":null,"correctionDescription":null}]},{"inspectionid":"42458","inspectionDate":"2018-06-05T00:00:00","inspectionType":"Routine Inspection","inCompliance":"Yes","violationsByInspectionidList":[{"violationCode":"6-501.12","violationDescription":"(A) PHYSICAL FACILITIES shall be cleaned as often as necessary to keep them clean.\r\n(B) Except spill cleanup, cleaning shall be done during periods when the least amount of FOOD is exposed such as after closing. ","violationType":"Core","itemDescription":"Physical facilities/structures","subItem":"","problemDescription":"Not clean","subProblem":"","location":"KITCHEN","subLocation":"","corrected":"Not required","daysToCorrect":"30","correctedDate":null,"correctionDescription":"Clean"}]}]}],"maxInspectionDate":[{"inspectionDate":"2020-10-30T00:00:00"}]}},"pageContext":{"eid":"5343"}}