{"componentChunkName":"component---src-templates-establishment-page-js","path":"/establishment/51623143","result":{"data":{"site":{"pathPrefix":"/restaurant-inspections"},"postgres":{"establishment":[{"establishmentid":"51623143","name":"Ace of Spades","address":"19245 8 mile W","zipcode":"48219","owner":"Justin Kallo","licenseNumber":"241574","licenseType":"Fixed Establishment","establishmentType":"Food Service Establishment","establishmentStatus":"Open","riskCategory":"High","reviewFrequencyDays":"150","coords":"-83.23304,42.44366","geojson":{"id":"51623143","type":"Feature","geometry":{"type":"Point","coordinates":[-83.233041019,42.443662616]},"properties":{"name":"Ace of Spades","owner":"Justin Kallo","address":"19245 8 mile W","zipcode":"48219","license_type":"Fixed Establishment","risk_category":"High","license_number":"241574","establishmentid":"51623143","establishment_type":"Food Service Establishment","establishment_status":"Open","review_frequency_days":"150","most_recent_license_date":"20/1/2020"}},"nearbyList":[{"establishmentid":"2455","name":"Ace of Spades","address":"19245 Eight Mile Rd. W.","zipcode":"48219"},{"establishmentid":"2717","name":"Checkers ","address":"19801 Eight Mile Rd. W.","zipcode":"48219"},{"establishmentid":"867","name":"Henry Ford High School","address":"20000 Evergreen Rd.","zipcode":"48219"},{"establishmentid":"2355","name":"Nicky D's Coney Island","address":"20001 Eight Mile Rd. W.","zipcode":"48219"},{"establishmentid":"4423","name":"AVI- Children's Center of Wayne County","address":"19900 Evergreen Rd.","zipcode":"48216"},{"establishmentid":"2600","name":"Michigan Technical Academy","address":"19900 Evergreen Ave.","zipcode":"48219"},{"establishmentid":"3732","name":"M & S Grill","address":"19952 Vaughan","zipcode":"48234"},{"establishmentid":"738","name":"Roseland Bar & Grill","address":"18401 Eight Mile Rd. W.","zipcode":"48219"},{"establishmentid":"2816","name":"J J's Fish and Chicken","address":"20225 Eight Mile Rd. W.","zipcode":"48219"},{"establishmentid":"3349","name":"JJ's Fish & Chicken","address":"20225  Eight Mile W.","zipcode":"48234"}],"inspectionsByEstablishmentidList":[{"inspectionid":"59281","inspectionDate":"2022-04-21T00:00:00","inspectionType":"Routine Inspection","inCompliance":"Yes","violationsByInspectionidList":[]},{"inspectionid":"56143","inspectionDate":"2021-10-05T00:00:00","inspectionType":"Routine Inspection","inCompliance":"Yes","violationsByInspectionidList":[]},{"inspectionid":"53992","inspectionDate":"2021-02-03T00:00:00","inspectionType":"Routine Inspection","inCompliance":"Yes","violationsByInspectionidList":[{"violationCode":"7-102.11","violationDescription":"Working containers used for storing POISONOUS OR TOXIC MATERIALS such as cleaners and SANITIZERS taken from bulk supplies shall be clearly and individually identified with the common name of the material. (Pf)\n","violationType":"Foundation","itemDescription":"Working containers-toxics","subItem":"cleaner","problemDescription":"Not labeled as to content","subProblem":"","location":"3 COMPARTMENT SINK AREA","subLocation":"","corrected":"True","daysToCorrect":"10","correctedDate":"0001-01-01T00:00:00","correctionDescription":null}]},{"inspectionid":"49746","inspectionDate":"2019-11-06T00:00:00","inspectionType":"Routine Inspection","inCompliance":"Yes","violationsByInspectionidList":[{"violationCode":"3-302.11","violationDescription":"(A) FOOD shall be protected from cross contamination by:  \n(1) Except as specified in (1)(c) below, separating raw animal FOODS during         storage, preparation, holding, and display from:\n(a) Raw READY-TO-EAT FOOD including other raw animal FOOD such as FISH for sushi or MOLLUSCAN SHELLFISH, or other raw READY-TO-EAT FOOD such as fruits and vegetables,(P) and\n(b) Cooked READY-TO-EAT FOOD; (P)\n(c) Frozen, commercially processed and packaged raw animal FOOD may be          stored or displayed with or above frozen, commercially processed and           packaged, ready-to-eat food.\n(2) Except when combined as ingredients, separating types of raw animal FOODS    from each other such as beef, FISH, lamb, pork, and POULTRY during storage,        preparation, holding, and display by:\n(a) Using separate EQUIPMENT for each type, (P) or\n(b) Arranging each type of FOOD in EQUIPMENT so that cross contamination of one type with another is prevented, (P) and\n(c) Preparing each type of FOOD at different times or in separate areas; (P)\n","violationType":"Priority","itemDescription":"Raw animal food(s)","subItem":"","problemDescription":"Stored over/next to","subProblem":"Raw ready-to-eat food(s) Vegetable(s)","location":"WALK-IN COOLER","subLocation":"","corrected":"True","daysToCorrect":"10","correctedDate":"2011-01-06T00:00:00","correctionDescription":null}]}]}],"maxInspectionDate":[{"inspectionDate":"2023-04-13T00:00:00"}]}},"pageContext":{"eid":"51623143"}},"staticQueryHashes":["3649515864","63159454"]}