{"data":{"postgres":{"establishment":[{"establishmentid":"5405","name":"It'z a Wrap","address":"17400 W Grand River","zipcode":"48227","owner":"Musheya Glenn","licenseNumber":"218043","licenseType":"Fixed Establishment","establishmentType":"Food Service Establishment","establishmentStatus":null,"riskCategory":null,"reviewFrequencyDays":"180.0","coords":"-83.21310,42.39886","geojson":{"id":"5405","type":"Feature","geometry":{"type":"Point","coordinates":[-83.213098289,42.3988584520001]},"properties":{"name":"It'z a Wrap","owner":"Musheya Glenn","address":"17400 W Grand River","zipcode":"48227","license_type":"Fixed Establishment","risk_category":null,"license_number":"218043","establishmentid":"5405","establishment_type":"Food Service Establishment","establishment_status":null,"review_frequency_days":"180.0","most_recent_license_date":"4/28/2017"}},"nearbyList":[{"establishmentid":"2296","name":"Wendy's Old Fashioned Hamburgers #2259","address":"17420 Grand River Ave","zipcode":"48227"},{"establishmentid":"1222","name":"Edison Elementary School","address":"17045 Grand River Ave","zipcode":"48227"},{"establishmentid":"2691","name":"Checkers","address":"17630 Grand River Ave","zipcode":"48227"},{"establishmentid":"2100","name":"Popeye's Chicken & Biscuits #6095","address":"17700 Grand River Ave","zipcode":"48227"},{"establishmentid":"1501","name":"Tubby's Sub Shop #75","address":"16543 Grand River Ave","zipcode":"48227"},{"establishmentid":"2413","name":"White Castle #58","address":"17739 Grand River Ave","zipcode":"48227"},{"establishmentid":"2649","name":"Subway #30489","address":"17776 Grand River Ave","zipcode":"48227"},{"establishmentid":"5165","name":"Papa's Pizza","address":"16501 Grand River","zipcode":"48227"},{"establishmentid":"2386","name":"Kentucky Fried Chicken F428107","address":"17750 Fenkell Ave","zipcode":"48227"},{"establishmentid":"787","name":"Omega Grill","address":"18130 Fenkell Ave","zipcode":"48223"},{"establishmentid":"1582","name":"Communication and Media Arts School","address":"14771 Mansfield","zipcode":"48227"},{"establishmentid":"5417","name":"Brooklyn Fish and Chicken","address":"18354 Fenkell Ave","zipcode":"48223"},{"establishmentid":"2345","name":"Subway #11686/Mama Delucas","address":"18288 Grand River Ave","zipcode":"48223"},{"establishmentid":"2045","name":"McDonald's #567","address":"18403 Grand River Ave","zipcode":"48223"},{"establishmentid":"5237","name":"Metro Fish & Seafood LLC","address":"18440 Grand River","zipcode":"48223"},{"establishmentid":"51622571","name":"River Bistro Detroit","address":"18456 Grand River Ave","zipcode":"48223"},{"establishmentid":"2078","name":"Universal Coney Island","address":"15951 Grand River Ave","zipcode":"48227"},{"establishmentid":"435","name":"Chita's Nefertiti's Bar","address":"15942 Grand River Ave","zipcode":"48227"},{"establishmentid":"2669","name":"Fish Express","address":"18509 Grand River Ave","zipcode":"48223"},{"establishmentid":"5420","name":"La Kabob Grill ","address":"18616 Fenkell","zipcode":"48223"}],"inspectionsByEstablishmentidList":[{"inspectionid":"43653","inspectionDate":"2018-10-02T00:00:00","inspectionType":"Routine Inspection","inCompliance":"No","violationsByInspectionidList":[{"violationCode":"6-301.11","violationDescription":"Each HANDWASHING SINK or group of 2 adjacent HANDWASHING SINKS shall be provided with a supply of hand cleaning liquid, powder, or bar soap. (Pf)\r\n","violationType":"Foundation","itemDescription":"Soap","subItem":"at handsink front","problemDescription":"Not provided","subProblem":"At hand sink","location":"HANDSINK(S)","subLocation":"","corrected":"No","daysToCorrect":"10.0","correctedDate":null,"correctionDescription":"Provide"},{"violationCode":"7-102.11","violationDescription":"Working containers used for storing POISONOUS OR TOXIC MATERIALS such as cleaners and SANITIZERS taken from bulk supplies shall be clearly and individually identified with the common name of the material. (Pf)\r\n","violationType":"Foundation","itemDescription":"Working containers-toxics","subItem":"sanitizer","problemDescription":"Not labeled as to content","subProblem":"","location":"HANDSINK(S)","subLocation":"","corrected":"Yes","daysToCorrect":"10.0","correctedDate":"2018-10-02T00:00:00","correctionDescription":"Label containers with common name."}]},{"inspectionid":"41889","inspectionDate":"2018-04-10T00:00:00","inspectionType":"Routine Inspection","inCompliance":"Yes","violationsByInspectionidList":[{"violationCode":"6-301.14","violationDescription":"A sign or poster that notifies FOOD EMPLOYEES to wash their hands shall be provided at all HANDWASHING SINKS used by FOOD EMPLOYEES and shall be clearly visible to FOOD EMPLOYEES.\r\n","violationType":"Core","itemDescription":"Handwashing signage","subItem":"Not provided At hand sink","problemDescription":"Not provided","subProblem":"At hand sink","location":"HANDSINK(S)","subLocation":"","corrected":"Not required","daysToCorrect":"30.0","correctedDate":null,"correctionDescription":"Provide"}]},{"inspectionid":"40605","inspectionDate":"2017-10-25T00:00:00","inspectionType":"Routine Inspection","inCompliance":"Yes","violationsByInspectionidList":[{"violationCode":"6-301.12","violationDescription":"Each HANDWASHING SINK or group of adjacent HANDWASHING SINKS shall be provided with:\r\n(A) Individual, disposable towels; (Pf)\r\n(B) A continuous towel system that supplies the user with a clean towel;(Pf) or \r\n(C) A heated-air hand drying device.(Pf)\r\n(D) A hand drying device that employs an air-knife system that delivers high velocity pressurized air at ambient temperatures.(Pf)\r\n","violationType":"Foundation","itemDescription":"Sanitary hand drying provisions","subItem":"disposable, paper towels","problemDescription":"Not provided","subProblem":"At hand sink","location":"HANDSINK(S)","subLocation":"","corrected":"Yes","daysToCorrect":"10.0","correctedDate":"2017-10-25T00:00:00","correctionDescription":"Provide"},{"violationCode":"6-301.14","violationDescription":"A sign or poster that notifies FOOD EMPLOYEES to wash their hands shall be provided at all HANDWASHING SINKS used by FOOD EMPLOYEES and shall be clearly visible to FOOD EMPLOYEES.\r\n","violationType":"Core","itemDescription":"Handwashing signage","subItem":"Not provided At hand sink","problemDescription":"Not provided","subProblem":"At hand sink","location":"HANDSINK(S)","subLocation":"","corrected":"Not required","daysToCorrect":"30.0","correctedDate":null,"correctionDescription":"Provide"}]},{"inspectionid":"39086","inspectionDate":"2017-06-16T00:00:00","inspectionType":"Complaint","inCompliance":"Yes","violationsByInspectionidList":[{"violationCode":"3-201.11","violationDescription":"FOOD shall be obtained from sources that comply with LAW (P); \r\nand properly labeled as required (Pf), \r\nFOOD prepared in a private home may not be used or offered for human consumption in a FOOD ESTABLISHMENT. (P)","violationType":"Priority","itemDescription":"Food source(s)","subItem":"","problemDescription":"Do not comply with law","subProblem":"","location":"KITCHEN","subLocation":"","corrected":"Yes","daysToCorrect":"10.0","correctedDate":"2017-06-16T00:00:00","correctionDescription":"Remove from facility."}]},{"inspectionid":"38607","inspectionDate":"2017-04-18T00:00:00","inspectionType":"Routine Inspection","inCompliance":"Yes","violationsByInspectionidList":[{"violationCode":"3-302.11","violationDescription":"(A) FOOD shall be protected from cross contamination by:  \r\n(1) Except as specified in (1)(c) below, separating raw animal FOODS during         storage, preparation, holding, and display from:\r\n(a) Raw READY-TO-EAT FOOD including other raw animal FOOD such as FISH for sushi or MOLLUSCAN SHELLFISH, or other raw READY-TO-EAT FOOD such as fruits and vegetables,(P) and\r\n(b) Cooked READY-TO-EAT FOOD; (P)\r\n(c) Frozen, commercially processed and packaged raw animal FOOD may be          stored or displayed with or above frozen, commercially processed and           packaged, ready-to-eat food.\r\n(2) Except when combined as ingredients, separating types of raw animal FOODS    from each other such as beef, FISH, lamb, pork, and POULTRY during storage,        preparation, holding, and display by:\r\n(a) Using separate EQUIPMENT for each type, (P) or\r\n(b) Arranging each type of FOOD in EQUIPMENT so that cross contamination of one type with another is prevented, (P) and\r\n(c) Preparing each type of FOOD at different times or in separate areas; (P)\r\n","violationType":"Priority","itemDescription":"Raw animal food(s)","subItem":"","problemDescription":"Stored over/next to","subProblem":"Ready-to-eat food(s)","location":"PERSON IN CHARGE","subLocation":"","corrected":"Yes","daysToCorrect":"10.0","correctedDate":"2017-04-18T00:00:00","correctionDescription":"Store raw animal foods below and away from foods needing little or no further prep."},{"violationCode":"3-501.17","violationDescription":"(A)  READY-TO-EAT, POTENTIALLY HAZARDOUS FOOD (TIME/TEMPERATURE CONTROL FOR SAFETY FOOD)  prepared and held refrigerated for more than 24 hours in a FOOD ESTABLISHMENT  shall be clearly marked at the time of preparation to indicate the date or day by which the FOOD shall be consumed. (Pf)\r\n(B)  A container of refrigerated, commercially prepared READY-TO-EAT POTENTIALLY HAZARDOUS FOOD (TIME/TEMPERATURE CONTROL FOR SAFETY FOOD)  shall be clearly marked, at the time the original container is opened in a FOOD ESTABLISHMENT, to indicate the date or day by which the FOOD shall be consumed. (Pf)\r\n\r\nA date marking system that does not exceed 7 days, including date of preparation, or opening is to be used. (Pf)\r\n","violationType":"Foundation","itemDescription":"In house prepared ready-to-eat potentially hazardous  food(s)","subItem":"","problemDescription":"Without date of consumption marking","subProblem":"","location":"KITCHEN","subLocation":"","corrected":"Yes","daysToCorrect":"10.0","correctedDate":"2017-04-18T00:00:00","correctionDescription":"Datemark with a discard date of 7 days or less."}]}]}]}},"pageContext":{"eid":"5405"}}