{"data":{"postgres":{"establishment":[{"establishmentid":"5142","name":"Menchie's Frozen Yogurt","address":"3990 John R St","zipcode":"48201","owner":"Louis N. Messina","licenseNumber":"083424","licenseType":"Fixed Establishment","establishmentType":"Food Service Establishment","establishmentStatus":"Open","riskCategory":"Medium","reviewFrequencyDays":"365.0","coords":"-83.05697,42.35067","geojson":{"id":"5142","type":"Feature","geometry":{"type":"Point","coordinates":[-83.0569670039999,42.350668985]},"properties":{"name":"Menchie's Frozen Yogurt","owner":"Louis N. Messina","address":"3990 John R St","zipcode":"48201","license_type":"Fixed Establishment","risk_category":"Medium","license_number":"083424","establishmentid":"5142","establishment_type":"Food Service Establishment","establishment_status":"Open","review_frequency_days":"365.0","most_recent_license_date":"5/7/2018"}},"nearbyList":[{"establishmentid":"4846","name":"Salemi Subway, Inc","address":"4 E Alexandrine St., Ste. 100","zipcode":"48221"},{"establishmentid":"1263","name":"Bicentennial Towers  ","address":"4 E Alexandrine St","zipcode":"48201"},{"establishmentid":"3470","name":"Starbucks Coffee","address":"3670 Woodward Ave","zipcode":"48202"},{"establishmentid":"4996","name":"Children's Hospital of Michigan","address":"3901 Beaubien St","zipcode":"48201"},{"establishmentid":"5279","name":"Childrens Cafe Stores LLC/Biggby","address":"3901 Beaubien St","zipcode":"48201"},{"establishmentid":"3870","name":"Subway #11819","address":"3901 Beaubien St","zipcode":"48201"},{"establishmentid":"4842","name":"Woodward Garden Venue/The Block","address":"3919 Woodward Ave","zipcode":"48201"},{"establishmentid":"4862","name":"Woodward Garden Venue/Theater Bar","address":"3919 Woodward Ave","zipcode":"48201"},{"establishmentid":"4930","name":"Great Lakes Coffee Beanery","address":"311 Mack Ave","zipcode":"48201"},{"establishmentid":"808","name":"Detroit Urban League","address":"208 Mack Ave","zipcode":"48201"},{"establishmentid":"3070","name":"Detroit Symphony Orchestra Hall","address":"3711 Woodward Ave","zipcode":"48201"},{"establishmentid":"589","name":"Majestic Cafe/The Majestic Theater","address":"4120 Woodward Ave","zipcode":"48201"},{"establishmentid":"5059","name":"Popolux","address":"4120 Woodward Ave","zipcode":"48201"},{"establishmentid":"4345","name":"The Magic Stick/Alley Deck","address":"4120 Woodward Ave","zipcode":"48201"},{"establishmentid":"4408","name":"The Great Lakes Coffee Roasting Co.","address":"3965 Woodward Ave","zipcode":"48201"},{"establishmentid":"4344","name":"Sgt. Pepperoni's Pizzaria & Deli/GB","address":"4140 Woodward Ave","zipcode":"48201"},{"establishmentid":"1098","name":"Union Street Detroit","address":"4145 Woodward Ave","zipcode":"48201"},{"establishmentid":"4818","name":"Midtown Zef's","address":"4160 Woodward Ave","zipcode":"48201"},{"establishmentid":"1092","name":"St. Patrick Senior Center, Inc.","address":"58 Parsons St","zipcode":"48201"},{"establishmentid":"5277","name":"Detroit Receiving Sub Shops LLC/Subway","address":"4201 St Antoine St","zipcode":"48202"}],"inspectionsByEstablishmentidList":[{"inspectionid":"42452","inspectionDate":"2018-06-04T00:00:00","inspectionType":"Routine Inspection","inCompliance":"Yes","violationsByInspectionidList":[{"violationCode":"7-201.11","violationDescription":"POISONOUS OR TOXIC MATERIAL shall be stored so they can not contaminate FOOD, EQUIPMENT, UTENSILS, LINENS, AND SINGLE-SERVICE AND SINGLE-USE ARTICLES by:   \r\n(A) Separating the POISONOUS OR TOXIC MATERIAL by spacing or partitioning; (P) and   \r\n(B) Locating the POISONOUS OR TOXIC MATERIAL in an area that is not above FOOD, EQUIPMENT, UTENSILS, LINENS, AND SINGLE-SERVICE AND SINGLE-USE ARTICLES.  This paragraph does not apply to EQUIPMENT and UTENSIL cleaners and sanitizers that are stored in WAREWASHING areas for availability and convenience if the materials are stored to prevent contamination of FOOD, EQUIPMENT, UTENSILS, LINENS, AND SINGLE-SERVICE and SINGLE-USE ARTICLES. (P)","violationType":"Priority","itemDescription":"Poisonous/toxic material(s)","subItem":"","problemDescription":"Not separated from","subProblem":"Food","location":"KITCHEN","subLocation":"cart(s)","corrected":"Yes","daysToCorrect":"10.0","correctedDate":"2018-06-04T00:00:00","correctionDescription":"Provide adequate separation to prevent contamination."},{"violationCode":"7-202.12","violationDescription":"POISONOUS OR TOXIC MATERIALS shall be:    \r\n(A) Used according to:      \r\n(1) LAW and this Code,   \r\n(2) Manufacturer's use directions included in labeling, and, for a pesticide, manufacturer's label instructions that state that use is allowed in a FOOD ESTABLISHMENT, (P)   \r\n(3) The conditions of certification, if certification is required, for use of the pest control materials, (P) and   \r\n(4) Additional conditions that may be established by the REGULATORY AUTHORITY; and\r\n(B) Applied so that:      \r\n(1) A HAZARD to EMPLOYEES or other PERSONS is not constituted, (P) and   \r\n(2) Contamination including toxic residues due to drip, drain, fog, splash or spray on FOOD, EQUIPMENT, UTENSILS, LINENS, AND SINGLE-SERVICE AND SINGLE-USE ARTICLES is prevented, and for a RESTRICTED USE PESTICIDE, this is achieved by: (P)      \r\n(a) Removing the items, (P)   \r\n(b) Covering the items with impermeable covers, (P) or   \r\n(c) Taking other appropriate preventive actions, (P) and   \r\n(d) Cleaning and SANITIZING EQUIPMENT and UTENSILS after the application. (P)  \r\n(C) A RESTRICTED USE PESTICIDE shall be applied only by an applicator certified as defined in 7 USC 136 Definitions, (e) Certified Applicator, of the Federal Insecticide, Fungicide, and Rodenticide Act, or a PERSON under the direct supervision of a certified applicator. (Pf)","violationType":"Priority","itemDescription":"Poisonous/toxic material(s)","subItem":"","problemDescription":"Not used according to manufacturer's label instructions","subProblem":"","location":"KITCHEN","subLocation":"Throughout","corrected":"Yes","daysToCorrect":"10.0","correctedDate":"2018-06-04T00:00:00","correctionDescription":"Use according to manufacturer label directions."},{"violationCode":"4-903.11","violationDescription":"Cleaned EQUIPMENT and UTENSILS, laundered LINENS, and SINGLE-SERVICE and SINGLE-USE ARTICLES shall be stored in an approved manner and location.\r\n","violationType":"Core","itemDescription":"Single-service/single-use article(s)","subItem":"","problemDescription":"Stored on floor or less than 6 inches above floor","subProblem":"","location":"BASEMENT STOREROOM","subLocation":"","corrected":"Not required","daysToCorrect":"30.0","correctedDate":null,"correctionDescription":"Store at least 6 inches above the floor."},{"violationCode":"4-501.14","violationDescription":"A WAREWASHING machine; the compartments of sinks, basins, or  other receptacles used for washing and rinsing EQUIPMENT, UTENSILS, or raw FOODS, or laundering wiping cloths; and drainboards or other EQUIPMENT used to substitute for drainboards shall be cleaned as required.\r\n","violationType":"Core","itemDescription":"Warewashing equipment","subItem":"three compartment sink basins","problemDescription":"Not cleaned","subProblem":"Through out the day as necessary","location":"3 COMPARTMENT SINK AREA","subLocation":"KITCHEN","corrected":"Not required","daysToCorrect":"30.0","correctedDate":null,"correctionDescription":"Clean as specified above."}]},{"inspectionid":"38753","inspectionDate":"2017-05-18T00:00:00","inspectionType":"Routine Inspection","inCompliance":"Yes","violationsByInspectionidList":[{"violationCode":"3-101.11","violationDescription":"FOOD shall be safe, unADULTERATED and honestly presented. (P)\r\n","violationType":"Priority","itemDescription":"Food","subItem":"","problemDescription":"Misbranded","subProblem":"","location":"WALK-IN COOLER","subLocation":"","corrected":"Yes","daysToCorrect":"10.0","correctedDate":"2017-05-18T00:00:00","correctionDescription":null}]}]}]}},"pageContext":{"eid":"5142"}}