{"data":{"site":{"pathPrefix":"/restaurant-inspections"},"postgres":{"establishment":[{"establishmentid":"4436","name":"Domino's Pizza","address":"10437 W McNichols Rd","zipcode":"48221","owner":"Luxor Pizza, LLC","licenseNumber":"073995","licenseType":"Fixed Establishment","establishmentType":"Food Service Establishment","establishmentStatus":"Plan Review","riskCategory":"Medium","reviewFrequencyDays":"180.0","coords":"-83.16546,42.41657","geojson":{"id":"4436","type":"Feature","geometry":{"type":"Point","coordinates":[-83.1654567799999,42.416565828]},"properties":{"name":"Domino's Pizza","owner":"Luxor Pizza, LLC","address":"10437 W McNichols Rd","zipcode":"48221","license_type":"Fixed Establishment","risk_category":"Medium","license_number":"073995","establishmentid":"4436","establishment_type":"Food Service Establishment","establishment_status":"Plan Review","review_frequency_days":"180.0","most_recent_license_date":"4/18/2019"}},"nearbyList":[{"establishmentid":"1160","name":"Caribbean Citchen","address":"10500 W McNichols Rd","zipcode":"48221"},{"establishmentid":"5340","name":"Spud HeadZ Food Truck","address":"10601 W McNichols Rd","zipcode":"48221"},{"establishmentid":"1228","name":"Lon's Coney Island","address":"10741 W McNichols Rd","zipcode":"48221"},{"establishmentid":"850","name":"Schulze Elementary School","address":"10700 Santa Maria","zipcode":"48221"},{"establishmentid":"4920","name":"Right Production Catering","address":"16676 James Couzens ","zipcode":"48228"},{"establishmentid":"1379","name":"Oscar's Coney Island #6","address":"10000 W McNichols Rd","zipcode":"48221"},{"establishmentid":"911","name":"Mumford High School","address":"17525 Wyoming Ave","zipcode":"48221"},{"establishmentid":"1304","name":"Popeye's Chicken & Biscuits","address":"16900 Meyers Rd","zipcode":"48235"},{"establishmentid":"4374","name":"Captain Jay's Fish & Chicken #112","address":"16907 Meyers","zipcode":"48235"},{"establishmentid":"1998","name":"MLK, Jr. Education Center","address":"16827 Appoline St","zipcode":"48235"}],"inspectionsByEstablishmentidList":[{"inspectionid":"44556","inspectionDate":"2018-12-19T00:00:00","inspectionType":"Routine Inspection","inCompliance":"Yes","violationsByInspectionidList":[]},{"inspectionid":"42824","inspectionDate":"2018-07-05T00:00:00","inspectionType":"Routine Inspection","inCompliance":"Yes","violationsByInspectionidList":[]},{"inspectionid":"39789","inspectionDate":"2017-08-30T00:00:00","inspectionType":"Routine Inspection","inCompliance":"Yes","violationsByInspectionidList":[]},{"inspectionid":"38009","inspectionDate":"2017-02-10T00:00:00","inspectionType":"Routine Inspection","inCompliance":"No","violationsByInspectionidList":[{"violationCode":"5-205.11","violationDescription":"(A) A HANDWASHING SINK shall be maintained so that it is accessible at all times for EMPLOYEE use and used for no other purpose. (Pf)\r\n(B)  An automatic handwashing facility shall be used in accordance with manufacturer's instructions. (Pf)\r\n","violationType":"Foundation","itemDescription":"Handwashing sink(s)","subItem":"","problemDescription":"Used for culinary purposes","subProblem":"","location":"HANDSINK(S)","subLocation":"","corrected":"Yes","daysToCorrect":"10.0","correctedDate":"2017-02-10T00:00:00","correctionDescription":"Discontinue use of hand sink for this use and use appropriate sink."},{"violationCode":"3-501.17","violationDescription":"(A)  READY-TO-EAT, POTENTIALLY HAZARDOUS FOOD (TIME/TEMPERATURE CONTROL FOR SAFETY FOOD)  prepared and held refrigerated for more than 24 hours in a FOOD ESTABLISHMENT  shall be clearly marked at the time of preparation to indicate the date or day by which the FOOD shall be consumed. (Pf)\r\n(B)  A container of refrigerated, commercially prepared READY-TO-EAT POTENTIALLY HAZARDOUS FOOD (TIME/TEMPERATURE CONTROL FOR SAFETY FOOD)  shall be clearly marked, at the time the original container is opened in a FOOD ESTABLISHMENT, to indicate the date or day by which the FOOD shall be consumed. (Pf)\r\n\r\nA date marking system that does not exceed 7 days, including date of preparation, or opening is to be used. (Pf)\r\n","violationType":"Foundation","itemDescription":"Commercially processed ready to eat potentially hazardous food(s)","subItem":"","problemDescription":"Improperly date marked","subProblem":"","location":"WALK-IN COOLER","subLocation":"","corrected":"No","daysToCorrect":"10.0","correctedDate":null,"correctionDescription":"Establishment shall provide a clear date marking system."}]},{"inspectionid":"36453","inspectionDate":"2016-09-14T00:00:00","inspectionType":"Routine Inspection","inCompliance":"Yes","violationsByInspectionidList":[{"violationCode":"5-501.17","violationDescription":"A toilet room used by females shall be provided with a covered receptacle for sanitary napkins.\r\n","violationType":"Core","itemDescription":"Covered waste receptacle(s)","subItem":"in ladies restroom","problemDescription":"Not provided","subProblem":"","location":"RESTROOM (UNISEX)","subLocation":"At the Garbage receptacle(s)","corrected":"Not required","daysToCorrect":"30.0","correctedDate":null,"correctionDescription":"Provide."}]}]}],"maxInspectionDate":[{"inspectionDate":"2019-03-31T00:00:00"}]}},"pageContext":{"eid":"4436"}}