{"data":{"site":{"pathPrefix":"/restaurant-inspections"},"postgres":{"establishment":[{"establishmentid":"703","name":"Roberto Clemente Elementary","address":"1551 Beard St","zipcode":"48209","owner":"BRD OF EDUCATION DETROIT CITY","licenseNumber":"034662","licenseType":"Fixed Establishment","establishmentType":"Public School","establishmentStatus":"Open","riskCategory":null,"reviewFrequencyDays":"210.0","coords":"-83.11607,42.30937","geojson":{"id":"703","type":"Feature","geometry":{"type":"Point","coordinates":[-83.11607229,42.3093727570001]},"properties":{"name":"Roberto Clemente Elementary","owner":"BRD OF EDUCATION DETROIT CITY","address":"1551 Beard St","zipcode":"48209","license_type":"Fixed Establishment","risk_category":null,"license_number":"034662","establishmentid":"703","establishment_type":"Public School","establishment_status":"Open","review_frequency_days":"210.0","most_recent_license_date":"4/15/2019"}},"nearbyList":[{"establishmentid":"732","name":"Sidekicks Saloon","address":"7023 Chatsfield St","zipcode":"48209"},{"establishmentid":"3304","name":"Cesar Chavez Middle School","address":"6782 Goldsmith St","zipcode":"48209"},{"establishmentid":"735","name":"Happy Bar","address":"1247 Green St N","zipcode":"48209"},{"establishmentid":"1650","name":"Dino's Cafe Inc.","address":"1601 Waterman St","zipcode":"48209"},{"establishmentid":"2343","name":"Cesar Chavez Academy High School","address":"1761 Waterman","zipcode":"48209"},{"establishmentid":"3926","name":"Taqueria Camino Real","address":"1100 Central","zipcode":"48209"},{"establishmentid":"51622712","name":"Tacos Regios Mexican Grill","address":"2257 Waterman St","zipcode":"48209"},{"establishmentid":"4792","name":"Las Palmas Neveria Y Cafeteria","address":"7009 Vernor Hwy","zipcode":"48209"},{"establishmentid":"675","name":"Motz  Restaurant Inc","address":"7208 Fort St W","zipcode":"48209"},{"establishmentid":"2224","name":"El Asador","address":"1312 Springwells Ave","zipcode":"48209"}],"inspectionsByEstablishmentidList":[{"inspectionid":"44332","inspectionDate":"2018-12-04T00:00:00","inspectionType":"Routine Inspection","inCompliance":"Yes","violationsByInspectionidList":[{"violationCode":"4-501.11","violationDescription":"EQUIPMENT shall be maintained in a state of repair and condition that meets the requirements of the code.\r\n","violationType":"Core","itemDescription":"Equipment","subItem":"","problemDescription":"Broken","subProblem":"","location":"KITCHEN","subLocation":"Equipment","corrected":"Not required","daysToCorrect":"30.0","correctedDate":null,"correctionDescription":"Repair/replace."}]},{"inspectionid":"41254","inspectionDate":"2017-11-15T00:00:00","inspectionType":"Routine Inspection","inCompliance":"Yes","violationsByInspectionidList":[]},{"inspectionid":"38801","inspectionDate":"2017-05-17T00:00:00","inspectionType":"Routine Inspection","inCompliance":"Yes","violationsByInspectionidList":[{"violationCode":"3-501.16","violationDescription":"Except during preparation, cooking, or cooling, or when time is used as the public health control POTENTIALLY HAZARDOUS FOOD (TIME/TEMPERATURE CONTROL FOR SAFETY FOOD) shall be maintained:\r\n(A)  135ºF or above, except that roasts properly cooked and cooled may be held              at a temperature of 130ºF; or (P)\r\n(B)   At 41ºF or less (P)\r\n","violationType":"Priority","itemDescription":null,"subItem":"","problemDescription":null,"subProblem":"","location":"KITCHEN","subLocation":"","corrected":"Yes","daysToCorrect":"10.0","correctedDate":"2017-05-17T00:00:00","correctionDescription":null}]},{"inspectionid":"37062","inspectionDate":"2016-10-24T00:00:00","inspectionType":"Routine Inspection","inCompliance":"Yes","violationsByInspectionidList":[]}]}],"maxInspectionDate":[{"inspectionDate":"2019-03-31T00:00:00"}]}},"pageContext":{"eid":"703"}}