{"data":{"postgres":{"establishment":[{"establishmentid":"5107","name":"Mighty Sub Shop","address":"17602 W Seven Mile","zipcode":"48235","owner":"Dennis Reed II","licenseNumber":"202799","licenseType":"Fixed Establishment","establishmentType":"Food Service Establishment","establishmentStatus":"Permanently Closed","riskCategory":"High","reviewFrequencyDays":"180.0","coords":"-83.21617,42.43016","geojson":{"id":"5107","type":"Feature","geometry":{"type":"Point","coordinates":[-83.21617272,42.430157529]},"properties":{"name":"Mighty Sub Shop","owner":"Dennis Reed II","address":"17602 W Seven Mile","zipcode":"48235","license_type":"Fixed Establishment","risk_category":"High","license_number":"202799","establishmentid":"5107","establishment_type":"Food Service Establishment","establishment_status":"Permanently Closed","review_frequency_days":"180.0","most_recent_license_date":null}},"nearbyList":[{"establishmentid":"51622648","name":"Great Lakes Sport Bar","address":"17602 W Seven Mile Rd","zipcode":"48235"},{"establishmentid":"5246","name":"Jamaica Jamaica Restaurant","address":"17550 W Seven Mile Rd","zipcode":"48227"},{"establishmentid":"352","name":"Lon's Coney Island","address":"17501 W Seven Mile Rd","zipcode":"48235"},{"establishmentid":"5355","name":"Los Chapos Restaurante Mexicano","address":"17805 W Seven Mile Rd","zipcode":"48235"},{"establishmentid":"51622600","name":"Mr. Corn Beef","address":"17819 W Seven Mile Rd","zipcode":"48235"},{"establishmentid":"1267","name":"Church's Fried Chicken #991","address":"18138 W Seven Mile Rd","zipcode":"48219"},{"establishmentid":"1305","name":"Teenie's Deli Inc.","address":"18244 W Seven Mile Rd","zipcode":"48219"},{"establishmentid":"51622494","name":"Saxony Lounge","address":"18300 W Seven Mile Rd","zipcode":"48219"},{"establishmentid":"4168","name":"Star Lite Bar & Grill","address":"18300 W Seven Mile Rd","zipcode":"48219"},{"establishmentid":"4974","name":"Motor City Sweet Shop","address":"16311 W Seven Mile Rd","zipcode":"48235"}],"inspectionsByEstablishmentidList":[{"inspectionid":"38194","inspectionDate":"2017-02-21T00:00:00","inspectionType":"Routine Inspection","inCompliance":"Yes","violationsByInspectionidList":[{"violationCode":"3-301.11","violationDescription":"(A) To prevent food contamination FOOD EMPLOYEES shall properly wash their      hands.\r\n(B) FOOD EMPLOYEES may not contact exposed, READY-TO-EAT FOOD with      their bare hands and shall use suitable UTENSILS such as deli tissue,       spatulas, tongs, single-use gloves, or dispensing EQUIPMENT. (P)\r\n(C) FOOD EMPLOYEES shall minimize bare hand and arm contact with exposed     FOOD that is not in a READY-TO-EAT form. (Pf)\r\n\r\n","violationType":"Priority","itemDescription":"Ready-to-eat food(s)","subItem":"","problemDescription":"Handled with bare hands","subProblem":"","location":"PREP AREA(S)","subLocation":"","corrected":"Yes","daysToCorrect":"10.0","correctedDate":"2017-02-21T00:00:00","correctionDescription":"Suitable utensils or single-use gloves are to be utilized."},{"violationCode":"3-501.16","violationDescription":"Except during preparation, cooking, or cooling, or when time is used as the public health control POTENTIALLY HAZARDOUS FOOD (TIME/TEMPERATURE CONTROL FOR SAFETY FOOD) shall be maintained:\r\n(A)  135ºF or above, except that roasts properly cooked and cooled may be held              at a temperature of 130ºF; or (P)\r\n(B)   At 41ºF or less (P)\r\n","violationType":"Priority","itemDescription":"Cold food item(s)","subItem":"","problemDescription":"Stored above 41 degrees F","subProblem":"","location":"TOP LOADER","subLocation":"","corrected":"Yes","daysToCorrect":"10.0","correctedDate":"2017-02-21T00:00:00","correctionDescription":"Store below 41 degrees F."}]}]}]}},"pageContext":{"eid":"5107"}}