{"data":{"site":{"pathPrefix":"/restaurant-inspections"},"postgres":{"establishment":[{"establishmentid":"51623235","name":"Motor City Casino - FanDuel Sportsbook","address":"2901 Grand River Ave","zipcode":"48201","owner":"Detroit Entertainment LLC","licenseNumber":"PS050690","licenseType":"Fixed Establishment","establishmentType":"Food Service Establishment","establishmentStatus":"Open","riskCategory":null,"reviewFrequencyDays":"90.0","coords":"-83.06763,42.33944","geojson":{"id":"51623235","type":"Feature","geometry":{"type":"Point","coordinates":[-83.067633488,42.339439114]},"properties":{"name":"Motor City Casino - FanDuel Sportsbook","owner":"Detroit Entertainment LLC","address":"2901 Grand River Ave","zipcode":"48201","license_type":"Fixed Establishment","risk_category":null,"license_number":"PS050690","establishmentid":"51623235","establishment_type":"Food Service Establishment","establishment_status":"Open","review_frequency_days":"90.0","most_recent_license_date":null}},"nearbyList":[{"establishmentid":"4776","name":"Motor City Casino - First Floor Service ","address":"2901 Grand River Ave ","zipcode":"48201"},{"establishmentid":"4847","name":"Motor City Casino - Food/Beverage Cart","address":"2901 Grand River Ave","zipcode":"48201"},{"establishmentid":"3725","name":"Motor City Casino- Club Amnesia","address":"2901 Grand River Ave","zipcode":"48201"},{"establishmentid":"4659","name":"Motor City Casino- Expansion Service Bar","address":"2901 Grand River Ave","zipcode":"48201"},{"establishmentid":"4114","name":"Motor City Casino - Concierge Lounge","address":"2901 Grand River Ave","zipcode":"48201"},{"establishmentid":"3770","name":"Motor City Casino - Associates Dining Rm","address":"2901 Grand River Ave","zipcode":"48201"},{"establishmentid":"3769","name":"Motor City Casino - Assembly Line Buffet","address":"2901 Grand River Ave","zipcode":"48201"},{"establishmentid":"3779","name":"Motor City Casino - Chromatics Bar","address":"2901 Grand River Ave","zipcode":"48201"},{"establishmentid":"3782","name":"Motor City Casino- 2nd flr service bar","address":"2901 Grand River Ave","zipcode":"48201"},{"establishmentid":"5027","name":"Motor City Casino - Food Truck","address":"2901 Grand River Ave","zipcode":"48201"}],"inspectionsByEstablishmentidList":[{"inspectionid":"53113","inspectionDate":"2020-10-16T00:00:00","inspectionType":"Routine Inspection","inCompliance":"Yes","violationsByInspectionidList":[{"violationCode":"6-301.11","violationDescription":"Each HANDWASHING SINK or group of 2 adjacent HANDWASHING SINKS shall be provided with a supply of hand cleaning liquid, powder, or bar soap. (Pf)\r\n","violationType":"Foundation","itemDescription":"Soap","subItem":"at handsink bar","problemDescription":"Not provided","subProblem":"At hand sink","location":"BAR","subLocation":"","corrected":"Yes","daysToCorrect":"10","correctedDate":"2020-10-16T00:00:00","correctionDescription":null},{"violationCode":"6-301.12","violationDescription":"Each HANDWASHING SINK or group of adjacent HANDWASHING SINKS shall be provided with:\r\n(A) Individual, disposable towels; (Pf)\r\n(B) A continuous towel system that supplies the user with a clean towel;(Pf) or \r\n(C) A heated-air hand drying device.(Pf)\r\n(D) A hand drying device that employs an air-knife system that delivers high velocity pressurized air at ambient temperatures.(Pf)\r\n","violationType":"Foundation","itemDescription":"Sanitary hand drying provisions","subItem":"disposable, paper towels","problemDescription":"Not provided","subProblem":"At hand sink","location":"BAR (SERVICE)","subLocation":"","corrected":"Yes","daysToCorrect":"10","correctedDate":"2020-10-16T00:00:00","correctionDescription":null},{"violationCode":"6-301.14","violationDescription":"A sign or poster that notifies FOOD EMPLOYEES to wash their hands shall be provided at all HANDWASHING SINKS used by FOOD EMPLOYEES and shall be clearly visible to FOOD EMPLOYEES.\r\n","violationType":"Core","itemDescription":"Handwashing signage","subItem":"","problemDescription":"Not provided","subProblem":"At hand sink","location":"HANDSINK(S)","subLocation":"","corrected":"Not required","daysToCorrect":"30","correctedDate":null,"correctionDescription":null}]}]}],"maxInspectionDate":[{"inspectionDate":"2020-10-30T00:00:00"}]}},"pageContext":{"eid":"51623235"}}