{"data":{"site":{"pathPrefix":null},"postgres":{"establishment":[{"establishmentid":"4164","name":"Disabled Am. Vets K-R Metro Chp. No.1","address":"13221 Puritan Ave","zipcode":"48227","owner":"Keane-Rankin Chpt. No. 1","licenseNumber":"069664","licenseType":"Fixed Establishment","establishmentType":"Food Service Establishment","establishmentStatus":"Open","riskCategory":null,"reviewFrequencyDays":"365.0","coords":"-83.17545,42.40922","geojson":{"id":"4164","type":"Feature","geometry":{"type":"Point","coordinates":[-83.17544881,42.4092217960001]},"properties":{"name":"Disabled Am. Vets K-R Metro Chp. No.1","owner":"Keane-Rankin Chpt. No. 1","address":"13221 Puritan Ave","zipcode":"48227","license_type":"Fixed Establishment","risk_category":null,"license_number":"069664","establishmentid":"4164","establishment_type":"Food Service Establishment","establishment_status":"Open","review_frequency_days":"365.0","most_recent_license_date":"4/27/2018"}},"nearbyList":[{"establishmentid":"5391","name":"Desmond's Elegant Affairs","address":"12924 Puritan Ave","zipcode":"48227"},{"establishmentid":"1406","name":"Christland Missionary Baptist Church","address":"12901 Puritan Ave","zipcode":"48227"},{"establishmentid":"1873","name":"Suite 100","address":"15789 Schaefer Hwy","zipcode":"48227"},{"establishmentid":"2405","name":"Mark's A. Eagles #4 Coney Island","address":"12701 Puritan Ave","zipcode":"48227"},{"establishmentid":"3582","name":"Lincoln-King Academy","address":"13436 Grove St","zipcode":"48235"},{"establishmentid":"1998","name":"MLK, Jr. Education Center","address":"16827 Appoline","zipcode":"48235"},{"establishmentid":"1913","name":"Happy's Pizza #4","address":"16850 Schaefer Hwy","zipcode":"48235"},{"establishmentid":"5175","name":"Gunny Ray's Shrimp & Chicken","address":"15391 Schaefer Hwy","zipcode":"48227"},{"establishmentid":"519","name":"Connie & Barbara Restaurant","address":"13101 W McNichols Rd","zipcode":"48235"},{"establishmentid":"4253","name":"Golden Bowl Chop Suey","address":"13337 W McNichols Rd","zipcode":"48235"}],"inspectionsByEstablishmentidList":[{"inspectionid":"44852","inspectionDate":"2019-01-11T00:00:00","inspectionType":"Routine Inspection","inCompliance":"Yes","violationsByInspectionidList":[{"violationCode":"7-202.12","violationDescription":"POISONOUS OR TOXIC MATERIALS shall be:    \r\n(A) Used according to:      \r\n(1) LAW and this Code,   \r\n(2) Manufacturer's use directions included in labeling, and, for a pesticide, manufacturer's label instructions that state that use is allowed in a FOOD ESTABLISHMENT, (P)   \r\n(3) The conditions of certification, if certification is required, for use of the pest control materials, (P) and   \r\n(4) Additional conditions that may be established by the REGULATORY AUTHORITY; and\r\n(B) Applied so that:      \r\n(1) A HAZARD to EMPLOYEES or other PERSONS is not constituted, (P) and   \r\n(2) Contamination including toxic residues due to drip, drain, fog, splash or spray on FOOD, EQUIPMENT, UTENSILS, LINENS, AND SINGLE-SERVICE AND SINGLE-USE ARTICLES is prevented, and for a RESTRICTED USE PESTICIDE, this is achieved by: (P)      \r\n(a) Removing the items, (P)   \r\n(b) Covering the items with impermeable covers, (P) or   \r\n(c) Taking other appropriate preventive actions, (P) and   \r\n(d) Cleaning and SANITIZING EQUIPMENT and UTENSILS after the application. (P)  \r\n(C) A RESTRICTED USE PESTICIDE shall be applied only by an applicator certified as defined in 7 USC 136 Definitions, (e) Certified Applicator, of the Federal Insecticide, Fungicide, and Rodenticide Act, or a PERSON under the direct supervision of a certified applicator. (Pf)","violationType":"Priority","itemDescription":"Poisonous/toxic material(s)","subItem":"","problemDescription":"Not used according to manufacturer's label instructions","subProblem":"","location":"KITCHEN","subLocation":"","corrected":"Yes","daysToCorrect":"10.0","correctedDate":"2019-01-11T00:00:00","correctionDescription":"Use according to manufacturer label directions."},{"violationCode":"5-501.17","violationDescription":"A toilet room used by females shall be provided with a covered receptacle for sanitary napkins.\r\n","violationType":"Core","itemDescription":"Covered waste receptacle(s)","subItem":"","problemDescription":"Not provided","subProblem":"","location":"RESTROOM (EMPLOYEE)","subLocation":"","corrected":"Not required","daysToCorrect":"30.0","correctedDate":null,"correctionDescription":"Provide as required"}]},{"inspectionid":"40558","inspectionDate":"2017-10-24T00:00:00","inspectionType":"Routine Inspection","inCompliance":"Yes","violationsByInspectionidList":[]}]}]}},"pageContext":{"eid":"4164"}}