{"data":{"postgres":{"establishment":[{"establishmentid":"1263","name":"Bicentennial Towers  ","address":"4 E Alexandrine St","zipcode":"48201","owner":"PK Management","licenseNumber":"083439","licenseType":"Fixed Establishment","establishmentType":"Food Service Establishment","establishmentStatus":"Open","riskCategory":"Medium","reviewFrequencyDays":"365.0","coords":"-83.05872,42.35070","geojson":{"id":"1263","type":"Feature","geometry":{"type":"Point","coordinates":[-83.058724228,42.350697095]},"properties":{"name":"Bicentennial Towers  ","owner":"PK Management","address":"4 E Alexandrine St","zipcode":"48201","license_type":"Fixed Establishment","risk_category":"Medium","license_number":"083439","establishmentid":"1263","establishment_type":"Food Service Establishment","establishment_status":"Open","review_frequency_days":"365.0","most_recent_license_date":"4/13/2018"}},"nearbyList":[{"establishmentid":"4862","name":"Woodward Garden Venue/Theater Bar","address":"3919 Woodward Ave","zipcode":"48201"},{"establishmentid":"4842","name":"Woodward Garden Venue/The Block","address":"3919 Woodward Ave","zipcode":"48201"},{"establishmentid":"4345","name":"The Magic Stick/Alley Deck","address":"4120 Woodward Ave","zipcode":"48201"},{"establishmentid":"589","name":"Majestic Cafe/The Majestic Theater","address":"4120 Woodward Ave","zipcode":"48201"},{"establishmentid":"5059","name":"Popolux","address":"4120 Woodward Ave","zipcode":"48201"},{"establishmentid":"4408","name":"The Great Lakes Coffee Roasting Co.","address":"3965 Woodward Ave","zipcode":"48201"},{"establishmentid":"4344","name":"Sgt. Pepperoni's Pizzaria & Deli/GB","address":"4140 Woodward Ave","zipcode":"48201"},{"establishmentid":"1098","name":"Union Street Detroit","address":"4145 Woodward Ave","zipcode":"48201"},{"establishmentid":"4994","name":"Harper Hutzel Hospital ","address":"3990 John R","zipcode":"48201"},{"establishmentid":"51622827","name":"Kit Chen Thai at DMC","address":"3990 John R St","zipcode":"48201"},{"establishmentid":"5136","name":"Estia Greek Street Food","address":"3990 John R","zipcode":"48201"},{"establishmentid":"5138","name":"Sukhothai DMC","address":"3990 John R","zipcode":"48201"},{"establishmentid":"51622761","name":"Nia's Greek Grille LLC.","address":"3990 John R St","zipcode":"48201"},{"establishmentid":"5134","name":"Starbucks","address":"3990 John R St","zipcode":"48201"},{"establishmentid":"5198","name":"Bigalora Wood Fired Cucina","address":"3990 John R","zipcode":"48201"},{"establishmentid":"3631","name":"Quizno's Sub","address":"3990 John R St","zipcode":"48201"},{"establishmentid":"3807","name":"Great Lakes Coffee Beanery","address":"3990 John R St","zipcode":"48201"},{"establishmentid":"51622634","name":"Chick-Fil-A","address":"3990 John R St","zipcode":"48201"},{"establishmentid":"5137","name":"Detroit Burger Bar","address":"3990 John R St","zipcode":"48201"},{"establishmentid":"5135","name":"Chiqui Mexican","address":"3990 John R ","zipcode":"48201"}],"inspectionsByEstablishmentidList":[{"inspectionid":"41121","inspectionDate":"2017-12-19T00:00:00","inspectionType":"Routine Inspection","inCompliance":"Yes","violationsByInspectionidList":[{"violationCode":"2-201.11","violationDescription":"The PERMIT HOLDER shall require FOOD EMPLOYEE applicants and  FOOD EMPLOYEES to report to the PERSON IN CHARGE,  information about their health and activities as they relate to diseases that are transmissible through FOOD. AND report the information in a manner that allows the PERSON IN CHARGE to prevent the likelihood of foodborne disease transmission.(P)\r\n","violationType":"Priority","itemDescription":"Person-in-charge","subItem":"","problemDescription":"Fail to require employees to report illness as rule requires","subProblem":"","location":"EMPLOYEE(S)","subLocation":"","corrected":"Yes","daysToCorrect":"10.0","correctedDate":"2017-12-19T00:00:00","correctionDescription":"Require reporting as stated above."},{"violationCode":"6-501.112","violationDescription":"Dead or trapped birds, insects, rodents, and other pests shall be removed from control devices and the PREMISES at a frequency that prevents their accumulation,  decomposition, or the attraction of pests.\r\n","violationType":"Core","itemDescription":"Dead/trapped pest(s)","subItem":"insects","problemDescription":"Not removed from facility","subProblem":"","location":"KITCHEN","subLocation":"","corrected":"Not required","daysToCorrect":"30.0","correctedDate":null,"correctionDescription":"Remove from facility/premises."},{"violationCode":"2-402.11","violationDescription":"FOOD EMPLOYEES shall wear hair restraints such as hats, hair coverings or nets, beard restraints, and clothing that covers body hair, that are designed and worn to effectively keep their hair from contacting exposed FOOD; clean EQUIPMENT, UTENSILS, and LINENS; or unwrapped SINGLE-SERVICE or SINGLE-USE ARTICLES.","violationType":"Core","itemDescription":"Hair restraint","subItem":"hair/beard net","problemDescription":"Not worn on head/hair","subProblem":"","location":"KITCHEN","subLocation":"","corrected":"Yes","daysToCorrect":"30.0","correctedDate":"2017-12-19T00:00:00","correctionDescription":"Provide hat or hair net."},{"violationCode":"4-903.11","violationDescription":"Cleaned EQUIPMENT and UTENSILS, laundered LINENS, and SINGLE-SERVICE and SINGLE-USE ARTICLES shall be stored in an approved manner and location.\r\n","violationType":"Core","itemDescription":"Clean equipment/utensil(s)","subItem":"","problemDescription":"Stored on floor or less than 6 inches above floor","subProblem":"","location":"KITCHEN STORAGE ROOM","subLocation":"","corrected":"Yes","daysToCorrect":"30.0","correctedDate":"2017-12-19T00:00:00","correctionDescription":"Store at least 6 inches above the floor."}]},{"inspectionid":"37681","inspectionDate":"2017-01-17T00:00:00","inspectionType":"Routine Inspection","inCompliance":"Yes","violationsByInspectionidList":[]},{"inspectionid":"37678","inspectionDate":"2017-01-13T00:00:00","inspectionType":"Routine Inspection","inCompliance":"Yes","violationsByInspectionidList":[]}]}]}},"pageContext":{"eid":"1263"}}