{"data":{"site":{"pathPrefix":"/restaurant-inspections"},"postgres":{"establishment":[{"establishmentid":"1113","name":"Ronald Brown Academy (Main Bldg.)","address":"11530 E Outer Dr","zipcode":"48224","owner":"Detroit Board of Education","licenseNumber":"035190","licenseType":"Fixed Establishment","establishmentType":"Public School","establishmentStatus":"Open","riskCategory":null,"reviewFrequencyDays":"210.0","coords":"-82.94832,42.40483","geojson":{"id":"1113","type":"Feature","geometry":{"type":"Point","coordinates":[-82.948321229,42.4048254840001]},"properties":{"name":"Ronald Brown Academy (Main Bldg.)","owner":"Detroit Board of Education","address":"11530 E Outer Dr","zipcode":"48224","license_type":"Fixed Establishment","risk_category":null,"license_number":"035190","establishmentid":"1113","establishment_type":"Public School","establishment_status":"Open","review_frequency_days":"210.0","most_recent_license_date":"4/15/2019"}},"nearbyList":[{"establishmentid":"3391","name":"Bethany Lutheran Church","address":"11475 E Outer Dr","zipcode":"48224"},{"establishmentid":"51623094","name":"Sunday Cakes & Plates","address":"5953 Courville St","zipcode":"48224"},{"establishmentid":"2861","name":"Jeanie's Lounge","address":"16200 E Warren Ave","zipcode":"48224"},{"establishmentid":"955","name":"Marvin L. Winans Academy K-8","address":"9740 McKinney St","zipcode":"48224"},{"establishmentid":"5250","name":"Warren Fresh Fish","address":"14900 E Warren","zipcode":"48224"},{"establishmentid":"5290","name":"Charlie's Jolly Cones","address":"9194 Whittier Ave","zipcode":"48224"},{"establishmentid":"1094","name":"Royal Skateland","address":"5201 Alter Rd","zipcode":"48224"},{"establishmentid":"4936","name":"Checker's Drive In Restuarant","address":"16511 Harper Rd","zipcode":"48224"},{"establishmentid":"51622845","name":"Flamzs","address":"16369 E Warren Ave","zipcode":"48224"},{"establishmentid":"51622692","name":"J's Wings-N-Things","address":"12250 E Outer Drive","zipcode":"48224"}],"inspectionsByEstablishmentidList":[{"inspectionid":"49488","inspectionDate":"2019-10-17T00:00:00","inspectionType":"Routine Inspection","inCompliance":"No","violationsByInspectionidList":[{"violationCode":"4-302.14","violationDescription":"A test kit or other device that accurately measures the concentration in mg/L of SANITIZING solutions shall be provided. (Pf)\r\n","violationType":"Foundation","itemDescription":"Sanitizer test kit","subItem":"quaternary ammonia","problemDescription":"Damaged","subProblem":"","location":"DISHWASHING AREA","subLocation":"At the Test strips","corrected":"No","daysToCorrect":"10.0","correctedDate":null,"correctionDescription":null},{"violationCode":"4-501.11","violationDescription":"EQUIPMENT shall be maintained in a state of repair and condition that meets the requirements of the code.\r\n","violationType":"Core","itemDescription":"Equipment components","subItem":"","problemDescription":"In poor repair","subProblem":"","location":"CAFETERIA","subLocation":"At the Cooler (milk)","corrected":"Not required","daysToCorrect":"30.0","correctedDate":null,"correctionDescription":null}]},{"inspectionid":"47980","inspectionDate":"2019-06-06T00:00:00","inspectionType":"Routine Inspection","inCompliance":"Yes","violationsByInspectionidList":[]},{"inspectionid":"44327","inspectionDate":"2018-12-03T00:00:00","inspectionType":"Routine Inspection","inCompliance":"Yes","violationsByInspectionidList":[{"violationCode":"4-204.112","violationDescription":"(A)  In a mechanically refrigerated or hot FOOD storage unit, the sensor of a TEMPERATURE MEASURING DEVICE shall be located to measure the air temperature in the warmest part of a mechanically refrigerated unit and in the coolest part of a hot FOOD storage unit.\r\n(B)  Cold or hot holding EQUIPMENT used for POTENTIALLY HAZARDOUS FOOD shall be designed to include and shall be equipped with at least one integral or permanently affixed TEMPERATURE MEASURING DEVICE that is located to allow easy viewing of the device's temperature display (EXCEPT, heat lamps, cold plates, steam tables, or other equipment where it is not practical).\r\n(C)  TEMPERATURE MEASURING DEVICES shall be designed to be easily readable.\r\n(D)  FOOD TEMPERATURE MEASURING DEVICES and water TEMPERATURE MEASURING DEVICES on WAREWASHING machines shall have a numerical scale, printed record, or digital readout in increments no greater than 1C or 2F in the intended range of use. (Pf)\r\n\r\n","violationType":"Core","itemDescription":"Thermometer(s)","subItem":"refrigeration","problemDescription":"Broken","subProblem":"","location":"CAFETERIA","subLocation":"At the Cooler (milk)","corrected":"Not required","daysToCorrect":"10.0","correctedDate":null,"correctionDescription":"Repair/replace."}]},{"inspectionid":"42079","inspectionDate":"2018-05-03T00:00:00","inspectionType":"Routine Inspection","inCompliance":"Yes","violationsByInspectionidList":[]},{"inspectionid":"40371","inspectionDate":"2017-09-21T00:00:00","inspectionType":"Routine Inspection","inCompliance":"Yes","violationsByInspectionidList":[{"violationCode":"4-501.11","violationDescription":"EQUIPMENT shall be maintained in a state of repair and condition that meets the requirements of the code.\r\n","violationType":"Core","itemDescription":"Equipment","subItem":"","problemDescription":"In poor repair","subProblem":"","location":"STORAGE ROOM","subLocation":"At the Cooler (upright)","corrected":"Not required","daysToCorrect":"30.0","correctedDate":null,"correctionDescription":null}]},{"inspectionid":"38214","inspectionDate":"2017-03-08T00:00:00","inspectionType":"Routine Inspection","inCompliance":"Yes","violationsByInspectionidList":[]},{"inspectionid":"37412","inspectionDate":"2016-12-19T00:00:00","inspectionType":"Routine Inspection","inCompliance":"Yes","violationsByInspectionidList":[]}]}],"maxInspectionDate":[{"inspectionDate":"2019-10-31T00:00:00"}]}},"pageContext":{"eid":"1113"}}