{"data":{"site":{"pathPrefix":"/restaurant-inspections"},"postgres":{"establishment":[{"establishmentid":"1317","name":"Loving Elementary","address":"1000 Lynn Ave","zipcode":"48202","owner":"Detroit Board of Education","licenseNumber":"035441","licenseType":"Fixed Establishment","establishmentType":"Public School","establishmentStatus":"Open","riskCategory":null,"reviewFrequencyDays":"210.0","coords":"-83.07541,42.39125","geojson":{"id":"1317","type":"Feature","geometry":{"type":"Point","coordinates":[-83.075406689,42.3912549]},"properties":{"name":"Loving Elementary","owner":"Detroit Board of Education","address":"1000 Lynn Ave","zipcode":"48202","license_type":"Fixed Establishment","risk_category":null,"license_number":"035441","establishmentid":"1317","establishment_type":"Public School","establishment_status":"Open","review_frequency_days":"210.0","most_recent_license_date":"4/15/2019"}},"nearbyList":[{"establishmentid":"4015","name":"Greater New Mount Moriah","address":"586 Owens St","zipcode":"48202"},{"establishmentid":"5204","name":"Miss Virginia's Ice Cream Parlor","address":"8801 Oakland Ave","zipcode":"48211"},{"establishmentid":"696","name":"Grandy's Coney Island","address":"1200 Holbrook Rd","zipcode":"48211"},{"establishmentid":"3650","name":"American Axle","address":"1 Dauch Dr","zipcode":"48211"},{"establishmentid":"949","name":"Detroit International Academy/ Northern","address":"9026 Woodward Ave","zipcode":"48202"},{"establishmentid":"2006","name":"Subway","address":"9320 Woodward Ave","zipcode":"48202"},{"establishmentid":"4881","name":"Cleary University","address":"8904 Woodward Ave","zipcode":"48202"},{"establishmentid":"51622757","name":"Supa Flavor ","address":"11514 St Aubin St","zipcode":"48212"},{"establishmentid":"5314","name":"Fresh Soft Serve","address":"11516 Saint Aubin St","zipcode":"48212"},{"establishmentid":"5312","name":"Wonka Soft Serve","address":"11609 Lumpkin St","zipcode":"48212"}],"inspectionsByEstablishmentidList":[{"inspectionid":"45925","inspectionDate":"2019-04-15T00:00:00","inspectionType":"Routine Inspection","inCompliance":"Yes","violationsByInspectionidList":[]},{"inspectionid":"43537","inspectionDate":"2018-09-05T00:00:00","inspectionType":"Routine Inspection","inCompliance":"Yes","violationsByInspectionidList":[{"violationCode":"4-501.11","violationDescription":"EQUIPMENT shall be maintained in a state of repair and condition that meets the requirements of the code.\r\n","violationType":"Core","itemDescription":"Equipment","subItem":"","problemDescription":"In poor repair","subProblem":"","location":"COOKING AREA","subLocation":"Ventilation hood","corrected":"Not required","daysToCorrect":"30.0","correctedDate":null,"correctionDescription":null}]},{"inspectionid":"41634","inspectionDate":"2018-03-01T00:00:00","inspectionType":"Routine Inspection","inCompliance":"Yes","violationsByInspectionidList":[]},{"inspectionid":"39981","inspectionDate":"2017-09-08T00:00:00","inspectionType":"Routine Inspection","inCompliance":"Yes","violationsByInspectionidList":[]},{"inspectionid":"38500","inspectionDate":"2017-04-05T00:00:00","inspectionType":"Routine Inspection","inCompliance":"Yes","violationsByInspectionidList":[{"violationCode":"5-205.15","violationDescription":"A PLUMBING SYSTEM shall be:\r\n(A) Repaired according to LAW; (P) and\r\n(B) Maintained in good repair.\r\n","violationType":"Core","itemDescription":"Plumbing system","subItem":"","problemDescription":"Not maintained","subProblem":"","location":"DISHWASHING AREA","subLocation":"Three compartment sink","corrected":"Not required","daysToCorrect":"10.0","correctedDate":null,"correctionDescription":"Maintain in good repair"}]},{"inspectionid":"37266","inspectionDate":"2016-11-29T00:00:00","inspectionType":"Routine Inspection","inCompliance":"Yes","violationsByInspectionidList":[]}]}],"maxInspectionDate":[{"inspectionDate":"2019-05-31T00:00:00"}]}},"pageContext":{"eid":"1317"}}