{"data":{"postgres":{"establishment":[{"establishmentid":"4343","name":"Subway","address":"13541 W Eight Mile Rd","zipcode":"48235","owner":"Dortch Entererprises","licenseNumber":"071787","licenseType":"Fixed Establishment","establishmentType":"Food Service Establishment","establishmentStatus":"Open","riskCategory":null,"reviewFrequencyDays":"180.0","coords":"-83.18061,42.44488","geojson":{"id":"4343","type":"Feature","geometry":{"type":"Point","coordinates":[-83.1806112199999,42.444876449]},"properties":{"name":"Subway","owner":"Dortch Entererprises","address":"13541 W Eight Mile Rd","zipcode":"48235","license_type":"Fixed Establishment","risk_category":null,"license_number":"071787","establishmentid":"4343","establishment_type":"Food Service Establishment","establishment_status":"Open","review_frequency_days":"180.0","most_recent_license_date":"4/27/2018"}},"nearbyList":[{"establishmentid":"2074","name":"Church's Fried Chicken #976","address":"13611 W Eight Mile Rd","zipcode":"48235"},{"establishmentid":"3380","name":"Subway","address":"335 Schaefer Hwy S","zipcode":"48217"},{"establishmentid":"1462","name":"Tubby's","address":"601 Schaefer Hwy S","zipcode":"48217"},{"establishmentid":"51622621","name":"Da Catch LLC","address":"20449 Schaefer Hwy","zipcode":"48235"},{"establishmentid":"5373","name":"Schaefer Fish Market LLC","address":"20449 Schaefer Hwy","zipcode":"48235"},{"establishmentid":"5151","name":"Pop'n Smoke BBQ","address":"13849 W 8 Mile Rd","zipcode":"48235"},{"establishmentid":"5157","name":"44 Burrito","address":"14015 W Eight Mile Rd","zipcode":"48235"},{"establishmentid":"588","name":"Hot Tamales","address":"13109 W Eight Mile Rd","zipcode":"48235"},{"establishmentid":"849","name":"Vernor Elementary","address":"13726 Pembroke","zipcode":"48235"},{"establishmentid":"5286","name":"Rinor LLC / Mama's","address":"14620 E Eight Mile Rd","zipcode":"48205"},{"establishmentid":"1991","name":"Mama's, Inc.","address":"14620 E Eight Mile Rd","zipcode":"48205"},{"establishmentid":"4915","name":"The Jamaican Pot","address":"14615 W Eight Mile Rd","zipcode":"48235"},{"establishmentid":"5084","name":"Word In Action Christian Center","address":"19780 Meyers","zipcode":"48227"},{"establishmentid":"5179","name":"Original T & J Coney Island","address":"13600 W Seven Mile Rd","zipcode":"48235"},{"establishmentid":"5116","name":"Subway","address":"15000 E Eight Mile Rd","zipcode":"48205"},{"establishmentid":"280","name":"New China One","address":"13611 W Seven Mile Rd","zipcode":"48235"},{"establishmentid":"2776","name":"Nu Wave Fish & Chicken","address":"15030 E Eight Mile Rd","zipcode":"48205"},{"establishmentid":"5309","name":"Louisiana Creole Gumbo","address":"13505 W Seven Mile Ste A","zipcode":"48235"},{"establishmentid":"4286","name":"Jalen Rose Leadership Acadamy","address":"15000 Trojan St","zipcode":"48235"},{"establishmentid":"4761","name":"David Ellis Academy Kindergarten","address":"18962 Schaefer Hwy","zipcode":"48235"}],"inspectionsByEstablishmentidList":[{"inspectionid":"44516","inspectionDate":"2018-12-19T00:00:00","inspectionType":"Routine Inspection","inCompliance":"No","violationsByInspectionidList":[{"violationCode":"4-703.11","violationDescription":"After being cleaned, EQUIPMENT FOOD-CONTACT SURFACES and UTENSILS shall be SANITIZED  by an approved process.\r\n","violationType":"Priority","itemDescription":"Hot water sanitizer","subItem":"","problemDescription":"Not immersed in","subProblem":"","location":"DISHWASHING AREA","subLocation":"Throughout Facility","corrected":"No","daysToCorrect":"10.0","correctedDate":null,"correctionDescription":"Completely submerse equipment/utensil."},{"violationCode":"2-102.11","violationDescription":"The PERSON IN CHARGE shall demonstrate this knowledge by compliance with this Code, by being a certified FOOD protection manager who has shown proficiency of required information through passing a test that is part of an ACCREDITED PROGRAM, or by responding correctly to the inspector's questions as they relate to the specific FOOD operation. (Pf)","violationType":"Foundation","itemDescription":"Person-in-charge","subItem":"","problemDescription":"Not ensuring compliance","subProblem":"","location":"FACILITY","subLocation":"Throughout Facility","corrected":"No","daysToCorrect":"10.0","correctedDate":null,"correctionDescription":"Person-in-charge must ensure compliance with items listed above."},{"violationCode":"8-304.11","violationDescription":"Upon acceptance of the PERMIT issued by the REGULATORY AUTHORITY, the PERMIT HOLDER in order to retain the PERMIT shall:\r\n(A) Post the PERMIT in a location in the FOOD ESTABLISHMENT that is conspicuous to CONSUMERS; \r\n(B) Comply with the provisions of this Code including the conditions of a granted VARIANCE as specified under § 8-103.12, and APPROVED plans as specified under § 8-201.12;\r\n(C) If a FOOD ESTABLISHMENT is required under § 8-201.13 to operate under a HACCP PLAN, comply with the plan as specified under § 8-103.12;\r\n(D) Immediately contact the REGULATORY AUTHORITY to report an illness of a FOOD EMPLOYEE or CONDITIONAL EMPLOYEE as specified under ¶ 2-201.11(B); \r\n(E) Immediately discontinue operations and notify the REGULATORY AUTHORITY if an IMMINENT HEALTH HAZARD may exist as specified under § 8-404.11;\r\n(F) Allow representatives of the REGULATORY AUTHORITY access to the FOOD ESTABLISHMENT as specified under § 8-402.11;\r\n(G) Except as specified under ¶ (H) of this section, replace existing facilities and EQUIPMENT specified in § 8-101.10 with facilities and EQUIPMENT that comply with this Code if:\r\n(1) The REGULATORY AUTHORITY directs the replacement because the facilities and EQUIPMENT constitute a public health HAZARD or nuisance or no longer comply with the criteria upon which the facilities and EQUIPMENT were accepted,\r\n(2) The REGULATORY AUTHORITY directs the replacement of the facilities and EQUIPMENT because of a change of ownership, or\r\n(3) The facilities and EQUIPMENT are replaced in the normal course of operation;\r\n(H) Upgrade or replace refrigeration EQUIPMENT as specified under Subparagraph 3-501.16(A)(2)(b), if the circumstances specified under Subparagraphs (G)(1) - (3) of this section do not occur first, and 5 years pass after the REGULATORY AUTHORITY adopts this Code;\r\n(I) Comply with directives of the REGULATORY AUTHORITY including time frames for corrective actions specified in inspection reports, notices, orders, warnings, and other directives issued by the REGULATORY AUTHORITY in regard to the PERMIT HOLDER'S FOOD ESTABLISHMENT or in response to community emergencies; \r\n(J) Accept notices issued and served by the REGULATORY AUTHORITY according to LAW; and \r\n(K) Be subject to the administrative, civil, injunctive, and criminal remedies authorized in LAW for failure to comply with this Code or a directive of the REGULATORY AUTHORITY, including time frames for corrective actions specified in inspection reports, notices, orders, warnings, and other directives.","violationType":"Core","itemDescription":null,"subItem":"","problemDescription":null,"subProblem":"","location":"FACILITY","subLocation":"Throughout Facility","corrected":"Not required","daysToCorrect":"30.0","correctedDate":null,"correctionDescription":"Person-in-charge must ensure compliance with items listed above."}]},{"inspectionid":"42806","inspectionDate":"2018-07-03T00:00:00","inspectionType":"Routine Inspection","inCompliance":"Yes","violationsByInspectionidList":[]},{"inspectionid":"40249","inspectionDate":"2017-10-04T00:00:00","inspectionType":"Routine Inspection","inCompliance":"Yes","violationsByInspectionidList":[]},{"inspectionid":"40248","inspectionDate":"2017-04-27T00:00:00","inspectionType":"Routine Inspection","inCompliance":"Yes","violationsByInspectionidList":[]},{"inspectionid":"37514","inspectionDate":"2016-11-10T00:00:00","inspectionType":"Routine Inspection","inCompliance":"Yes","violationsByInspectionidList":[]}]}]}},"pageContext":{"eid":"4343"}}