{"data":{"site":{"pathPrefix":"/restaurant-inspections"},"postgres":{"establishment":[{"establishmentid":"517","name":"Subway","address":"11939 E Warren Ave","zipcode":"48214","owner":"Mitesh Patel","licenseNumber":"075366","licenseType":"Fixed Establishment","establishmentType":"Food Service Establishment","establishmentStatus":"Open","riskCategory":null,"reviewFrequencyDays":"365.0","coords":"-82.97818,42.38909","geojson":{"id":"517","type":"Feature","geometry":{"type":"Point","coordinates":[-82.9781776359999,42.3890863620001]},"properties":{"name":"Subway","owner":"Mitesh Patel","address":"11939 E Warren Ave","zipcode":"48214","license_type":"Fixed Establishment","risk_category":null,"license_number":"075366","establishmentid":"517","establishment_type":"Food Service Establishment","establishment_status":"Open","review_frequency_days":"365.0","most_recent_license_date":"6/1/2017"}},"nearbyList":[{"establishmentid":"3412","name":"Number 1 Chinese Restaurant","address":"11918 E Warren Ave","zipcode":"48214"},{"establishmentid":"1196","name":"Church's Fried Chicken #975","address":"11965 E Warren Ave","zipcode":"48214"},{"establishmentid":"1796","name":"Popeye's Chicken & Biscuits","address":"12218 E Warren Ave","zipcode":"48215"},{"establishmentid":"3662","name":"Captain J Fish & Chicken #105","address":"12248 E Warren Ave","zipcode":"48215"},{"establishmentid":"5227","name":"Al Namer Fish & Seafood #2 LLC","address":"12332 E Warren","zipcode":"48215"},{"establishmentid":"2390","name":"Edibles Rex","address":"5555 Conner, Ste 1058","zipcode":"48213"},{"establishmentid":"4156","name":"Samaritan Cafe","address":"5555 Conner","zipcode":"48213"},{"establishmentid":"4977","name":"Jungle Juice","address":"4000 St Jean St","zipcode":"48214"},{"establishmentid":"2766","name":"Wendy's ","address":"4749 Conner St","zipcode":"48215"},{"establishmentid":"2244","name":"Family Aquatic Center at Chandler Park","address":"12600 Chandler Park Dr","zipcode":"48213"},{"establishmentid":"5240","name":"Red Sea Food Inc.","address":"12500 E Warren","zipcode":"48215"},{"establishmentid":"5425","name":"Spud Headz","address":"12700 E Warren","zipcode":"48215"},{"establishmentid":"1731","name":"Capuchin Kitchen","address":"4390 Conner ","zipcode":"48215"},{"establishmentid":"664","name":"Chandler Park Golf Course","address":"12801 Chandler Park Dr","zipcode":"48213"},{"establishmentid":"5429","name":"Palace Pizza","address":"11207 Mack","zipcode":"48214"},{"establishmentid":"2646","name":"McDonald's #25135","address":"3975 Conner Ave","zipcode":"48215"},{"establishmentid":"3324","name":"Timbuktu Academy","address":"10800 E Canfield Rd","zipcode":"48214"},{"establishmentid":"1737","name":"Genesis House III (EAST)","address":"3840 Fairview St","zipcode":"48214"},{"establishmentid":"51622565","name":"Tasty Bob's","address":"13000 E Warren Ave","zipcode":"48215"},{"establishmentid":"3751","name":"Manhattan Fish and Chicken","address":"3800 Conner","zipcode":"48215"}],"inspectionsByEstablishmentidList":[{"inspectionid":"39736","inspectionDate":"2017-08-29T00:00:00","inspectionType":"Routine Inspection","inCompliance":"Yes","violationsByInspectionidList":[{"violationCode":"6-301.12","violationDescription":"Each HANDWASHING SINK or group of adjacent HANDWASHING SINKS shall be provided with:\r\n(A) Individual, disposable towels; (Pf)\r\n(B) A continuous towel system that supplies the user with a clean towel;(Pf) or \r\n(C) A heated-air hand drying device.(Pf)\r\n(D) A hand drying device that employs an air-knife system that delivers high velocity pressurized air at ambient temperatures.(Pf)\r\n","violationType":"Foundation","itemDescription":"Sanitary hand drying provisions","subItem":"disposable, paper towels","problemDescription":"Not provided","subProblem":"At hand sink","location":"RESTAURANT","subLocation":"At the Handsink","corrected":"Yes","daysToCorrect":"10.0","correctedDate":"2017-08-30T00:00:00","correctionDescription":"Provide"},{"violationCode":"4-302.12","violationDescription":"(A) FOOD TEMPERATURE MEASURING DEVICES shall be provided and readily accessible for use in ensuring attainment and maintenance of FOOD temperatures as specified under Chapter 3. (Pf)   \r\n(B) A TEMPERATURE MEASURING DEVICE with a suitable small-diameter probe that is designed to measure the temperature of thin masses shall be provided and readily accessible to accurately measure the temperature in thin FOODS such as MEAT patties and FISH filets. (Pf)\r\n","violationType":"Foundation","itemDescription":"Food thermometer(s)","subItem":"probe","problemDescription":"Not available","subProblem":"","location":"RESTAURANT","subLocation":"No Thermometer(s)","corrected":"Yes","daysToCorrect":"10.0","correctedDate":"2017-09-14T00:00:00","correctionDescription":"Make available at all times."},{"violationCode":"6-501.12","violationDescription":"(A) PHYSICAL FACILITIES shall be cleaned as often as necessary to keep them clean.\r\n(B) Except spill cleanup, cleaning shall be done during periods when the least amount of FOOD is exposed such as after closing. ","violationType":"Core","itemDescription":"Physical facilities/structures","subItem":"floors","problemDescription":"With accumulation of debris","subProblem":"","location":"BEVERAGE AREA","subLocation":"Back panel of Beverage Dispenser","corrected":"Not required","daysToCorrect":"30.0","correctedDate":null,"correctionDescription":"Keep clean."},{"violationCode":"6-501.11","violationDescription":"PHYSICAL FACILITIES shall be maintained in good repair.\r\n","violationType":"Core","itemDescription":"Physical facilities","subItem":"wall(s)","problemDescription":"In poor repair","subProblem":"","location":"DINING AREA","subLocation":"Under the Windows","corrected":"Not required","daysToCorrect":"30.0","correctedDate":null,"correctionDescription":null}]},{"inspectionid":"36460","inspectionDate":"2016-09-15T00:00:00","inspectionType":"Routine Inspection","inCompliance":"Yes","violationsByInspectionidList":[{"violationCode":"6-301.11","violationDescription":"Each HANDWASHING SINK or group of 2 adjacent HANDWASHING SINKS shall be provided with a supply of hand cleaning liquid, powder, or bar soap. (Pf)\r\n","violationType":"Foundation","itemDescription":"Soap","subItem":"at handsink","problemDescription":"Not provided","subProblem":"At hand sink","location":"WARE WASHING AREA","subLocation":"At the Handsink","corrected":"Yes","daysToCorrect":"10.0","correctedDate":"2016-09-15T00:00:00","correctionDescription":"Provide"},{"violationCode":"6-303.11","violationDescription":"Light of the proper intensity shall be provided as specified.\r\n","violationType":"Core","itemDescription":"Lighting intensity","subItem":"at work levels","problemDescription":"Not maintained","subProblem":"","location":"RESTROOM (UNISEX)","subLocation":"At the Lights","corrected":"Not required","daysToCorrect":"30.0","correctedDate":null,"correctionDescription":"Maintain in good repair"},{"violationCode":"6-501.12","violationDescription":"(A) PHYSICAL FACILITIES shall be cleaned as often as necessary to keep them clean.\r\n(B) Except spill cleanup, cleaning shall be done during periods when the least amount of FOOD is exposed such as after closing. ","violationType":"Core","itemDescription":"Physical facilities/structures","subItem":"floors","problemDescription":"Not clean","subProblem":"","location":"REAR AREA","subLocation":"On the Floor","corrected":"Not required","daysToCorrect":"30.0","correctedDate":null,"correctionDescription":"Clean"}]}]}]}},"pageContext":{"eid":"517"}}