{"data":{"postgres":{"establishment":[{"establishmentid":"329","name":"Nite Cap Lounge Inc.","address":"24817 W McNichols Rd","zipcode":"48219","owner":"George Sabo","licenseNumber":"034025","licenseType":"Fixed Establishment","establishmentType":"Food Service Establishment","establishmentStatus":"Open","riskCategory":null,"reviewFrequencyDays":"365.0","coords":"-83.28551,42.41400","geojson":{"id":"329","type":"Feature","geometry":{"type":"Point","coordinates":[-83.2855095209999,42.413995072]},"properties":{"name":"Nite Cap Lounge Inc.","owner":"George Sabo","address":"24817 W McNichols Rd","zipcode":"48219","license_type":"Fixed Establishment","risk_category":null,"license_number":"034025","establishmentid":"329","establishment_type":"Food Service Establishment","establishment_status":"Open","review_frequency_days":"365.0","most_recent_license_date":"5/7/2018"}},"nearbyList":[{"establishmentid":"4289","name":"Old Redford Academy Middle School","address":"22122 W McNichols Rd","zipcode":"48219"},{"establishmentid":"328","name":"Duffy's Den","address":"24800 W McNichols Rd","zipcode":"48219"},{"establishmentid":"1086","name":"Rocky's Grill Coney Island","address":"24611 W McNichols Rd","zipcode":"48219"},{"establishmentid":"327","name":"Toy Box II Bar and Grill, Inc.","address":"24351 W McNichols Rd","zipcode":"48219"},{"establishmentid":"5115","name":"Farmer Kay Market","address":"24311 W McNichols Rd","zipcode":"48219"},{"establishmentid":"1610","name":"Sun China Restaurant","address":"16901 Telegraph Rd","zipcode":"48219"},{"establishmentid":"2328","name":"DeAngelo's Soul Food Deli & More","address":"17425 Telegraph Rd","zipcode":"48219"},{"establishmentid":"523","name":"Chapeau Vert Lounge","address":"16550 Telegraph Rd","zipcode":"48219"},{"establishmentid":"929","name":"City Limits Bar and Grill","address":"24501 Grand River Ave","zipcode":"48219"},{"establishmentid":"751","name":"Dairy Queen of Redford","address":"24671 Grand River Ave","zipcode":"48219"}],"inspectionsByEstablishmentidList":[{"inspectionid":"42930","inspectionDate":"2018-07-19T00:00:00","inspectionType":"Routine Inspection","inCompliance":"Yes","violationsByInspectionidList":[{"violationCode":"6-301.11","violationDescription":"Each HANDWASHING SINK or group of 2 adjacent HANDWASHING SINKS shall be provided with a supply of hand cleaning liquid, powder, or bar soap. (Pf)\r\n","violationType":"Foundation","itemDescription":"Soap","subItem":"at handsink","problemDescription":"Not provided","subProblem":"At hand sink","location":"BAR","subLocation":"","corrected":"Yes","daysToCorrect":"10.0","correctedDate":"2018-07-19T00:00:00","correctionDescription":"Provide"},{"violationCode":"5-205.11","violationDescription":"(A) A HANDWASHING SINK shall be maintained so that it is accessible at all times for EMPLOYEE use and used for no other purpose. (Pf)\r\n(B)  An automatic handwashing facility shall be used in accordance with manufacturer's instructions. (Pf)\r\n","violationType":"Foundation","itemDescription":"Handwashing sink(s)","subItem":"","problemDescription":"Not easily accessible","subProblem":"Items stored In","location":"BAR","subLocation":"","corrected":"Yes","daysToCorrect":"10.0","correctedDate":"2018-07-19T00:00:00","correctionDescription":"Remove items from handsink.  Do not store items at handsink."}]},{"inspectionid":"39211","inspectionDate":"2017-07-10T00:00:00","inspectionType":"Routine Inspection","inCompliance":"Yes","violationsByInspectionidList":[{"violationCode":"MFL289.2129","violationDescription":"Sec. 2129. (1) All of the following food establishments shall employ a minimum of 1 managerial employee who is currently certified under a personnel certification program accredited by the American national standards institute, utilizing the conference for food protection standards:  (a) A food service establishment that is not any of the following:    (i) Operating under a temporary food service establishment license.  (ii) A vending machine location.     (b) An extended retail food establishment.  (c) Operated within a retail grocery.  (2) An individual certified under subsection (1) shall be recognized with full faith and credit by the state and all local units of government throughout the state.  (3) The department may promulgate rules to do all of the following:  (a) Develop requirements for retail food establishments to follow when employing certified food safety managers or personnel.  (b) Set a reasonable date for compliance with the requirements under subdivision (a) taking into consideration existing local personnel certification requirements.  (c) Establish certification fees necessary to implement, maintain, and track certified individuals directly or by contract. The department may annually adjust the schedule of fees to provide that the fee charged is sufficient to cover the cost of the certification tracking program.  (d) Implement and enforce the requirements described in subdivision (a).    (4) The certification program developed by the American national standards institute, as it exists on April 1, 2008 , is incorporated by reference. The department may adopt updates to the certification program accreditation standards in subsection (1) by rule.     (5) This section does not prohibit any local legislative body from implementing a food handler program, an employee health certification program, or a manager certification program, if it is not in conflict with this section.","violationType":"Core","itemDescription":null,"subItem":"","problemDescription":null,"subProblem":"","location":"PERSON IN CHARGE","subLocation":"","corrected":"Not required","daysToCorrect":"30.0","correctedDate":null,"correctionDescription":null}]}]}]}},"pageContext":{"eid":"329"}}