{"data":{"site":{"pathPrefix":"/restaurant-inspections"},"postgres":{"establishment":[{"establishmentid":"51622787","name":"The Brakeman","address":"1400 Woodward Ave","zipcode":"48226","owner":"1400 Webward Ave. LLC","licenseNumber":"236359","licenseType":"Fixed Establishment","establishmentType":"Food Service Establishment","establishmentStatus":"Open","riskCategory":"High","reviewFrequencyDays":"180.0","coords":"-83.04846,42.33439","geojson":{"id":"51622787","type":"Feature","geometry":{"type":"Point","coordinates":[-83.048455447,42.334394929]},"properties":{"name":"The Brakeman","owner":"1400 Webward Ave. LLC","address":"1400 Woodward Ave","zipcode":"48226","license_type":"Fixed Establishment","risk_category":"High","license_number":"236359","establishmentid":"51622787","establishment_type":"Food Service Establishment","establishment_status":"Open","review_frequency_days":"180.0","most_recent_license_date":"3/6/2019"}},"nearbyList":[{"establishmentid":"51622703","name":"Shinola Hotel-Birdie Room","address":"1400 Woodward Ave","zipcode":"48226"},{"establishmentid":"51622886","name":"Shinola Hotel- Evening Bar","address":"1400 Woodward Ave","zipcode":"48226"},{"establishmentid":"51622702","name":"Shinola Hotel- WW Basement Kitchen","address":"1400 Woodward Ave","zipcode":"48226"},{"establishmentid":"51622882","name":"Penny Red's","address":"1400 Woodward Ave","zipcode":"48226"},{"establishmentid":"51622701","name":"Shinola Hotel- Banquet Kitchen","address":"1400 Woodward Ave","zipcode":"48226"},{"establishmentid":"51622881","name":"Shinola Hotel- San Morello","address":"1400 Woodward Ave","zipcode":"48226"},{"establishmentid":"51622578","name":"Lover's Only","address":"34 W Grand River","zipcode":"48226"},{"establishmentid":"4957","name":"Cornerstone Barrel House","address":"1456 Woodward Ave","zipcode":"48226"},{"establishmentid":"4843","name":"Wright & Co.","address":"1500 Woodward Ave","zipcode":"48226"},{"establishmentid":"4775","name":"Chickpea in the D","address":"2 John R St","zipcode":"48226"}],"inspectionsByEstablishmentidList":[{"inspectionid":"45790","inspectionDate":"2019-04-03T00:00:00","inspectionType":"Routine Inspection","inCompliance":"Yes","violationsByInspectionidList":[{"violationCode":"4-501.114","violationDescription":"A chemical SANITIZER used in a SANITIZING solution for a manual or\r\nmechanical operation shall meet these limits or as otherwise approved: (P)\r\n\tChlorine        ppm           pH<10             pH<8\r\n\t\t      25              120 F              120 F\r\n\t\t      50              100 F              75 F\r\n\t\t     100              55 F               55 F\r\n                 Iodine           a concentration of between 12.5 and 25 ppm and minimum temp of 75 F and pH of 5 or less or meets manufacturer's specifications. (P)\r\n\r\n                Quats            minimum temperature of 75 F, hardness of 500 ppm or less and meet manufacturers use directions. (P)\r\n","violationType":"Priority","itemDescription":"Chlorine solution concentration","subItem":"","problemDescription":"Below 25 ppm","subProblem":"","location":"BAR","subLocation":"At the GLASS WASHER","corrected":"Yes","daysToCorrect":"10.0","correctedDate":"2019-04-03T00:00:00","correctionDescription":null}]},{"inspectionid":"45357","inspectionDate":"2019-03-04T00:00:00","inspectionType":"Preopening/New","inCompliance":"Yes","violationsByInspectionidList":[{"violationCode":"4-903.11","violationDescription":"Cleaned EQUIPMENT and UTENSILS, laundered LINENS, and SINGLE-SERVICE and SINGLE-USE ARTICLES shall be stored in an approved manner and location.\r\n","violationType":"Core","itemDescription":"Clean equipment/utensil(s)","subItem":"","problemDescription":"Exposed to dust, splash, or other contaminates","subProblem":"","location":"BAR","subLocation":"Above the","corrected":"Yes","daysToCorrect":"30.0","correctedDate":"2019-03-12T00:00:00","correctionDescription":null}]}]}],"maxInspectionDate":[{"inspectionDate":"2019-04-30T00:00:00"}]}},"pageContext":{"eid":"51622787"}}