{"data":{"site":{"pathPrefix":"/restaurant-inspections"},"postgres":{"establishment":[{"establishmentid":"4932","name":"Dove Academy of Detroit","address":"20001 Wexford","zipcode":"48234","owner":"Varietyfoods","licenseNumber":"079852","licenseType":"Fixed Establishment","establishmentType":"Non-Public School","establishmentStatus":"Plan Review","riskCategory":"Medium","reviewFrequencyDays":"210.0","coords":"-83.06620,42.44224","geojson":{"id":"4932","type":"Feature","geometry":{"type":"Point","coordinates":[-83.066195111,42.442244836]},"properties":{"name":"Dove Academy of Detroit","owner":"Varietyfoods","address":"20001 Wexford","zipcode":"48234","license_type":"Fixed Establishment","risk_category":"Medium","license_number":"079852","establishmentid":"4932","establishment_type":"Non-Public School","establishment_status":"Plan Review","review_frequency_days":"210.0","most_recent_license_date":"5/12/2016"}},"nearbyList":[{"establishmentid":"51622449","name":"Ocean Fish & Chicken","address":"3732 E Eight Mile","zipcode":"48234"},{"establishmentid":"3510","name":"Checkers #6239","address":"4030 E Eight Mile Rd","zipcode":"48234"},{"establishmentid":"2129","name":"Kwicky Bar","address":"4130 E Eight Mile Rd","zipcode":"48234"},{"establishmentid":"1164","name":"Kwong Tung Inn","address":"3040 E Eight Mile Rd","zipcode":"48234"},{"establishmentid":"3574","name":"Farwell Community Center ","address":"2711 E Outer Drive","zipcode":"48234"},{"establishmentid":"5046","name":"Detroit Soul","address":"2900 E Eight Mile Rd","zipcode":"48234"},{"establishmentid":"51622852","name":"Asian Corned Beef","address":"3741 E Seven MIle Rd","zipcode":"48234"},{"establishmentid":"5128","name":"Yonka Grill & Dairy","address":"3741 E Seven Mile","zipcode":"48234"},{"establishmentid":"888","name":"Pershing Senior High","address":"18875 Ryan Rd","zipcode":"48234"},{"establishmentid":"2127","name":"Kentucky Fried Chicken","address":"2600 E Eight Mile Rd","zipcode":"48234"},{"establishmentid":"733","name":"Gold Coast","address":"2971 E Seven Mile Rd","zipcode":"48234"},{"establishmentid":"1751","name":"Ambiance","address":"2959 E Seven Mile Rd","zipcode":"48234"},{"establishmentid":"250","name":"Erotic City","address":"19326 Conant Ave","zipcode":"48234"},{"establishmentid":"1020","name":"Mason PK-8 @ Farwell Jr. High School","address":"19955 Fenelon St","zipcode":"48238"},{"establishmentid":"3072","name":"Munchee's Mania","address":"19310 Conant Ave","zipcode":"48234"},{"establishmentid":"3621","name":"Nunn's Bar-B-Que Restaurant II","address":"19196 Conant Ave","zipcode":"48234"},{"establishmentid":"488","name":"Deluxe Coney Island","address":"2923 E Seven Mile Rd","zipcode":"48234"},{"establishmentid":"3220","name":"Hash Brown Cafe","address":"19458 Conant Ave","zipcode":"48234"},{"establishmentid":"51622580","name":"The New  Conant Street Grill","address":"19132 Conant St","zipcode":"48234"},{"establishmentid":"51622584","name":"Conant St. Grill","address":"19132 Conant ","zipcode":"48234"}],"inspectionsByEstablishmentidList":[{"inspectionid":"44511","inspectionDate":"2018-12-17T00:00:00","inspectionType":"Routine Inspection","inCompliance":"No","violationsByInspectionidList":[{"violationCode":"5-205.15","violationDescription":"A PLUMBING SYSTEM shall be:\r\n(A) Repaired according to LAW; (P) and\r\n(B) Maintained in good repair.\r\n","violationType":"Priority","itemDescription":"Plumbing system","subItem":"","problemDescription":"Not maintained","subProblem":"","location":"BACK DOOR AREA","subLocation":"At the Handsink","corrected":"No","daysToCorrect":"10.0","correctedDate":null,"correctionDescription":"Maintain in good repair"}]},{"inspectionid":"42408","inspectionDate":"2018-05-31T00:00:00","inspectionType":"Routine Inspection","inCompliance":"Yes","violationsByInspectionidList":[{"violationCode":"4-204.112","violationDescription":"(A)  In a mechanically refrigerated or hot FOOD storage unit, the sensor of a TEMPERATURE MEASURING DEVICE shall be located to measure the air temperature in the warmest part of a mechanically refrigerated unit and in the coolest part of a hot FOOD storage unit.\r\n(B)  Cold or hot holding EQUIPMENT used for POTENTIALLY HAZARDOUS FOOD shall be designed to include and shall be equipped with at least one integral or permanently affixed TEMPERATURE MEASURING DEVICE that is located to allow easy viewing of the device's temperature display (EXCEPT, heat lamps, cold plates, steam tables, or other equipment where it is not practical).\r\n(C)  TEMPERATURE MEASURING DEVICES shall be designed to be easily readable.\r\n(D)  FOOD TEMPERATURE MEASURING DEVICES and water TEMPERATURE MEASURING DEVICES on WAREWASHING machines shall have a numerical scale, printed record, or digital readout in increments no greater than 1C or 2F in the intended range of use. (Pf)\r\n\r\n","violationType":"Core","itemDescription":"Thermometer(s)","subItem":"","problemDescription":"Not provided","subProblem":"","location":"THERMOMETER","subLocation":"","corrected":"Not required","daysToCorrect":"10.0","correctedDate":null,"correctionDescription":"Provide."}]},{"inspectionid":"40780","inspectionDate":"2017-11-14T00:00:00","inspectionType":"Routine Inspection","inCompliance":"No","violationsByInspectionidList":[{"violationCode":"4-302.14","violationDescription":"A test kit or other device that accurately measures the concentration in mg/L of SANITIZING solutions shall be provided. (Pf)\r\n","violationType":"Foundation","itemDescription":"Sanitizer test kit","subItem":"","problemDescription":"Not provided","subProblem":"","location":"CAFETERIA","subLocation":"","corrected":"No","daysToCorrect":"10.0","correctedDate":null,"correctionDescription":"Provide as required"},{"violationCode":"MFL289.2129","violationDescription":"Sec. 2129. (1) All of the following food establishments shall employ a minimum of 1 managerial employee who is currently certified under a personnel certification program accredited by the American national standards institute, utilizing the conference for food protection standards:  (a) A food service establishment that is not any of the following:    (i) Operating under a temporary food service establishment license.  (ii) A vending machine location.     (b) An extended retail food establishment.  (c) Operated within a retail grocery.  (2) An individual certified under subsection (1) shall be recognized with full faith and credit by the state and all local units of government throughout the state.  (3) The department may promulgate rules to do all of the following:  (a) Develop requirements for retail food establishments to follow when employing certified food safety managers or personnel.  (b) Set a reasonable date for compliance with the requirements under subdivision (a) taking into consideration existing local personnel certification requirements.  (c) Establish certification fees necessary to implement, maintain, and track certified individuals directly or by contract. The department may annually adjust the schedule of fees to provide that the fee charged is sufficient to cover the cost of the certification tracking program.  (d) Implement and enforce the requirements described in subdivision (a).    (4) The certification program developed by the American national standards institute, as it exists on April 1, 2008 , is incorporated by reference. The department may adopt updates to the certification program accreditation standards in subsection (1) by rule.     (5) This section does not prohibit any local legislative body from implementing a food handler program, an employee health certification program, or a manager certification program, if it is not in conflict with this section.","violationType":"Core","itemDescription":"Person-in-charge","subItem":"","problemDescription":null,"subProblem":"","location":"ESTABLISHMENT","subLocation":"","corrected":"Not required","daysToCorrect":"30.0","correctedDate":null,"correctionDescription":null}]},{"inspectionid":"38767","inspectionDate":"2017-05-10T00:00:00","inspectionType":"Routine Inspection","inCompliance":"Yes","violationsByInspectionidList":[]},{"inspectionid":"36856","inspectionDate":"2016-10-19T00:00:00","inspectionType":"Routine Inspection","inCompliance":"Yes","violationsByInspectionidList":[{"violationCode":"3-501.16","violationDescription":"Except during preparation, cooking, or cooling, or when time is used as the public health control POTENTIALLY HAZARDOUS FOOD (TIME/TEMPERATURE CONTROL FOR SAFETY FOOD) shall be maintained:\r\n(A)  135ºF or above, except that roasts properly cooked and cooled may be held              at a temperature of 130ºF; or (P)\r\n(B)   At 41ºF or less (P)\r\n","violationType":"Priority","itemDescription":"Hot food item(s)","subItem":"","problemDescription":"Stored above 41 degrees F","subProblem":"","location":"HOT HOLDING CABINET","subLocation":"","corrected":"Yes","daysToCorrect":"10.0","correctedDate":"2016-10-19T00:00:00","correctionDescription":"Store above 135 degrees F."}]}]}]}},"pageContext":{"eid":"4932"}}