{"data":{"site":{"pathPrefix":null},"postgres":{"establishment":[{"establishmentid":"2766","name":"Wendy's ","address":"4749 Conner St","zipcode":"48215","owner":"Douglas Corporation","licenseNumber":"221959","licenseType":"Fixed Establishment","establishmentType":"Food Service Establishment","establishmentStatus":"Open","riskCategory":null,"reviewFrequencyDays":"365.0","coords":"-82.97209,42.38780","geojson":{"id":"2766","type":"Feature","geometry":{"type":"Point","coordinates":[-82.972094447,42.387799267]},"properties":{"name":"Wendy's ","owner":"Douglas Corporation","address":"4749 Conner St","zipcode":"48215","license_type":"Fixed Establishment","risk_category":null,"license_number":"221959","establishmentid":"2766","establishment_type":"Food Service Establishment","establishment_status":"Open","review_frequency_days":"365.0","most_recent_license_date":"5/2/2018"}},"nearbyList":[{"establishmentid":"5240","name":"Red Sea Food Inc.","address":"12500 E Warren","zipcode":"48215"},{"establishmentid":"1731","name":"Capuchin Kitchen","address":"4390 Conner ","zipcode":"48215"},{"establishmentid":"5227","name":"Al Namer Fish & Seafood #2 LLC","address":"12332 E Warren","zipcode":"48215"},{"establishmentid":"3662","name":"Captain J Fish & Chicken #105","address":"12248 E Warren Ave","zipcode":"48215"},{"establishmentid":"1796","name":"Popeye's Chicken & Biscuits","address":"12218 E Warren Ave","zipcode":"48215"},{"establishmentid":"5425","name":"Spud Headz","address":"12700 E Warren","zipcode":"48215"},{"establishmentid":"2646","name":"McDonald's #25135","address":"3975 Conner Ave","zipcode":"48215"},{"establishmentid":"1196","name":"Church's Fried Chicken #975","address":"11965 E Warren Ave","zipcode":"48214"},{"establishmentid":"3751","name":"Manhattan Fish and Chicken","address":"3800 Conner","zipcode":"48215"},{"establishmentid":"4977","name":"Jungle Juice","address":"4000 St Jean St","zipcode":"48214"}],"inspectionsByEstablishmentidList":[{"inspectionid":"43247","inspectionDate":"2018-08-23T00:00:00","inspectionType":"Routine Inspection","inCompliance":"No","violationsByInspectionidList":[{"violationCode":"5-205.15","violationDescription":"A PLUMBING SYSTEM shall be:\r\n(A) Repaired according to LAW; (P) and\r\n(B) Maintained in good repair.\r\n","violationType":"Priority","itemDescription":"Plumbing system","subItem":"water line(s)","problemDescription":"Not maintained","subProblem":"","location":"MOP SINK AREA","subLocation":"At the BACK FLOW PREVENTER","corrected":"No","daysToCorrect":"10.0","correctedDate":null,"correctionDescription":"Maintain in good repair"},{"violationCode":"5-501.17","violationDescription":"A toilet room used by females shall be provided with a covered receptacle for sanitary napkins.\r\n","violationType":"Core","itemDescription":"Covered waste receptacle(s)","subItem":"","problemDescription":"Not provided","subProblem":"","location":"RESTROOM (EMPLOYEE)","subLocation":"No Covered waste container","corrected":"Not required","daysToCorrect":"30.0","correctedDate":null,"correctionDescription":"Provide as required"}]},{"inspectionid":"39659","inspectionDate":"2017-08-21T00:00:00","inspectionType":"Routine Inspection","inCompliance":"Yes","violationsByInspectionidList":[{"violationCode":"4-501.11","violationDescription":"EQUIPMENT shall be maintained in a state of repair and condition that meets the requirements of the code.\r\n","violationType":"Core","itemDescription":"Equipment","subItem":"","problemDescription":"In poor repair","subProblem":"","location":"KITCHEN","subLocation":"At the Meat well","corrected":"Yes","daysToCorrect":"30.0","correctedDate":"2017-08-22T00:00:00","correctionDescription":null},{"violationCode":"6-303.11","violationDescription":"Light of the proper intensity shall be provided as specified.\r\n","violationType":"Core","itemDescription":"Lighting intensity","subItem":"at work levels","problemDescription":"Not maintained","subProblem":"","location":"WALK-IN FREEZER","subLocation":"At the Light bulb(s)","corrected":"Yes","daysToCorrect":"30.0","correctedDate":"2017-08-22T00:00:00","correctionDescription":"Maintain in good repair"},{"violationCode":"4-501.11","violationDescription":"EQUIPMENT shall be maintained in a state of repair and condition that meets the requirements of the code.\r\n","violationType":"Core","itemDescription":"Equipment components","subItem":"","problemDescription":"In poor repair","subProblem":"","location":"FRONT COUNTER/AREA","subLocation":"At the Beverage Dispenser","corrected":"Yes","daysToCorrect":"30.0","correctedDate":"2017-08-22T00:00:00","correctionDescription":null}]},{"inspectionid":"36091","inspectionDate":"2016-08-08T00:00:00","inspectionType":"Routine Inspection","inCompliance":"Yes","violationsByInspectionidList":[{"violationCode":"3-101.11","violationDescription":"FOOD shall be safe, unADULTERATED and honestly presented. (P)\r\n","violationType":"Priority","itemDescription":"Food","subItem":"","problemDescription":"Adulterated/contaminated","subProblem":"","location":"WALK-IN FREEZER","subLocation":"Inside the Walk-in freezer","corrected":"Yes","daysToCorrect":"10.0","correctedDate":"2016-08-22T00:00:00","correctionDescription":"Discard."},{"violationCode":"4-501.11","violationDescription":"EQUIPMENT shall be maintained in a state of repair and condition that meets the requirements of the code.\r\n","violationType":"Core","itemDescription":"Equipment","subItem":"","problemDescription":"In poor repair","subProblem":"","location":"WALK-IN FREEZER","subLocation":"Inside the Walk-in freezer","corrected":"Yes","daysToCorrect":"30.0","correctedDate":"2016-08-22T00:00:00","correctionDescription":null}]}]}]}},"pageContext":{"eid":"2766"}}