{"data":{"site":{"pathPrefix":"/restaurant-inspections"},"postgres":{"establishment":[{"establishmentid":"3321","name":"Brenda Scott Middle School","address":"18400 Hoover Rd","zipcode":"48214","owner":"Detroit Board Of Ed","licenseNumber":"051208","licenseType":"Fixed Establishment","establishmentType":"Public School","establishmentStatus":"Open","riskCategory":"Medium","reviewFrequencyDays":"210.0","coords":"-83.00337,42.42945","geojson":{"id":"3321","type":"Feature","geometry":{"type":"Point","coordinates":[-83.00336601,42.429446463]},"properties":{"name":"Brenda Scott Middle School","owner":"Detroit Board Of Ed","address":"18400 Hoover Rd","zipcode":"48214","license_type":"Fixed Establishment","risk_category":"Medium","license_number":"051208","establishmentid":"3321","establishment_type":"Public School","establishment_status":"Open","review_frequency_days":"210.0","most_recent_license_date":"4/29/2016"}},"nearbyList":[{"establishmentid":"940","name":"Osborn Senior High School","address":"11600 E Seven Mile Rd","zipcode":"48205"},{"establishmentid":"951","name":"Turning Point Academy","address":"12300 Linnhurst","zipcode":"48205"},{"establishmentid":"5338","name":"R & D One Stop Meals","address":"11811 E Seven Mile Rd","zipcode":"48205"},{"establishmentid":"4772","name":"Me & My Girls Soul Food","address":"11831 E Seven Mile Rd. ","zipcode":"48205"},{"establishmentid":"5411","name":"Royal Fish & Chicken Inc.","address":"11429 E Seven Mile Rd","zipcode":"48234"},{"establishmentid":"1167","name":"Fleming Elementary","address":"18501 Waltham St","zipcode":"48205"},{"establishmentid":"3750","name":"Zorba's Coney Island","address":"11701 E McNichols Ave","zipcode":"48205"},{"establishmentid":"309","name":"P.P.H. Lounge","address":"11526 Portlance St","zipcode":"48205"},{"establishmentid":"5271","name":"S & T Fresh Fish & Seafood 2 Inc.","address":"11395 E McNichols","zipcode":"48234"},{"establishmentid":"2375","name":"New Robert's Coney Island Inc.","address":"12701 E Seven Mile Rd","zipcode":"48205"},{"establishmentid":"1171","name":"Pulaski Elementary / Middle School","address":"19725 Strasburg","zipcode":"48205"},{"establishmentid":"3654","name":"State Fair Lounge, Inc.","address":"19910 Hoover Ave","zipcode":"48205"},{"establishmentid":"3497","name":"Prince Pizza Chicken & Ribs","address":"13000 E Seven Mile Rd","zipcode":"48205"},{"establishmentid":"51622627","name":"Antonio's Pizzeria & Grill","address":"12740 Gratiot Ave","zipcode":"48205"},{"establishmentid":"1215","name":"Wendy's Old Fashioned Hamburgers","address":"12550 Gratiot Ave","zipcode":"48205"},{"establishmentid":"4239","name":"Matrix Human Services","address":"13560 E McNichols Ave","zipcode":"48205"},{"establishmentid":"2947","name":"Coliseum","address":"11300 E Eight Mile Rd","zipcode":"48205"},{"establishmentid":"1431","name":"BT'S (Tycoons DBA Celebrity Reservation)","address":"12210 E Eight Mile Rd","zipcode":"48205"},{"establishmentid":"1355","name":"Domino's Pizza","address":"13250 Gratiot Ave","zipcode":"48224"},{"establishmentid":"5310","name":"Asian Corned Beef","address":"13240 Gratiot Ave","zipcode":"48205"}],"inspectionsByEstablishmentidList":[{"inspectionid":"43850","inspectionDate":"2018-10-18T00:00:00","inspectionType":"Routine Inspection","inCompliance":"Yes","violationsByInspectionidList":[{"violationCode":"6-501.111","violationDescription":"The presence of insects, rodents, and other pests shall be controlled to minimize their presence on the PREMISES.  by:\r\n(A) Routinely inspecting incoming shipments of FOOD and supplies; \r\n(B) Routinely inspecting the PREMISES for evidence of pests;\r\n(C) Using methods, if pests are found, such as trapping devices or other means of pest control as specified.(Pf) \r\n(D) Eliminating harborage conditions. \r\n","violationType":"Core","itemDescription":"Pest(s)","subItem":"","problemDescription":"Present in facility","subProblem":"","location":"STORAGE AREA(S)","subLocation":"","corrected":"Not required","daysToCorrect":"10.0","correctedDate":null,"correctionDescription":"Remove pests from facility."},{"violationCode":"6-202.11","violationDescription":"Except as otherwise approved, light bulbs shall be shielded, coated, or otherwise shatter-resistant in areas where there is exposed FOOD; clean EQUIPMENT, UTENSILS, and LINENS; or unwrapped SINGLE-SERVICE and SINGLE-USE ARTICLES.\r\n","violationType":"Core","itemDescription":"Light shielding","subItem":"","problemDescription":"Not provided","subProblem":"","location":"WALK-IN FREEZER","subLocation":"","corrected":"Not required","daysToCorrect":"30.0","correctedDate":null,"correctionDescription":"Provide adequate light shields and end caps or shatter-proof bulbs."}]},{"inspectionid":"42287","inspectionDate":"2018-05-03T00:00:00","inspectionType":"Routine Inspection","inCompliance":"Yes","violationsByInspectionidList":[{"violationCode":"6-501.111","violationDescription":"The presence of insects, rodents, and other pests shall be controlled to minimize their presence on the PREMISES.  by:\r\n(A) Routinely inspecting incoming shipments of FOOD and supplies; \r\n(B) Routinely inspecting the PREMISES for evidence of pests;\r\n(C) Using methods, if pests are found, such as trapping devices or other means of pest control as specified.(Pf) \r\n(D) Eliminating harborage conditions. \r\n","violationType":"Core","itemDescription":"Pest(s)","subItem":"","problemDescription":"Present in facility","subProblem":"","location":"STORAGE AREA(S)","subLocation":"","corrected":"Not required","daysToCorrect":"10.0","correctedDate":null,"correctionDescription":"Remove pests from facility."}]},{"inspectionid":"40147","inspectionDate":"2017-09-27T00:00:00","inspectionType":"Routine Inspection","inCompliance":"No","violationsByInspectionidList":[{"violationCode":"4-204.112","violationDescription":"(A)  In a mechanically refrigerated or hot FOOD storage unit, the sensor of a TEMPERATURE MEASURING DEVICE shall be located to measure the air temperature in the warmest part of a mechanically refrigerated unit and in the coolest part of a hot FOOD storage unit.\r\n(B)  Cold or hot holding EQUIPMENT used for POTENTIALLY HAZARDOUS FOOD shall be designed to include and shall be equipped with at least one integral or permanently affixed TEMPERATURE MEASURING DEVICE that is located to allow easy viewing of the device's temperature display (EXCEPT, heat lamps, cold plates, steam tables, or other equipment where it is not practical).\r\n(C)  TEMPERATURE MEASURING DEVICES shall be designed to be easily readable.\r\n(D)  FOOD TEMPERATURE MEASURING DEVICES and water TEMPERATURE MEASURING DEVICES on WAREWASHING machines shall have a numerical scale, printed record, or digital readout in increments no greater than 1C or 2F in the intended range of use. (Pf)\r\n\r\n","violationType":"Foundation","itemDescription":"Thermometer(s)","subItem":"","problemDescription":"Not provided","subProblem":"","location":"MILK COOLER","subLocation":"","corrected":"No","daysToCorrect":"10.0","correctedDate":null,"correctionDescription":"Provide."},{"violationCode":"5-205.15","violationDescription":"A PLUMBING SYSTEM shall be:\r\n(A) Repaired according to LAW; (P) and\r\n(B) Maintained in good repair.\r\n","violationType":"Core","itemDescription":"Drainage system","subItem":"","problemDescription":"Not constructed, designed, installed according to law","subProblem":"","location":"3 COMPARTMENT SINK AREA","subLocation":"","corrected":"Not required","daysToCorrect":"10.0","correctedDate":null,"correctionDescription":"Remove and replace to be in compliance with law."}]},{"inspectionid":"37791","inspectionDate":"2017-01-26T00:00:00","inspectionType":"Routine Inspection","inCompliance":"Yes","violationsByInspectionidList":[{"violationCode":"5-205.15","violationDescription":"A PLUMBING SYSTEM shall be:\r\n(A) Repaired according to LAW; (P) and\r\n(B) Maintained in good repair.\r\n","violationType":"Core","itemDescription":"Plumbing system","subItem":"","problemDescription":"Not repaired according to law","subProblem":"","location":"3 COMPARTMENT SINK AREA","subLocation":"","corrected":"Not required","daysToCorrect":"10.0","correctedDate":null,"correctionDescription":"Repair according to law."},{"violationCode":"4-501.11","violationDescription":"EQUIPMENT shall be maintained in a state of repair and condition that meets the requirements of the code.\r\n","violationType":"Core","itemDescription":"Equipment","subItem":"","problemDescription":"In poor repair","subProblem":"","location":"COOLER","subLocation":"","corrected":"Not required","daysToCorrect":"30.0","correctedDate":null,"correctionDescription":null}]}]}]}},"pageContext":{"eid":"3321"}}