{"data":{"site":{"pathPrefix":"/restaurant-inspections"},"postgres":{"establishment":[{"establishmentid":"2366","name":"Old Redford Academy Prep. High School","address":"8001 W Outer Dr","zipcode":"48235","owner":"Old Redford Academy High Schoo","licenseNumber":"046795","licenseType":"Fixed Establishment","establishmentType":"Non-Public School","establishmentStatus":"Open","riskCategory":null,"reviewFrequencyDays":"210.0","coords":"-83.22183,42.41793","geojson":{"id":"2366","type":"Feature","geometry":{"type":"Point","coordinates":[-83.2218294629999,42.4179262750001]},"properties":{"name":"Old Redford Academy Prep. High School","owner":"Old Redford Academy High Schoo","address":"8001 W Outer Dr","zipcode":"48235","license_type":"Fixed Establishment","risk_category":null,"license_number":"046795","establishmentid":"2366","establishment_type":"Non-Public School","establishment_status":"Open","review_frequency_days":"210.0","most_recent_license_date":"5/8/2018"}},"nearbyList":[{"establishmentid":"4924","name":"Cornerstone Health & Tech High School","address":"17351 Southfield Rd","zipcode":"48235"},{"establishmentid":"51622610","name":"Island Spice Caribbean Food Restaurant","address":"18200 W McNichols Rd","zipcode":"48219"},{"establishmentid":"5178","name":"Great Lakes Burger Bar","address":"18200 W McNichols","zipcode":"48219"},{"establishmentid":"4959","name":"Cheng's Garden","address":"18205 W McNichols Rd","zipcode":"48219"},{"establishmentid":"5238","name":"Mr. C Fish Market Inc.","address":"18203 W McNichols","zipcode":"48219"},{"establishmentid":"3798","name":"Subway ","address":"8200 W Outer Dr","zipcode":"48235"},{"establishmentid":"2464","name":"Subway #24532","address":"7950 W Outer Dr","zipcode":"48235"},{"establishmentid":"5015","name":"Mr. B's Soul Food Truck #1","address":"17600 W McNichols","zipcode":"48235"},{"establishmentid":"4442","name":"Mr. B's Soul Food","address":"17600 W McNichols Rd","zipcode":"48235"},{"establishmentid":"5016","name":"Mr. B's Soul Food Truck #2","address":"17600 W McNichols","zipcode":"48235"}],"inspectionsByEstablishmentidList":[{"inspectionid":"43644","inspectionDate":"2018-10-03T00:00:00","inspectionType":"Routine Inspection","inCompliance":"Yes","violationsByInspectionidList":[]},{"inspectionid":"42037","inspectionDate":"2018-04-19T00:00:00","inspectionType":"Routine Inspection","inCompliance":"Yes","violationsByInspectionidList":[{"violationCode":"7-102.11","violationDescription":"Working containers used for storing POISONOUS OR TOXIC MATERIALS such as cleaners and SANITIZERS taken from bulk supplies shall be clearly and individually identified with the common name of the material. (Pf)\r\n","violationType":"Foundation","itemDescription":"Working containers-toxics","subItem":"cleaner","problemDescription":"Not labeled as to content","subProblem":"","location":"3 COMPARTMENT SINK AREA","subLocation":"","corrected":"Yes","daysToCorrect":"10.0","correctedDate":"2018-04-19T00:00:00","correctionDescription":"Label containers with common name."}]},{"inspectionid":"40044","inspectionDate":"2017-09-21T00:00:00","inspectionType":"Routine Inspection","inCompliance":"Yes","violationsByInspectionidList":[]},{"inspectionid":"38791","inspectionDate":"2017-05-26T00:00:00","inspectionType":"Routine Inspection","inCompliance":"Yes","violationsByInspectionidList":[]},{"inspectionid":"37091","inspectionDate":"2016-10-20T00:00:00","inspectionType":"Routine Inspection","inCompliance":"Yes","violationsByInspectionidList":[{"violationCode":"4-501.114","violationDescription":"A chemical SANITIZER used in a SANITIZING solution for a manual or\r\nmechanical operation shall meet these limits or as otherwise approved: (P)\r\n\tChlorine        ppm           pH<10             pH<8\r\n\t\t      25              120 F              120 F\r\n\t\t      50              100 F              75 F\r\n\t\t     100              55 F               55 F\r\n                 Iodine           a concentration of between 12.5 and 25 ppm and minimum temp of 75 F and pH of 5 or less or meets manufacturer's specifications. (P)\r\n\r\n                Quats            minimum temperature of 75 F, hardness of 500 ppm or less and meet manufacturers use directions. (P)\r\n","violationType":"Priority","itemDescription":"Chlorine solution concentration","subItem":"","problemDescription":"Below 25 ppm","subProblem":"","location":"3 COMPARTMENT SINK AREA","subLocation":"","corrected":"Yes","daysToCorrect":"10.0","correctedDate":"2016-10-20T00:00:00","correctionDescription":"Provide correct concentration as stated above."},{"violationCode":"4-302.14","violationDescription":"A test kit or other device that accurately measures the concentration in mg/L of SANITIZING solutions shall be provided. (Pf)\r\n","violationType":"Foundation","itemDescription":"Sanitizer test kit","subItem":"chlorine","problemDescription":"Not provided","subProblem":"","location":"ESTABLISHMENT","subLocation":"","corrected":"Yes","daysToCorrect":"10.0","correctedDate":"2016-10-20T00:00:00","correctionDescription":"Provide."}]}]}]}},"pageContext":{"eid":"2366"}}