{"data":{"site":{"pathPrefix":"/restaurant-inspections"},"postgres":{"establishment":[{"establishmentid":"3332","name":"Chicken Shack","address":"14630 Mack Ave","zipcode":"48215","owner":"CJT Food Enterprises","licenseNumber":"081064","licenseType":"Fixed Establishment","establishmentType":"Food Service Establishment","establishmentStatus":"Open","riskCategory":null,"reviewFrequencyDays":"365.0","coords":"-82.95043,42.38681","geojson":{"id":"3332","type":"Feature","geometry":{"type":"Point","coordinates":[-82.950425904,42.3868120980001]},"properties":{"name":"Chicken Shack","owner":"CJT Food Enterprises","address":"14630 Mack Ave","zipcode":"48215","license_type":"Fixed Establishment","risk_category":null,"license_number":"081064","establishmentid":"3332","establishment_type":"Food Service Establishment","establishment_status":"Open","review_frequency_days":"365.0","most_recent_license_date":"5/2/2019"}},"nearbyList":[{"establishmentid":"5381","name":"Mack Coney Island","address":"14845 Mack Ave","zipcode":"48215"},{"establishmentid":"51622848","name":"Foodelicious","address":"14845 Mack Ave","zipcode":"48215"},{"establishmentid":"3768","name":"Krazy Pizza","address":"14300 Mack Ave","zipcode":"48215"},{"establishmentid":"2002","name":"East Bar-Detroit","address":"15045 Mack Ave","zipcode":"48224"},{"establishmentid":"1684","name":"Ye Olde Tap Room","address":"14915 Charlevoix","zipcode":"48215"},{"establishmentid":"4868","name":"D C's Alabama Style Chicken Fish & Ribs","address":"15401 Mack Ave","zipcode":"48224"},{"establishmentid":"5150","name":"Memories","address":"15421 Mack Ave","zipcode":"48224"},{"establishmentid":"51622760","name":"Lost River","address":"15421 Mack Ave","zipcode":"48224"},{"establishmentid":"51622630","name":"Veggininies Paradise Cafe","address":"15439 Mack Ave","zipcode":"48224"},{"establishmentid":"2676","name":"Texas Bar and Grill","address":"14619 Kercheval","zipcode":"48215"}],"inspectionsByEstablishmentidList":[{"inspectionid":"42833","inspectionDate":"2018-07-09T00:00:00","inspectionType":"Routine Inspection","inCompliance":"Yes","violationsByInspectionidList":[{"violationCode":"5-205.15","violationDescription":"A PLUMBING SYSTEM shall be:\r\n(A) Repaired according to LAW; (P) and\r\n(B) Maintained in good repair.\r\n","violationType":"Core","itemDescription":"Plumbing system","subItem":"","problemDescription":"Not maintained","subProblem":"","location":"WALK-IN COOLER","subLocation":"At the Three compartment sink","corrected":"Not required","daysToCorrect":"10.0","correctedDate":null,"correctionDescription":"Maintain in good repair"},{"violationCode":"4-204.11","violationDescription":"Exhaust ventilation hood systems in FOOD preparation and WAREWASHING areas including components such as hoods, fans, guards, and ducting shall be designed to prevent grease or condensation from draining or dripping onto FOOD, EQUIPMENT, UTENSILS, LINENS, and SINGLE-SERVICE and SINGLE-USE ARTICLES.\r\n","violationType":"Core","itemDescription":"Exhaust ventilation hood system(s)","subItem":"","problemDescription":"Designed to allow grease or condensation from draining/dripping onto","subProblem":"Equipment","location":"FRONT PREP AREA","subLocation":"Under the Ventilation hood","corrected":"Not required","daysToCorrect":"30.0","correctedDate":null,"correctionDescription":"Repair/replace to prevent grease accumulation/dripping/draining."}]},{"inspectionid":"38878","inspectionDate":"2017-06-06T00:00:00","inspectionType":"Routine Inspection","inCompliance":"Yes","violationsByInspectionidList":[{"violationCode":"6-202.15","violationDescription":"Outer openings of a FOOD ESTABLISHMENT shall be protected against the entry of insects and rodents. Unless otherwise allowed by law. \r\n","violationType":"Core","itemDescription":"Outer opening(s)","subItem":"door(s)","problemDescription":"Not tight-fitting","subProblem":"","location":"BACK DOOR","subLocation":"At the base of the Door - back door","corrected":"Not required","daysToCorrect":"30.0","correctedDate":null,"correctionDescription":"Repair/replace to meet requirements above."},{"violationCode":"MFL289.2129","violationDescription":"Sec. 2129. (1) All food establishments shall employ a minimum of 1 managerial employee as a food safety manager, who must be an individual who is currently certified under a personnel certification program accredited by the American National Standards Institute, utilizing the Conference for Food Protection standards:\r\n(2) Beginning January 14, 2017 and every 5 years thereafter, a certified  food safety manager who supervises the operations of a food service establishment shall have completed a food safety training program\r\ncontaining an allergen awareness  component that has been approved by  the department. A food service establishment shall retain records on the  site of the food service establishment documenting compliance of its  certified food safety managers with this subsection. ","violationType":"Core","itemDescription":"Person-in-charge","subItem":"","problemDescription":"Missing","subProblem":"","location":"RESTAURANT","subLocation":"At the PERSON IN CHARGE","corrected":"Not required","daysToCorrect":"30.0","correctedDate":null,"correctionDescription":"Provide."}]}]}],"maxInspectionDate":[{"inspectionDate":"2019-05-31T00:00:00"}]}},"pageContext":{"eid":"3332"}}