{"data":{"site":{"pathPrefix":"/restaurant-inspections"},"postgres":{"establishment":[{"establishmentid":"5084","name":"Word In Action Christian Center","address":"19780 Meyers Rd","zipcode":"48227","owner":"Word In Action Christain C.","licenseNumber":"200047","licenseType":"Fixed Establishment","establishmentType":"Food Service Establishment","establishmentStatus":"Open","riskCategory":"Medium","reviewFrequencyDays":"365","coords":"-83.17041,42.43765","geojson":{"id":"5084","type":"Feature","geometry":{"type":"Point","coordinates":[-83.170406729,42.437653242]},"properties":{"name":"Word In Action Christian Center","owner":"Word In Action Christain C.","address":"19780 Meyers Rd","zipcode":"48227","license_type":"Fixed Establishment","risk_category":"Medium","license_number":"200047","establishmentid":"5084","establishment_type":"Food Service Establishment","establishment_status":"Open","review_frequency_days":"365","most_recent_license_date":null}},"nearbyList":[{"establishmentid":"912","name":"Macdowell Preparatory Academy","address":"4201 W Outer Dr","zipcode":"48238"},{"establishmentid":"723","name":"Motor City Soul Food","address":"12700 W Seven Mile Rd","zipcode":"48235"},{"establishmentid":"669","name":"Lotus Gardens","address":"12832 W Seven Mile Rd","zipcode":"48235"},{"establishmentid":"5280","name":"Capital Hook Fish & Chicken Inc","address":"10600 W Seven Mile Rd","zipcode":"48221"},{"establishmentid":"51623134","name":"BBQ Central","address":"12729 W Seven Mile Rd","zipcode":"48235"},{"establishmentid":"5403","name":"Detroit Shawarma/Spice Giant","address":"12729 W Seven Mile Rd","zipcode":"48235"},{"establishmentid":"4098","name":"Checkers #3310","address":"10711 W Seven Mile Rd","zipcode":"48221"},{"establishmentid":"825","name":"Bates Academy","address":"19701 Wyoming Ave","zipcode":"48221"},{"establishmentid":"588","name":"Hot Tamales","address":"13109 W Eight Mile Rd","zipcode":"48235"},{"establishmentid":"3879","name":"Franks Anatra","address":"18700 Meyers","zipcode":"48221"}],"inspectionsByEstablishmentidList":[{"inspectionid":"44792","inspectionDate":"2019-01-09T00:00:00","inspectionType":"Routine Inspection","inCompliance":"Yes","violationsByInspectionidList":[{"violationCode":"MFL289.2129","violationDescription":"Sec. 2129. (1) All food establishments shall employ a minimum of 1 managerial employee as a food safety manager, who must be an individual who is currently certified under a personnel certification program accredited by the American National Standards Institute, utilizing the Conference for Food Protection standards:\r\n(2) Beginning January 14, 2017 and every 5 years thereafter, a certified  food safety manager who supervises the operations of a food service establishment shall have completed a food safety training program\r\ncontaining an allergen awareness  component that has been approved by  the department. A food service establishment shall retain records on the  site of the food service establishment documenting compliance of its  certified food safety managers with this subsection. ","violationType":"Core","itemDescription":"Person-in-charge","subItem":"","problemDescription":null,"subProblem":"","location":"FACILITY","subLocation":"","corrected":"Not required","daysToCorrect":"30","correctedDate":null,"correctionDescription":null},{"violationCode":"5-501.17","violationDescription":"A toilet room used by females shall be provided with a covered receptacle for sanitary napkins.\r\n","violationType":"Core","itemDescription":"Covered waste receptacle(s)","subItem":"","problemDescription":"Not provided","subProblem":"","location":"RESTROOM (UNISEX)","subLocation":"","corrected":"Not required","daysToCorrect":"30","correctedDate":null,"correctionDescription":"Provide."}]}]}],"maxInspectionDate":[{"inspectionDate":"2020-10-30T00:00:00"}]}},"pageContext":{"eid":"5084"}}