{"data":{"site":{"pathPrefix":"/restaurant-inspections"},"postgres":{"establishment":[{"establishmentid":"51622886","name":"Shinola Hotel- Evening Bar","address":"1400 Woodward Ave","zipcode":"48226","owner":"1400 Webward Ave LLC","licenseNumber":"233681","licenseType":"Fixed Establishment","establishmentType":"Food Service Establishment","establishmentStatus":"Open","riskCategory":"High","reviewFrequencyDays":"180","coords":"-83.04846,42.33439","geojson":{"id":"51622886","type":"Feature","geometry":{"type":"Point","coordinates":[-83.048455447,42.334394929]},"properties":{"name":"Shinola Hotel- Evening Bar","owner":"1400 Webward Ave LLC","address":"1400 Woodward Ave","zipcode":"48226","license_type":"Fixed Establishment","risk_category":"High","license_number":"233681","establishmentid":"51622886","establishment_type":"Food Service Establishment","establishment_status":"Open","review_frequency_days":"180","most_recent_license_date":null}},"nearbyList":[{"establishmentid":"51622881","name":"Shinola Hotel- San Morello","address":"1400 Woodward Ave","zipcode":"48226"},{"establishmentid":"51622882","name":"Penny Red's","address":"1400 Woodward Ave","zipcode":"48226"},{"establishmentid":"51622702","name":"Shinola Hotel- WW Basement Kitchen","address":"1400 Woodward Ave","zipcode":"48226"},{"establishmentid":"51622787","name":"The Brakeman","address":"1400 Woodward Ave","zipcode":"48226"},{"establishmentid":"51622701","name":"Shinola Hotel- Banquet Kitchen","address":"1400 Woodward Ave","zipcode":"48226"},{"establishmentid":"51622703","name":"Shinola Hotel-Birdie Room","address":"1400 Woodward Ave","zipcode":"48226"},{"establishmentid":"51623052","name":"Olin","address":"23 E Grand River Ave","zipcode":"48226"},{"establishmentid":"51622901","name":"Madcap Coffee Company","address":"1413 Farmer Street","zipcode":"48226"},{"establishmentid":"51622578","name":"Lover's Only","address":"34 W Grand River Ave","zipcode":"48226"},{"establishmentid":"51622763","name":"Cannelle Detroit LLC","address":"45 W Grand River Ave","zipcode":"48226"}],"inspectionsByEstablishmentidList":[{"inspectionid":"51109","inspectionDate":"2020-03-12T00:00:00","inspectionType":"Routine Inspection","inCompliance":"Yes","violationsByInspectionidList":[{"violationCode":"6-501.111","violationDescription":"The presence of insects, rodents, and other pests shall be controlled to minimize their presence on the PREMISES.  by:\r\n(A) Routinely inspecting incoming shipments of FOOD and supplies; \r\n(B) Routinely inspecting the PREMISES for evidence of pests;\r\n(C) Using methods, if pests are found, such as trapping devices or other means of pest control as specified.(Pf) \r\n(D) Eliminating harborage conditions. \r\n","violationType":"Core","itemDescription":"Pest(s)","subItem":"gnats","problemDescription":"Present in facility","subProblem":"","location":"BAR","subLocation":"Above the Bar","corrected":"Yes","daysToCorrect":"10","correctedDate":"2020-03-12T00:00:00","correctionDescription":null}]},{"inspectionid":"49410","inspectionDate":"2019-10-09T00:00:00","inspectionType":"Routine Inspection","inCompliance":"Yes","violationsByInspectionidList":[{"violationCode":"6-501.111","violationDescription":"The presence of insects, rodents, and other pests shall be controlled to minimize their presence on the PREMISES.  by:\r\n(A) Routinely inspecting incoming shipments of FOOD and supplies; \r\n(B) Routinely inspecting the PREMISES for evidence of pests;\r\n(C) Using methods, if pests are found, such as trapping devices or other means of pest control as specified.(Pf) \r\n(D) Eliminating harborage conditions. \r\n","violationType":"Core","itemDescription":"Pest(s)","subItem":"gnats","problemDescription":"Present in facility","subProblem":"","location":"BAR","subLocation":"Above the Bar","corrected":"Not required","daysToCorrect":"10","correctedDate":null,"correctionDescription":null}]}]}],"maxInspectionDate":[{"inspectionDate":"2020-10-30T00:00:00"}]}},"pageContext":{"eid":"51622886"}}