{"componentChunkName":"component---src-templates-establishment-page-js","path":"/establishment/51623175","result":{"data":{"site":{"pathPrefix":"/restaurant-inspections"},"postgres":{"establishment":[{"establishmentid":"51623175","name":"Mad Nice","address":"4120 Second Ave.","zipcode":"48201","owner":"Mad Nice LLC","licenseNumber":"266422","licenseType":"Fixed Establishment","establishmentType":"Food Service Establishment","establishmentStatus":"Open","riskCategory":"High","reviewFrequencyDays":"150","coords":"-83.06505,42.34922","geojson":{"id":"51623175","type":"Feature","geometry":{"type":"Point","coordinates":[-83.06504577,42.349224552]},"properties":{"name":"Mad Nice","owner":"Mad Nice LLC","address":"4120 Second Ave.","zipcode":"48201","license_type":"Fixed Establishment","risk_category":"High","license_number":"266422","establishmentid":"51623175","establishment_type":"Food Service Establishment","establishment_status":"Open","review_frequency_days":"150","most_recent_license_date":null}},"nearbyList":[{"establishmentid":"5126","name":"Will Leather Goods Coffee Shop","address":"4120 Second Ave.","zipcode":"48201"},{"establishmentid":"5372","name":"Foundation Rock Spirits LLC dba Castalia","address":"3980 Second Ave.","zipcode":"48201"},{"establishmentid":"51623656","name":"Foundation Rock Spirits-Stadt Garten","address":"3980 Second Ave","zipcode":"48201"},{"establishmentid":"718","name":"Mario's","address":"4222 Second Ave.","zipcode":"48201"},{"establishmentid":"4827","name":"Selden Standard","address":"3921-29  Second Ave.","zipcode":"48201"},{"establishmentid":"4658","name":"Traffic Jam-Snug/Brewery","address":"4268 Second Ave.","zipcode":"48201"},{"establishmentid":"235","name":"Traffic Jam-Snug","address":"4268 Second Ave. ","zipcode":"48201"},{"establishmentid":"51624017","name":"Slows To Go Food Truck ","address":"4107 Cass Ave ","zipcode":"48201"},{"establishmentid":"5042","name":"Slows On The Go Mobile Kitchen","address":"4107 Cass Ave.","zipcode":"48201"},{"establishmentid":"4152","name":"Slows To Go","address":"4107 Cass Ave.","zipcode":"48201"}],"inspectionsByEstablishmentidList":[{"inspectionid":"62066","inspectionDate":"2023-04-04T00:00:00","inspectionType":"Pre-opening","inCompliance":"No","violationsByInspectionidList":[{"violationCode":"7-201.11","violationDescription":"POISONOUS OR TOXIC MATERIAL shall be stored so they can not contaminate FOOD, EQUIPMENT, UTENSILS, LINENS, AND SINGLE-SERVICE AND SINGLE-USE ARTICLES by:   \n(A) Separating the POISONOUS OR TOXIC MATERIAL by spacing or partitioning; (P) and   \n(B) Locating the POISONOUS OR TOXIC MATERIAL in an area that is not above FOOD, EQUIPMENT, UTENSILS, LINENS, AND SINGLE-SERVICE AND SINGLE-USE ARTICLES.  This paragraph does not apply to EQUIPMENT and UTENSIL cleaners and sanitizers that are stored in WAREWASHING areas for availability and convenience if the materials are stored to prevent contamination of FOOD, EQUIPMENT, UTENSILS, LINENS, AND SINGLE-SERVICE and SINGLE-USE ARTICLES. (P)","violationType":"Priority","itemDescription":"Poisonous/toxic material(s)","subItem":"","problemDescription":"Stored over/with","subProblem":"Equipment/utensils","location":"DISHWASHING AREA","subLocation":"Above the Dishwasher (high temperature)","corrected":"True","daysToCorrect":"10","correctedDate":"0001-01-01T00:00:00","correctionDescription":null},{"violationCode":"3-502.11","violationDescription":"A FOOD ESTABLISHMENT shall obtain a VARIANCE from the REGULATORY AUTHORITY for any specialized processing methods. (Pf)\n","violationType":"Foundation","itemDescription":"Specialized processing methods","subItem":"-reduced oxygen packaging","problemDescription":"Does not have a variance","subProblem":"","location":"ESTABLISHMENT","subLocation":"In the Prep area","corrected":"True","daysToCorrect":"10","correctedDate":"0001-01-01T00:00:00","correctionDescription":null}]}]}],"maxInspectionDate":[{"inspectionDate":"2023-04-13T00:00:00"}]}},"pageContext":{"eid":"51623175"}},"staticQueryHashes":["3649515864","63159454"]}