{"data":{"site":{"pathPrefix":"/restaurant-inspections"},"postgres":{"establishment":[{"establishmentid":"328","name":"Duffy's Den","address":"24800 W McNichols Rd","zipcode":"48219","owner":"D.O.G, Inc.","licenseNumber":"034024","licenseType":"Fixed Establishment","establishmentType":"Food Service Establishment","establishmentStatus":"Open","riskCategory":"Medium","reviewFrequencyDays":"180.0","coords":"-83.28535,42.41455","geojson":{"id":"328","type":"Feature","geometry":{"type":"Point","coordinates":[-83.285351728,42.414550193]},"properties":{"name":"Duffy's Den","owner":"D.O.G, Inc.","address":"24800 W McNichols Rd","zipcode":"48219","license_type":"Fixed Establishment","risk_category":"Medium","license_number":"034024","establishmentid":"328","establishment_type":"Food Service Establishment","establishment_status":"Open","review_frequency_days":"180.0","most_recent_license_date":"5/4/2018"}},"nearbyList":[{"establishmentid":"4289","name":"Old Redford Academy Middle School","address":"22122 W McNichols Rd","zipcode":"48219"},{"establishmentid":"329","name":"Nite Cap Lounge Inc.","address":"24817 W McNichols Rd","zipcode":"48219"},{"establishmentid":"1086","name":"Rocky's Grill Coney Island","address":"24611 W McNichols Rd","zipcode":"48219"},{"establishmentid":"327","name":"Toy Box II Bar and Grill, Inc.","address":"24351 W McNichols Rd","zipcode":"48219"},{"establishmentid":"5115","name":"Farmer Kay Market","address":"24311 W McNichols Rd","zipcode":"48219"},{"establishmentid":"1610","name":"Sun China Restaurant","address":"16901 Telegraph Rd","zipcode":"48219"},{"establishmentid":"2328","name":"DeAngelo's Soul Food Deli & More","address":"17425 Telegraph Rd","zipcode":"48219"},{"establishmentid":"523","name":"Chapeau Vert Lounge","address":"16550 Telegraph Rd","zipcode":"48219"},{"establishmentid":"929","name":"City Limits Bar and Grill","address":"24501 Grand River Ave","zipcode":"48219"},{"establishmentid":"751","name":"Dairy Queen of Redford","address":"24671 Grand River Ave","zipcode":"48219"},{"establishmentid":"51622651","name":"Views Bar and Grill","address":"24200 Grand River","zipcode":"48219"},{"establishmentid":"2342","name":"Bookie's Ham & Soul ","address":"23636 Grand River Ave","zipcode":"48219"},{"establishmentid":"5231","name":"Detroit Fresh Fish & Seafood Co. Inc.","address":"19001 Telegraph Rd","zipcode":"48219"},{"establishmentid":"3885","name":"Ray's Pizza & Chicken","address":"19005 Telegraph Rd","zipcode":"48219"},{"establishmentid":"4630","name":"Just Martinis Bar and Grill (DBA Demi's)","address":"24201 W Seven Mile Rd","zipcode":"48219"},{"establishmentid":"4318","name":"Nu Wave Fish & Chicken","address":"19125 Telegraph Rd","zipcode":"48219"},{"establishmentid":"1575","name":"China 1 Chinese Restaurant","address":"19129 Telegraph Rd","zipcode":"48219"},{"establishmentid":"1542","name":"Subway #6309","address":"19127 Telegraph Rd","zipcode":"48219"},{"establishmentid":"2160","name":"Fifty/50","address":"23810 Fenkell Ave","zipcode":"48223"},{"establishmentid":"353","name":"Aurora Coney Island","address":"23671 W Seven Mile Rd","zipcode":"48219"}],"inspectionsByEstablishmentidList":[{"inspectionid":"43989","inspectionDate":"2018-10-31T00:00:00","inspectionType":"Routine Inspection","inCompliance":"Yes","violationsByInspectionidList":[{"violationCode":"3-501.16","violationDescription":"Except during preparation, cooking, or cooling, or when time is used as the public health control POTENTIALLY HAZARDOUS FOOD (TIME/TEMPERATURE CONTROL FOR SAFETY FOOD) shall be maintained:\r\n(A)  135ºF or above, except that roasts properly cooked and cooled may be held              at a temperature of 130ºF; or (P)\r\n(B)   At 41ºF or less (P)\r\n","violationType":"Priority","itemDescription":"Hot food item(s)","subItem":"","problemDescription":"Stored below 135 degrees F","subProblem":"","location":"KITCHEN","subLocation":"","corrected":"Yes","daysToCorrect":"10.0","correctedDate":"2018-10-31T00:00:00","correctionDescription":"Store above 135 degrees F."},{"violationCode":"4-602.13","violationDescription":"NonFOOD-CONTACT SURFACES of EQUIPMENT shall be cleaned at a frequency necessary to preclude accumulation of soil residues.\r\n","violationType":"Core","itemDescription":"Nonfood contact surface(s)","subItem":"","problemDescription":"Soiled","subProblem":"","location":"BAR(S)","subLocation":"","corrected":"Not required","daysToCorrect":"30.0","correctedDate":null,"correctionDescription":"Clean."}]},{"inspectionid":"42108","inspectionDate":"2018-04-24T00:00:00","inspectionType":"Routine Inspection","inCompliance":"Yes","violationsByInspectionidList":[{"violationCode":"7-102.11","violationDescription":"Working containers used for storing POISONOUS OR TOXIC MATERIALS such as cleaners and SANITIZERS taken from bulk supplies shall be clearly and individually identified with the common name of the material. (Pf)\r\n","violationType":"Foundation","itemDescription":"Working containers-toxics","subItem":"cleaner","problemDescription":"Not labeled as to content","subProblem":"","location":"3 COMPARTMENT SINK AREA","subLocation":"","corrected":"Yes","daysToCorrect":"10.0","correctedDate":"2018-04-24T00:00:00","correctionDescription":"Label containers with common name."},{"violationCode":"5-205.11","violationDescription":"(A) A HANDWASHING SINK shall be maintained so that it is accessible at all times for EMPLOYEE use and used for no other purpose. (Pf)\r\n(B)  An automatic handwashing facility shall be used in accordance with manufacturer's instructions. (Pf)\r\n","violationType":"Foundation","itemDescription":"Handwashing sink(s)","subItem":"","problemDescription":"Used for culinary purposes","subProblem":"","location":"HANDSINK(S)","subLocation":"","corrected":"Yes","daysToCorrect":"10.0","correctedDate":"2018-04-24T00:00:00","correctionDescription":"Discontinue use of hand sink for this use and use appropriate sink."}]},{"inspectionid":"40398","inspectionDate":"2017-10-10T00:00:00","inspectionType":"Routine Inspection","inCompliance":"Yes","violationsByInspectionidList":[{"violationCode":"5-205.11","violationDescription":"(A) A HANDWASHING SINK shall be maintained so that it is accessible at all times for EMPLOYEE use and used for no other purpose. (Pf)\r\n(B)  An automatic handwashing facility shall be used in accordance with manufacturer's instructions. (Pf)\r\n","violationType":"Foundation","itemDescription":"Handwashing sink(s)","subItem":"","problemDescription":"Not easily accessible","subProblem":"Items stored In","location":"KITCHEN","subLocation":"","corrected":"Yes","daysToCorrect":"10.0","correctedDate":"2017-10-10T00:00:00","correctionDescription":"Remove items from handsink.  Do not store items at handsink."},{"violationCode":"4-602.11","violationDescription":"(A) Equipment FOOD-CONTACT SURFACES and UTENSILS shall be cleaned:     \r\n  (1) Except as specified in ¶ (B) of this section, before each use with a different   type of raw animal FOOD such as beef, FISH, lamb, pork, or POULTRY; (P)   \r\n  (2) Each time there is a change from working with raw FOODS to working with   READY-TO-EAT FOODS; (P)   \r\n  (3) Between uses with raw fruits and vegetables and with POTENTIALLY   HAZARDOUS FOOD (TIME/TEMPERATURE CONTROL FOR SAFETY FOOD);   (P)   \r\n  (4) Before using or storing a FOOD TEMPERATURE MEASURING   DEVICE; (P) and   \r\n  (5) At any time during the operation when contamination may have occurred. (P)\r\n(B) Subparagraph (A)(1) of this section does not apply if the FOOD-CONTACT SURFACE or UTENSIL is in contact with a succession of different raw animal FOODS each requiring a higher cooking temperature as specified under § 3-401.11 than the previous FOOD, such as preparing raw FISH followed by cutting raw poultry on the same cutting board.   \r\n(C) Except as specified in ¶ (D) of this section, if used with POTENTIALLY HAZARDOUS FOOD (TIME/TEMPERATURE CONTROL FOR SAFETY FOOD), EQUIPMENT FOOD-CONTACT SURFACES and UTENSILS shall be cleaned throughout the day at least every 4 hours. (P)   \r\n(D) Except when dry cleaning methods are used as specified under § 4-603.11, surfaces of UTENSILS and EQUIPMENT contacting FOOD that is not POTENTIALLY HAZARDOUS (TIME/TEMPERATURE CONTROL FOR SAFETY FOOD) shall be cleaned:     \r\n  (1)   At any time when contamination may have occurred;\r\n  (2)   At least every 24 hours for iced tea dispensers and CONSUMER self-service UTENSILS such as tongs, scoops, or ladles;\r\n  (3) Before restocking CONSUMER self-service EQUIPMENT and UTENSILS such as condiment dispensers and display containers; and\r\n  (4) In EQUIPMENT such as ice bins and BEVERAGE dispensing nozzles and   enclosed components of EQUIPMENT such as ice makers, cooking oil storage   tanks and distribution lines, BEVERAGE and syrup dispensing lines or tubes,   coffee bean grinders, and water vending EQUIPMENT:\r\n     (a) At a frequency specified by the manufacturer, or\r\n     (b) Absent manufacturer specifications, at a frequency necessary to preclude      accumulation of soil or mold.","violationType":"Core","itemDescription":"Food-contact surface(s) used for nonpotentially hazardous food(s)","subItem":"","problemDescription":"Not cleaned when contaminated","subProblem":"","location":"BAR","subLocation":"","corrected":"Not required","daysToCorrect":"10.0","correctedDate":null,"correctionDescription":"Clean properly when contaminated."}]},{"inspectionid":"38617","inspectionDate":"2017-05-05T00:00:00","inspectionType":"Routine Inspection","inCompliance":"Yes","violationsByInspectionidList":[]},{"inspectionid":"37004","inspectionDate":"2016-10-28T00:00:00","inspectionType":"Routine Inspection","inCompliance":"Yes","violationsByInspectionidList":[]}]}]}},"pageContext":{"eid":"328"}}