{"data":{"site":{"pathPrefix":"/restaurant-inspections"},"postgres":{"establishment":[{"establishmentid":"51623126","name":"Treat You Batter Bakery","address":"6915 Greenfield Rd","zipcode":"48228","owner":"Sara Altimimy","licenseNumber":"249366","licenseType":"Fixed Establishment","establishmentType":"Food Service Establishment","establishmentStatus":"Open","riskCategory":"High","reviewFrequencyDays":"180","coords":"-83.20151,42.46756","geojson":{"id":"51623126","type":"Feature","geometry":{"type":"Point","coordinates":[-83.201513923,42.467559196]},"properties":{"name":"Treat You Batter Bakery","owner":"Sara Altimimy","address":"6915 Greenfield Rd","zipcode":"48228","license_type":"Fixed Establishment","risk_category":"High","license_number":"249366","establishmentid":"51623126","establishment_type":"Food Service Establishment","establishment_status":"Open","review_frequency_days":"180","most_recent_license_date":null}},"nearbyList":[{"establishmentid":"2776","name":"Nu Wave Fish & Chicken","address":"15030 E Eight Mile Rd","zipcode":"48205"},{"establishmentid":"5116","name":"Subway","address":"15000 E Eight Mile Rd","zipcode":"48205"},{"establishmentid":"51623107","name":"Checker's Drive Inn Resturant","address":"14858 E Eight Mile Rd","zipcode":"48205"},{"establishmentid":"1991","name":"Mama's, Inc.","address":"14620 E Eight Mile Rd","zipcode":"48205"},{"establishmentid":"5286","name":"Rinor LLC / Mama's","address":"14620 E Eight Mile Rd","zipcode":"48205"},{"establishmentid":"4915","name":"The Jamaican Pot","address":"14615 W Eight Mile Rd","zipcode":"48235"},{"establishmentid":"2130","name":"White Castle #38","address":"20409 James Couzens","zipcode":"48235"},{"establishmentid":"4286","name":"Jalen Rose Leadership Acadamy","address":"15000 Trojan St","zipcode":"48235"},{"establishmentid":"5395","name":"Mighty Wings","address":"20131 Greenfield Rd","zipcode":"48235"},{"establishmentid":"5157","name":"44 Burrito","address":"14015 W Eight Mile Rd","zipcode":"48235"}],"inspectionsByEstablishmentidList":[{"inspectionid":"52605","inspectionDate":"2020-09-01T00:00:00","inspectionType":"Routine Inspection","inCompliance":"No","violationsByInspectionidList":[{"violationCode":"4-302.14","violationDescription":"A test kit or other device that accurately measures the concentration in mg/L of SANITIZING solutions shall be provided. (Pf)\r\n","violationType":"Foundation","itemDescription":"Sanitizer test kit","subItem":"","problemDescription":"Not provided","subProblem":"","location":"KITCHEN","subLocation":"","corrected":"No","daysToCorrect":"10","correctedDate":null,"correctionDescription":null},{"violationCode":"3-302.12","violationDescription":"Except for containers holding FOOD that can be readily and unmistakably recognized such as dry pasta, working containers holding FOOD or FOOD ingredients that are removed from their original packages for use in the FOOD ESTABLISHMENT, such as cooking oils, flour, herbs, potato flakes, salt, spices, and sugar shall be identified with the common name of the FOOD.","violationType":"Core","itemDescription":"Food item(s)","subItem":"","problemDescription":"Not identified","subProblem":"","location":"KITCHEN","subLocation":"","corrected":"Yes","daysToCorrect":"30","correctedDate":"2020-09-01T00:00:00","correctionDescription":"Label containers with common name."}]}]}],"maxInspectionDate":[{"inspectionDate":"2020-10-30T00:00:00"}]}},"pageContext":{"eid":"51623126"}}