{"data":{"site":{"pathPrefix":"/restaurant-inspections"},"postgres":{"establishment":[{"establishmentid":"3470","name":"Starbucks Coffee","address":"3670 Woodward Ave","zipcode":"48202","owner":"Urban Coffee Opportunities LLC","licenseNumber":"054042","licenseType":"Fixed Establishment","establishmentType":"Food Service Establishment","establishmentStatus":"Open","riskCategory":"Medium","reviewFrequencyDays":"365.0","coords":"-83.05827,42.34872","geojson":{"id":"3470","type":"Feature","geometry":{"type":"Point","coordinates":[-83.058271684,42.3487201]},"properties":{"name":"Starbucks Coffee","owner":"Urban Coffee Opportunities LLC","address":"3670 Woodward Ave","zipcode":"48202","license_type":"Fixed Establishment","risk_category":"Medium","license_number":"054042","establishmentid":"3470","establishment_type":"Food Service Establishment","establishment_status":"Open","review_frequency_days":"365.0","most_recent_license_date":"5/7/2018"}},"nearbyList":[{"establishmentid":"3070","name":"Detroit Symphony Orchestra Hall","address":"3711 Woodward Ave","zipcode":"48201"},{"establishmentid":"1092","name":"St. Patrick Senior Center, Inc.","address":"58 Parsons St","zipcode":"48201"},{"establishmentid":"4842","name":"Woodward Garden Venue/The Block","address":"3919 Woodward Ave","zipcode":"48201"},{"establishmentid":"4862","name":"Woodward Garden Venue/Theater Bar","address":"3919 Woodward Ave","zipcode":"48201"},{"establishmentid":"1263","name":"Bicentennial Towers  ","address":"4 E Alexandrine St","zipcode":"48201"},{"establishmentid":"4846","name":"Salemi Subway, Inc","address":"4 E Alexandrine St., Ste. 100","zipcode":"48221"},{"establishmentid":"5135","name":"Chiqui Mexican","address":"3990 John R ","zipcode":"48201"},{"establishmentid":"51622839","name":"Dunkin Donuts OM DMC Donuts","address":"3990 John R St","zipcode":"48201"},{"establishmentid":"3807","name":"Great Lakes Coffee Beanery","address":"3990 John R St","zipcode":"48201"},{"establishmentid":"5198","name":"Bigalora Wood Fired Cucina","address":"3990 John R","zipcode":"48201"}],"inspectionsByEstablishmentidList":[{"inspectionid":"44600","inspectionDate":"2018-12-15T00:00:00","inspectionType":"Routine Inspection","inCompliance":"Yes","violationsByInspectionidList":[]},{"inspectionid":"40821","inspectionDate":"2017-11-15T00:00:00","inspectionType":"Routine Inspection","inCompliance":"Yes","violationsByInspectionidList":[]},{"inspectionid":"37160","inspectionDate":"2016-11-08T00:00:00","inspectionType":"Routine Inspection","inCompliance":"Yes","violationsByInspectionidList":[{"violationCode":"2-402.11","violationDescription":"FOOD EMPLOYEES shall wear hair restraints such as hats, hair coverings or nets, beard restraints, and clothing that covers body hair, that are designed and worn to effectively keep their hair from contacting exposed FOOD; clean EQUIPMENT, UTENSILS, and LINENS; or unwrapped SINGLE-SERVICE or SINGLE-USE ARTICLES.","violationType":"Core","itemDescription":"Hair restraint","subItem":"","problemDescription":"Not worn on head/hair","subProblem":"","location":"EMPLOYEE(S)","subLocation":"Lack of Hair Restraints/Covering","corrected":"Not required","daysToCorrect":"30.0","correctedDate":null,"correctionDescription":"Provide hat or hair net."}]},{"inspectionid":"36991","inspectionDate":"2016-10-25T00:00:00","inspectionType":"Preopening/New","inCompliance":"Yes","violationsByInspectionidList":[]},{"inspectionid":"36547","inspectionDate":"2016-09-26T00:00:00","inspectionType":"Plan Review/Evaluat","inCompliance":"Yes","violationsByInspectionidList":[{"violationCode":"MFL289.6111","violationDescription":"Sec. 6111. (1) A license applicant or license holder shall submit in writing to the director a change in approved plans and specifications. Written approval must be obtained before construction under the approved plans and specifications.  (2) Upon request of the director, a license applicant or license holder shall submit as-built plans, clearly showing the work as constructed.","violationType":"Core","itemDescription":null,"subItem":"","problemDescription":null,"subProblem":"","location":"KITCHEN","subLocation":"","corrected":"Not required","daysToCorrect":"30.0","correctedDate":null,"correctionDescription":null},{"violationCode":"6-403.11","violationDescription":"(A) Areas designated for EMPLOYEES to eat, drink, and use tobacco shall be located so that FOOD, EQUIPMENT, LINENS, and SINGLE-SERVICE and SINGLE-USE ARTICLES are protected from contamination.\r\n(B) Lockers or other suitable facilities shall be located in a designated room or area where contamination of FOOD, EQUIPMENT, UTENSILS, LINENS, and SINGLE-SERVICE and SINGLE-USE ARTICLES can not occur.\r\n","violationType":"Core","itemDescription":"Locker(s)/employee storage area(s)","subItem":"for employee","problemDescription":"Contaminates","subProblem":"Equipment","location":"KITCHEN","subLocation":"","corrected":"Not required","daysToCorrect":"30.0","correctedDate":null,"correctionDescription":"Relocate to a designated area that does not contaminate items or surfaces."}]},{"inspectionid":"36546","inspectionDate":"2016-09-22T00:00:00","inspectionType":"Preopening/Other","inCompliance":"Yes","violationsByInspectionidList":[]}]}],"maxInspectionDate":[{"inspectionDate":"2019-03-31T00:00:00"}]}},"pageContext":{"eid":"3470"}}