{"data":{"postgres":{"establishment":[{"establishmentid":"5248","name":"234 Winder St. Inn Community Center","address":"2458 Brush St","zipcode":"48201","owner":"Mona Ross/ Gardner","licenseNumber":"217906","licenseType":"Fixed Establishment","establishmentType":"Food Service Establishment","establishmentStatus":"Open","riskCategory":"Medium","reviewFrequencyDays":"365.0","coords":"-83.04875,42.34241","geojson":{"id":"5248","type":"Feature","geometry":{"type":"Point","coordinates":[-83.048752709,42.3424114860001]},"properties":{"name":"234 Winder St. Inn Community Center","owner":"Mona Ross/ Gardner","address":"2458 Brush St","zipcode":"48201","license_type":"Fixed Establishment","risk_category":"Medium","license_number":"217906","establishmentid":"5248","establishment_type":"Food Service Establishment","establishment_status":"Open","review_frequency_days":"365.0","most_recent_license_date":"5/7/2018"}},"nearbyList":[{"establishmentid":"4223","name":"Comerica Park- Upper deck Lounge Bar","address":"2100 Woodward Ave","zipcode":"48201"},{"establishmentid":"4845","name":"Comerica Park- New Amsterdam 416","address":"2100 Woodward Ave","zipcode":"48201"},{"establishmentid":"4224","name":"Comerica Park- Vending Commissaries","address":"2100 Woodward Ave","zipcode":"48201"},{"establishmentid":"4222","name":"Comerica Park- Michigan Craft Beer","address":"2100 Woodward Ave","zipcode":"48201"},{"establishmentid":"4220","name":"Comerica Park- Champions Club","address":"2100 Woodward Ave ","zipcode":"48201"},{"establishmentid":"5076","name":"Comerica Park- The Corner Tap Room","address":"2100 Woodward Ave","zipcode":"48201"},{"establishmentid":"4217","name":"Comerica Park- Tiger Den/Beer Hall","address":"2100 Woodward Ave","zipcode":"48201"},{"establishmentid":"4218","name":"Comerica Park- Kitchens Upper/Lower","address":"2100 Woodward Ave","zipcode":"48201"},{"establishmentid":"4225","name":"Comerica Park- Concession Stands","address":"2100 Woodward Ave","zipcode":"48201"},{"establishmentid":"4219","name":"Comerica Park- Tiger Club #300","address":"2100 Woodward Ave","zipcode":"48201"},{"establishmentid":"51622520","name":"Comerica Park- Pitchers Pub","address":"2100 Woodward Ave","zipcode":"48226"},{"establishmentid":"4221","name":"Comerica Park- Press Box Lounge","address":"2100 Woodward Ave","zipcode":"48201"},{"establishmentid":"4339","name":"Comerica Park- Mobile Venues","address":"2100 Woodward Ave","zipcode":"48201"},{"establishmentid":"4261","name":"Ford Field- Food Portables","address":"2000 Brush St","zipcode":"48226"},{"establishmentid":"4260","name":"Ford Field- Employee Lounge","address":"2000 Brush St","zipcode":"48226"},{"establishmentid":"4258","name":"Ford Field- Second Floor Concessions","address":"2000 Brush St","zipcode":"48226"},{"establishmentid":"4695","name":"Ford Field - Blitz","address":"2000 Brush St","zipcode":"48226"},{"establishmentid":"4263","name":"Ford Field- Commissaries","address":"2000 Brush St","zipcode":"48226"},{"establishmentid":"4259","name":"Ford Field- Third Floor Concessions","address":"2000 Brush","zipcode":"48226"},{"establishmentid":"51622503","name":"Ford Field- 5th Floor Lounge","address":"2000 Brush St","zipcode":"48201"}],"inspectionsByEstablishmentidList":[{"inspectionid":"41495","inspectionDate":"2018-02-14T00:00:00","inspectionType":"Routine Inspection","inCompliance":"Yes","violationsByInspectionidList":[{"violationCode":"4-602.13","violationDescription":"NonFOOD-CONTACT SURFACES of EQUIPMENT shall be cleaned at a frequency necessary to preclude accumulation of soil residues.\r\n","violationType":"Core","itemDescription":"Nonfood contact surface(s)","subItem":"","problemDescription":"With accumulation of debris","subProblem":"","location":"KITCHEN","subLocation":"Inside the Freezer (2 door)","corrected":"Not required","daysToCorrect":"30.0","correctedDate":null,"correctionDescription":"Keep clean."}]},{"inspectionid":"38112","inspectionDate":"2017-02-28T00:00:00","inspectionType":"Routine Inspection","inCompliance":"Yes","violationsByInspectionidList":[{"violationCode":"4-302.14","violationDescription":"A test kit or other device that accurately measures the concentration in mg/L of SANITIZING solutions shall be provided. (Pf)\r\n","violationType":"Foundation","itemDescription":"Sanitizer test kit","subItem":"chlorine","problemDescription":"Not provided","subProblem":"","location":"SANITIZER","subLocation":"At the Test strips","corrected":"Yes","daysToCorrect":"10.0","correctedDate":"2017-03-03T00:00:00","correctionDescription":"Provide as required"}]},{"inspectionid":"37819","inspectionDate":"2017-01-17T00:00:00","inspectionType":"Plan Review/Pre-Open","inCompliance":"Yes","violationsByInspectionidList":[]}]}]}},"pageContext":{"eid":"5248"}}