{"data":{"site":{"pathPrefix":"/restaurant-inspections"},"postgres":{"establishment":[{"establishmentid":"51622754","name":"Mr. Ice Cream","address":"3252 Jacob St","zipcode":"48212","owner":"Saleh M-A Ali","licenseNumber":"234782","licenseType":"Mobile Food Establishment","establishmentType":"LHD - Mobile Food Establishmen","establishmentStatus":"Seasonal","riskCategory":null,"reviewFrequencyDays":"395.0","coords":"-83.05000,42.39350","geojson":{"id":"51622754","type":"Feature","geometry":{"type":"Point","coordinates":[-83.0499981249999,42.393495768]},"properties":{"name":"Mr. Ice Cream","owner":"Saleh M-A Ali","address":"3252 Jacob St","zipcode":"48212","license_type":"Mobile Food Establishment","risk_category":null,"license_number":"234782","establishmentid":"51622754","establishment_type":"LHD - Mobile Food Establishmen","establishment_status":"Seasonal","review_frequency_days":"395.0","most_recent_license_date":"5/15/2019"}},"nearbyList":[{"establishmentid":"4199","name":"Simpson Softy","address":"3005 Jacob St","zipcode":"48212"},{"establishmentid":"51623058","name":"D Ice Cream","address":"3876 Oliver St","zipcode":"48212"},{"establishmentid":"4809","name":"Moe's Ice Cream","address":"3833 Evaline St","zipcode":"48212"},{"establishmentid":"4047","name":"Omar's Soft Serve","address":"3833 Evaline","zipcode":"48212"},{"establishmentid":"5216","name":"OW Soft Serve","address":"2456 Faber St","zipcode":"48212"},{"establishmentid":"51622747","name":"S.L Ice Cream","address":"2455 Andrus St","zipcode":"48212"},{"establishmentid":"51622748","name":"S.E Ice Cream","address":"2455 Andrus St","zipcode":"48212"},{"establishmentid":"5344","name":"Oakland International Academy","address":"8228 Conant St","zipcode":"48211"},{"establishmentid":"4810","name":"U.S.A Ice Cream","address":"4069 Dodge St","zipcode":"48211"},{"establishmentid":"5218","name":"S & A Ice Cream","address":"8189 Winkelman St","zipcode":"48211"}],"inspectionsByEstablishmentidList":[{"inspectionid":"47727","inspectionDate":"2019-05-17T00:00:00","inspectionType":"Routine Inspection","inCompliance":"Yes","violationsByInspectionidList":[{"violationCode":"MFL289.6135","violationDescription":"Sec. 6135. (1) The name and address of the business operating a mobile food establishment shall be affixed to each side of the exterior of the vehicle in letters not less than 3 inches high and 3/8 of an inch wide and shall be in contrast to the vehicle background color. When more than 1 mobile food service establishment is operated by the same person, the director shall assign a number to each establishment.  (2) A copy of limitations attached to the license of a mobile food service establishment shall be carried on the mobile food service establishment at all times.  (3) If a mobile food establishment is operating on a regularly scheduled route, the director may require the license holder to provide a copy of the route schedule when the license is approved and every time the route schedule is changed.  (4) The director or the operator in the presence of the director shall affix 2 decals provided by the department on the mobile food establishment when the license is issued. The decals shall be conspicuously displayed on each side of the mobile food establishment so as to be visible when in transit and while serving the public.","violationType":"Core","itemDescription":null,"subItem":"","problemDescription":null,"subProblem":"","location":"TRUCK","subLocation":"On the outside of the Truck","corrected":"Not required","daysToCorrect":"30.0","correctedDate":null,"correctionDescription":"Replace."}]},{"inspectionid":"42219","inspectionDate":"2018-05-16T00:00:00","inspectionType":"Enforcement referral","inCompliance":"Yes","violationsByInspectionidList":[{"violationCode":"6-303.11","violationDescription":"Light of the proper intensity shall be provided as specified.\r\n","violationType":"Core","itemDescription":"Lighting intensity","subItem":"at work levels","problemDescription":"Less than","subProblem":"","location":"TRUCK","subLocation":"Missing Light Shield(s)","corrected":"Not required","daysToCorrect":"30.0","correctedDate":null,"correctionDescription":"Replace."},{"violationCode":"MFL289.6135","violationDescription":"Sec. 6135. (1) The name and address of the business operating a mobile food establishment shall be affixed to each side of the exterior of the vehicle in letters not less than 3 inches high and 3/8 of an inch wide and shall be in contrast to the vehicle background color. When more than 1 mobile food service establishment is operated by the same person, the director shall assign a number to each establishment.  (2) A copy of limitations attached to the license of a mobile food service establishment shall be carried on the mobile food service establishment at all times.  (3) If a mobile food establishment is operating on a regularly scheduled route, the director may require the license holder to provide a copy of the route schedule when the license is approved and every time the route schedule is changed.  (4) The director or the operator in the presence of the director shall affix 2 decals provided by the department on the mobile food establishment when the license is issued. The decals shall be conspicuously displayed on each side of the mobile food establishment so as to be visible when in transit and while serving the public.","violationType":"Core","itemDescription":null,"subItem":"","problemDescription":null,"subProblem":"","location":"TRUCK","subLocation":"On the outside of the Truck","corrected":"Not required","daysToCorrect":"30.0","correctedDate":null,"correctionDescription":"Replace."}]}]}],"maxInspectionDate":[{"inspectionDate":"2019-10-31T00:00:00"}]}},"pageContext":{"eid":"51622754"}}