{"componentChunkName":"component---src-templates-establishment-page-js","path":"/establishment/51622491","result":{"data":{"site":{"pathPrefix":"/restaurant-inspections"},"postgres":{"establishment":[{"establishmentid":"51622491","name":"Foundation Hotel- Banquet","address":"250 Larned W.","zipcode":"48226","owner":"250 W Larned MT LLC","licenseNumber":"218013","licenseType":"Fixed Establishment","establishmentType":"Food Service Establishment","establishmentStatus":"Open","riskCategory":"High","reviewFrequencyDays":"150","coords":"-83.04842,42.32832","geojson":{"id":"51622491","type":"Feature","geometry":{"type":"Point","coordinates":[-83.048423885,42.328318619]},"properties":{"name":"Foundation Hotel- Banquet","owner":"250 W Larned MT LLC","address":"250 Larned W.","zipcode":"48226","license_type":"Fixed Establishment","risk_category":"High","license_number":"218013","establishmentid":"51622491","establishment_type":"Food Service Establishment","establishment_status":"Open","review_frequency_days":"150","most_recent_license_date":"2022-04-26"}},"nearbyList":[{"establishmentid":"51622489","name":"Foundation Hotel- Employee Dining","address":"250 Larned W.","zipcode":"48226"},{"establishmentid":"5396","name":"Foundation Hotel- Apparatus Room","address":"250 Larned W.","zipcode":"48226"},{"establishmentid":"51623054","name":"Detroit Foundation Hotel Butcher Shop","address":"250 Larned W.","zipcode":"48207"},{"establishmentid":"51622490","name":"Foundation Hotel- Chef's Table","address":"250 Larned W.","zipcode":"48226"},{"establishmentid":"1921","name":"Envy","address":"234 Larned W.","zipcode":"48226"},{"establishmentid":"51623659","name":"Aramark - W.P.P.","address":"243 Congress W.","zipcode":"48226"},{"establishmentid":"51623379","name":"Starbucks","address":"243 Congress W.","zipcode":"48226"},{"establishmentid":"575","name":"Luxe Cuisine","address":"239 Congress W.","zipcode":"48226"},{"establishmentid":"3513","name":"Blue Star Cafe","address":"239  Congress St. W.","zipcode":"48226"},{"establishmentid":"3214","name":"Congress Restaurant","address":"211 Congress W.","zipcode":"48226"}],"inspectionsByEstablishmentidList":[{"inspectionid":"61419","inspectionDate":"2023-02-01T00:00:00","inspectionType":"Routine Inspection","inCompliance":"Yes","violationsByInspectionidList":[{"violationCode":"5-202.13","violationDescription":"An air gap between the water supply inlet and the flood level rim of the PLUMBING FIXTURE, EQUIPMENT, or nonFOOD EQUIPMENT shall be at least twice the diameter of the water supply inlet and may not be less than 1 inch. (P)\n","violationType":"Priority","itemDescription":"Air gap","subItem":"","problemDescription":"Less than","subProblem":"1 inch","location":"ICE MACHINE","subLocation":"","corrected":"True","daysToCorrect":"10","correctedDate":"2023-02-02T00:00:00","correctionDescription":"Provide"}]},{"inspectionid":"50110","inspectionDate":"2019-12-09T00:00:00","inspectionType":"Routine Inspection","inCompliance":"Yes","violationsByInspectionidList":[]},{"inspectionid":"47917","inspectionDate":"2019-05-29T00:00:00","inspectionType":"Routine Inspection","inCompliance":"Yes","violationsByInspectionidList":[{"violationCode":"4-602.13","violationDescription":"NonFOOD-CONTACT SURFACES of EQUIPMENT shall be cleaned at a frequency necessary to preclude accumulation of soil residues.\n","violationType":"Core","itemDescription":"Nonfood contact surface(s)","subItem":"","problemDescription":"Soiled","subProblem":"","location":"BANQUET KITCHEN","subLocation":"","corrected":"False","daysToCorrect":"30","correctedDate":null,"correctionDescription":"Clean."}]},{"inspectionid":"44232","inspectionDate":"2018-10-31T00:00:00","inspectionType":"Routine Inspection","inCompliance":"Yes","violationsByInspectionidList":[{"violationCode":"7-201.11","violationDescription":"POISONOUS OR TOXIC MATERIAL shall be stored so they can not contaminate FOOD, EQUIPMENT, UTENSILS, LINENS, AND SINGLE-SERVICE AND SINGLE-USE ARTICLES by:   \n(A) Separating the POISONOUS OR TOXIC MATERIAL by spacing or partitioning; (P) and   \n(B) Locating the POISONOUS OR TOXIC MATERIAL in an area that is not above FOOD, EQUIPMENT, UTENSILS, LINENS, AND SINGLE-SERVICE AND SINGLE-USE ARTICLES.  This paragraph does not apply to EQUIPMENT and UTENSIL cleaners and sanitizers that are stored in WAREWASHING areas for availability and convenience if the materials are stored to prevent contamination of FOOD, EQUIPMENT, UTENSILS, LINENS, AND SINGLE-SERVICE and SINGLE-USE ARTICLES. (P)","violationType":"Priority","itemDescription":"Poisonous/toxic material(s)","subItem":"","problemDescription":"Stored over/with","subProblem":"Single-service/use items","location":"BANQUET KITCHEN","subLocation":"","corrected":"True","daysToCorrect":"10","correctedDate":"2018-11-01T00:00:00","correctionDescription":"Store toxics below and away from all other items."},{"violationCode":"4-602.13","violationDescription":"NonFOOD-CONTACT SURFACES of EQUIPMENT shall be cleaned at a frequency necessary to preclude accumulation of soil residues.\n","violationType":"Core","itemDescription":"Nonfood contact surface(s)","subItem":"","problemDescription":"Soiled","subProblem":"","location":"BANQUET KITCHEN","subLocation":"","corrected":"False","daysToCorrect":"30","correctedDate":null,"correctionDescription":"Clean."}]},{"inspectionid":"42000","inspectionDate":"2018-04-23T00:00:00","inspectionType":"Routine Inspection","inCompliance":"Yes","violationsByInspectionidList":[]}]}],"maxInspectionDate":[{"inspectionDate":"2023-04-25T00:00:00"}]}},"pageContext":{"eid":"51622491"}},"staticQueryHashes":["3649515864","63159454"]}