{"componentChunkName":"component---src-templates-establishment-page-js","path":"/establishment/4286","result":{"data":{"site":{"pathPrefix":"/restaurant-inspections"},"postgres":{"establishment":[{"establishmentid":"4286","name":"Jalen Rose Leadership Acadamy","address":"15000 Trojan St.","zipcode":"48235","owner":"Detroit Board of Education","licenseNumber":"078830","licenseType":"Fixed Establishment","establishmentType":"Non-Public School","establishmentStatus":"Open","riskCategory":null,"reviewFrequencyDays":"180","coords":"-83.19471,42.44188","geojson":{"id":"4286","type":"Feature","geometry":{"type":"Point","coordinates":[-83.194710734,42.441875259]},"properties":{"name":"Jalen Rose Leadership Acadamy","owner":"Detroit Board of Education","address":"15000 Trojan St.","zipcode":"48235","license_type":"Fixed Establishment","risk_category":null,"license_number":"078830","establishmentid":"4286","establishment_type":"Non-Public School","establishment_status":"Open","review_frequency_days":"180","most_recent_license_date":"15/4/2019"}},"nearbyList":[{"establishmentid":"51623385","name":"Jalen Rose Leadership Academy ","address":"15000 Trojan Street ","zipcode":"48235"},{"establishmentid":"1231","name":"Vandenberg Elementary","address":"15000 TROJAN","zipcode":"48235"},{"establishmentid":"3199","name":"Detroit Fish & Shrimp III","address":"20030 James Couzens","zipcode":"48235"},{"establishmentid":"2146","name":"Subway #25733","address":"14645 Eight Mile Rd. W.","zipcode":"48235"},{"establishmentid":"4915","name":"The Jamaican Pot","address":"14615 Eight Mile Rd. W.","zipcode":"48235"},{"establishmentid":"4355","name":"A & S Fish & Seafood","address":"14615 Eight Mile Rd. W.","zipcode":"48235"},{"establishmentid":"613","name":"All Star Lounge","address":"14541 Eight Mile Rd. W.","zipcode":"48235"},{"establishmentid":"5395","name":"Mighty Wings","address":"20131 Greenfield","zipcode":"48235"},{"establishmentid":"2130","name":"White Castle #38","address":"20409 James Couzens","zipcode":"48235"},{"establishmentid":"4705","name":"Detroit Blend Restaurant & Night Club","address":"20480 James Couzens","zipcode":"48226"}],"inspectionsByEstablishmentidList":[{"inspectionid":"54067","inspectionDate":"2021-02-12T00:00:00","inspectionType":"Routine Inspection","inCompliance":"Yes","violationsByInspectionidList":[]},{"inspectionid":"51273","inspectionDate":"2020-03-23T00:00:00","inspectionType":"COVID19-temp closed","inCompliance":"Yes","violationsByInspectionidList":[]},{"inspectionid":"49163","inspectionDate":"2019-09-18T00:00:00","inspectionType":"Routine Inspection","inCompliance":"No","violationsByInspectionidList":[{"violationCode":"3-501.16","violationDescription":"Except during preparation, cooking, or cooling, or when time is used as the public health control POTENTIALLY HAZARDOUS FOOD (TIME/TEMPERATURE CONTROL FOR SAFETY FOOD) shall be maintained:\n(A)  135ºF or above, except that roasts properly cooked and cooled may be held              at a temperature of 130ºF; or (P)\n(B)   At 41ºF or less (P)\n","violationType":"Priority","itemDescription":null,"subItem":"","problemDescription":null,"subProblem":"","location":"COOLER","subLocation":"","corrected":"False","daysToCorrect":"10","correctedDate":null,"correctionDescription":null},{"violationCode":"MFL289.2129","violationDescription":"Sec. 2129. (1) All food establishments shall employ a minimum of 1 managerial employee as a food safety manager, who must be an individual who is currently certified under a personnel certification program accredited by the American National Standards Institute, utilizing the Conference for Food Protection standards:\n(2) Beginning January 14, 2017 and every 5 years thereafter, a certified  food safety manager who supervises the operations of a food service establishment shall have completed a food safety training program\ncontaining an allergen awareness  component that has been approved by  the department. A food service establishment shall retain records on the  site of the food service establishment documenting compliance of its  certified food safety managers with this subsection. ","violationType":"Core","itemDescription":"Person-in-charge","subItem":"","problemDescription":"Missing","subProblem":"","location":"PERSON IN CHARGE","subLocation":"","corrected":"False","daysToCorrect":"30","correctedDate":null,"correctionDescription":null}]},{"inspectionid":"45141","inspectionDate":"2019-02-14T00:00:00","inspectionType":"Routine Inspection","inCompliance":"Yes","violationsByInspectionidList":[]},{"inspectionid":"43038","inspectionDate":"2018-07-31T00:00:00","inspectionType":"Routine Inspection","inCompliance":"Yes","violationsByInspectionidList":[]},{"inspectionid":"40866","inspectionDate":"2017-11-16T00:00:00","inspectionType":"Routine Inspection","inCompliance":"Yes","violationsByInspectionidList":[]},{"inspectionid":"38851","inspectionDate":"2017-05-24T00:00:00","inspectionType":"Routine Inspection","inCompliance":"Yes","violationsByInspectionidList":[]},{"inspectionid":"36903","inspectionDate":"2016-10-26T00:00:00","inspectionType":"Routine Inspection","inCompliance":"Yes","violationsByInspectionidList":[]}]}],"maxInspectionDate":[{"inspectionDate":"2023-04-13T00:00:00"}]}},"pageContext":{"eid":"4286"}},"staticQueryHashes":["3649515864","63159454"]}