{"data":{"site":{"pathPrefix":"/restaurant-inspections"},"postgres":{"establishment":[{"establishmentid":"51622877","name":"Element Detroit at the Metro- Banquets","address":"33 John R Ave","zipcode":"48226","owner":"Metropolitan Master Tenant LLC","licenseNumber":"238183","licenseType":"Fixed Establishment","establishmentType":"Food Service Establishment","establishmentStatus":"Open","riskCategory":"High","reviewFrequencyDays":"180.0","coords":"-83.04886,42.33545","geojson":{"id":"51622877","type":"Feature","geometry":{"type":"Point","coordinates":[-83.048859699,42.3354534910001]},"properties":{"name":"Element Detroit at the Metro- Banquets","owner":"Metropolitan Master Tenant LLC","address":"33 John R Ave","zipcode":"48226","license_type":"Fixed Establishment","risk_category":"High","license_number":"238183","establishmentid":"51622877","establishment_type":"Food Service Establishment","establishment_status":"Open","review_frequency_days":"180.0","most_recent_license_date":"12/13/2018"}},"nearbyList":[{"establishmentid":"51622965","name":"The Monarch Club","address":"33 John R","zipcode":"48226"},{"establishmentid":"51622878","name":"Element Detroit at the Metropolitan 1A","address":"33 John R Ave","zipcode":"48226"},{"establishmentid":"51622822","name":"Sid Gold's Request Room","address":"1515 Broadway St","zipcode":"48226"},{"establishmentid":"51622844","name":"Paramita Sound","address":"1515 Broadway St","zipcode":"48226"},{"establishmentid":"51622594","name":"Albena- Taste Everything LLC","address":"1509 Broadway St","zipcode":"48226"},{"establishmentid":"51622595","name":"The Wurlitzer MT DBA Candy Bar","address":"1509 Broadway St","zipcode":"48226"},{"establishmentid":"51622592","name":"1509 Populace LLC","address":"1509 Broadway St","zipcode":"48226"},{"establishmentid":"4373","name":"Small Plates LLC","address":"1521 Broadway St","zipcode":"48226"},{"establishmentid":"4843","name":"Wright & Co.","address":"1500 Woodward Ave","zipcode":"48226"},{"establishmentid":"2614","name":"Detroit Beer Co.","address":"1529 Broadway St","zipcode":"48226"}],"inspectionsByEstablishmentidList":[{"inspectionid":"48622","inspectionDate":"2019-08-02T00:00:00","inspectionType":"Routine Inspection","inCompliance":"Yes","violationsByInspectionidList":[]},{"inspectionid":"47861","inspectionDate":"2019-05-24T00:00:00","inspectionType":"Preopening/New","inCompliance":"Yes","violationsByInspectionidList":[{"violationCode":"4-402.11","violationDescription":"EQUIPMENT that is fixed because it is not EASILY MOVABLE shall be installed so that it is spaced to allow access for cleaning along the sides, behind, and above the EQUIPMENT or sealed as required,  COUNTER-MOUNTED EQUIPMENT that is not EASILY MOVABLE shall be installed to allow cleaning of the EQUIPMENT and areas underneath and around the EQUIPMENT .\r\n","violationType":"Core","itemDescription":"Fixed equipment","subItem":"","problemDescription":"Not sealed to adjoining","subProblem":"Wall(s)","location":"VENTILATION HOOD SYSTEM","subLocation":"","corrected":"Not required","daysToCorrect":"30.0","correctedDate":null,"correctionDescription":null},{"violationCode":"5-205.15","violationDescription":"A PLUMBING SYSTEM shall be:\r\n(A) Repaired according to LAW; (P) and\r\n(B) Maintained in good repair.\r\n","violationType":"Core","itemDescription":"Plumbing system","subItem":"drain line(s)","problemDescription":"Not repaired according to law","subProblem":"","location":"3 COMPARTMENT SINK AREA","subLocation":"","corrected":"Not required","daysToCorrect":"10.0","correctedDate":null,"correctionDescription":null}]},{"inspectionid":"48761","inspectionDate":"2019-03-21T00:00:00","inspectionType":"Complaint","inCompliance":"Yes","violationsByInspectionidList":[]}]}],"maxInspectionDate":[{"inspectionDate":"2019-10-31T00:00:00"}]}},"pageContext":{"eid":"51622877"}}