{"data":{"site":{"pathPrefix":"/restaurant-inspections"},"postgres":{"establishment":[{"establishmentid":"51623000","name":"Seven Mile Ocean Delight Site 2","address":"15251 W Seven Mile Rd","zipcode":"48235","owner":"Seven Mile Ocean Delight 2 Inc","licenseNumber":"237182","licenseType":"Fixed Establishment","establishmentType":"Food Service Establishment","establishmentStatus":"Open","riskCategory":null,"reviewFrequencyDays":"180","coords":"-82.96434,42.43572","geojson":{"id":"51623000","type":"Feature","geometry":{"type":"Point","coordinates":[-82.964341151,42.435720202]},"properties":{"name":"Seven Mile Ocean Delight Site 2","owner":"Seven Mile Ocean Delight 2 Inc","address":"15251 W Seven Mile Rd","zipcode":"48235","license_type":"Fixed Establishment","risk_category":null,"license_number":"237182","establishmentid":"51623000","establishment_type":"Food Service Establishment","establishment_status":"Open","review_frequency_days":"180","most_recent_license_date":"5/7/2019"}},"nearbyList":[{"establishmentid":"5239","name":"Paradise Fish & Chicken Market","address":"15251 W Seven Mile Rd","zipcode":"48235"},{"establishmentid":"2125","name":"Jet's Pizza","address":"15235 E Seven Mile Rd","zipcode":"48205"},{"establishmentid":"4989","name":"Lape Soul Food","address":"15236 E Seven Mile Rd","zipcode":"48205"},{"establishmentid":"1088","name":"Koney Time Restaurant","address":"15098 E Seven Mile Rd","zipcode":"48205"},{"establishmentid":"3737","name":"Fisher Middle School (Upper)","address":"15491 Maddelein St","zipcode":"48205"},{"establishmentid":"5287","name":"Mary Lee's Carryout","address":"14901 E 7mile","zipcode":"48205"},{"establishmentid":"4301","name":"Regent Park Scholars Charter Academy","address":"15865  E Seven Mile Rd","zipcode":"48205"},{"establishmentid":"3164","name":"Fisher Magnet Lower Academy (K-4,PK)","address":"15510 E State Fair","zipcode":"48205"},{"establishmentid":"845","name":"Brewer Elementary (K-8)","address":"18025 Brock St","zipcode":"48205"},{"establishmentid":"3099","name":"Lin Panda","address":"18087 Kelly Rd","zipcode":"48224"}],"inspectionsByEstablishmentidList":[{"inspectionid":"50089","inspectionDate":"2019-11-26T00:00:00","inspectionType":"Routine Inspection","inCompliance":"Yes","violationsByInspectionidList":[{"violationCode":"5-205.11","violationDescription":"(A) A HANDWASHING SINK shall be maintained so that it is accessible at all times for EMPLOYEE use and used for no other purpose. (Pf)\r\n(B)  An automatic handwashing facility shall be used in accordance with manufacturer's instructions. (Pf)\r\n","violationType":"Foundation","itemDescription":"Handwashing sink(s)","subItem":"","problemDescription":"Not used according to manufacturer's label instructions","subProblem":"","location":"HANDSINK(S)","subLocation":"","corrected":"Yes","daysToCorrect":"10","correctedDate":"2019-12-06T00:00:00","correctionDescription":null},{"violationCode":"6-301.12","violationDescription":"Each HANDWASHING SINK or group of adjacent HANDWASHING SINKS shall be provided with:\r\n(A) Individual, disposable towels; (Pf)\r\n(B) A continuous towel system that supplies the user with a clean towel;(Pf) or \r\n(C) A heated-air hand drying device.(Pf)\r\n(D) A hand drying device that employs an air-knife system that delivers high velocity pressurized air at ambient temperatures.(Pf)\r\n","violationType":"Foundation","itemDescription":"Sanitary hand drying provisions","subItem":"","problemDescription":"Not provided","subProblem":"","location":"HANDSINK(S)","subLocation":"","corrected":"Yes","daysToCorrect":"10","correctedDate":"2019-12-06T00:00:00","correctionDescription":null},{"violationCode":"3-501.13","violationDescription":"POTENTIALLY HAZARDOUS FOOD (TIME/TEMPERATURE CONTROL FOR SAFETY FOOD)  shall be thawed:  Under refrigeration, or under cool running water (<70° F), or as part of cooking process, and total accumulated time above 41° F, for thawed portions, shall not exceed 4 hours.  Any thawing procedure may be used for immediate service for individual consumers order of READY-TO-EAT foods.\r\n","violationType":"Core","itemDescription":"Frozen food(s) for thawing","subItem":"","problemDescription":"Stored in water","subProblem":"","location":"PREP SINK","subLocation":"","corrected":"Yes","daysToCorrect":"30","correctedDate":"2019-12-06T00:00:00","correctionDescription":null}]}]}],"maxInspectionDate":[{"inspectionDate":"2020-05-29T00:00:00"}]}},"pageContext":{"eid":"51623000"}}