{"data":{"site":{"pathPrefix":"/restaurant-inspections"},"postgres":{"establishment":[{"establishmentid":"3140","name":"West Fort Street Bar & Grill","address":"7642 Fort St W","zipcode":"48209","owner":"Kenneth Allen","licenseNumber":"051241","licenseType":"Fixed Establishment","establishmentType":"Food Service Establishment","establishmentStatus":"Open","riskCategory":"Medium","reviewFrequencyDays":"365","coords":"-83.11604,42.30172","geojson":{"id":"3140","type":"Feature","geometry":{"type":"Point","coordinates":[-83.116041536,42.301718457]},"properties":{"name":"West Fort Street Bar & Grill","owner":"Kenneth Allen","address":"7642 Fort St W","zipcode":"48209","license_type":"Fixed Establishment","risk_category":"Medium","license_number":"051241","establishmentid":"3140","establishment_type":"Food Service Establishment","establishment_status":"Open","review_frequency_days":"365","most_recent_license_date":"5/1/2019"}},"nearbyList":[{"establishmentid":"3800","name":"All Saints Soup Kitchen","address":"7824 W Fort Street ","zipcode":"48209"},{"establishmentid":"675","name":"Motz  Restaurant Inc","address":"7208 Fort St W","zipcode":"48209"},{"establishmentid":"3926","name":"Taqueria Camino Real","address":"1100 Central Ave","zipcode":"48209"},{"establishmentid":"51623043","name":"Alfa Coney And Grill","address":"7145 W Fort St","zipcode":"48209"},{"establishmentid":"735","name":"Happy Bar","address":"1247 Green St N","zipcode":"48209"},{"establishmentid":"469","name":"Puerto Rican Club","address":"8050 Fort St W","zipcode":"48209"},{"establishmentid":"1184","name":"McDonald's #5251","address":"1101 Springwells Ave","zipcode":"48209"},{"establishmentid":"2224","name":"El Asador","address":"1312 Springwells Ave","zipcode":"48209"},{"establishmentid":"732","name":"Sidekicks Saloon","address":"7023 Chatsfield St","zipcode":"48209"},{"establishmentid":"1353","name":"Vince's Italian Rest & Pizzeria","address":"1341 Springwells Ave","zipcode":"48209"}],"inspectionsByEstablishmentidList":[{"inspectionid":"48783","inspectionDate":"2019-08-16T00:00:00","inspectionType":"Routine Inspection","inCompliance":"Yes","violationsByInspectionidList":[{"violationCode":"4-904.14","violationDescription":"After being cleaned and SANITIZED, EQUIPMENT and UTENSILS shall not be rinsed before air drying or use unless:    \r\n(A) The rinse is applied directly from a potable water supply by a warewashing machine that is maintained and operated as specified under Subparts 4-204 and 4-501; and   \r\n(B) The rinse is applied only after the EQUIPMENT and UTENSILS have been SANITIZED by the application of hot water or by the application of a chemical SANITIZER solution whose EPA-registered label use instructions call for rinsing off the SANITIZER after it is applied in a commercial WAREWASHING machine.","violationType":"Core","itemDescription":null,"subItem":"","problemDescription":null,"subProblem":"","location":"3 COMPARTMENT SINK AREA","subLocation":"SANITIZING","corrected":"Yes","daysToCorrect":"30","correctedDate":"2019-08-16T00:00:00","correctionDescription":null},{"violationCode":"MFL289.6141","violationDescription":"Sec. 6141. (1) A food service establishment in which solid foods are sold and consumed on the premises shall prominently display a poster in the kitchen area of the food service establishment diagramming and explaining the antichoking techniques safe for both adults and children approved by the department for dislodging foreign obstacles caught in the throat of a choking person.","violationType":"Core","itemDescription":null,"subItem":"","problemDescription":null,"subProblem":"","location":"FRONT AREA","subLocation":"","corrected":"Not required","daysToCorrect":"30","correctedDate":null,"correctionDescription":null}]},{"inspectionid":"39311","inspectionDate":"2017-07-12T00:00:00","inspectionType":"Routine Inspection","inCompliance":"No","violationsByInspectionidList":[]}]}],"maxInspectionDate":[{"inspectionDate":"2020-10-30T00:00:00"}]}},"pageContext":{"eid":"3140"}}