{"data":{"postgres":{"establishment":[{"establishmentid":"4200","name":"Joe Louis Arena-Suite Kitchen","address":"600 Civic Center Dr","zipcode":"48226","owner":"Olympia Entertainment","licenseNumber":"069257","licenseType":"Fixed Establishment","establishmentType":"Food Service Establishment","establishmentStatus":"Permanently Closed","riskCategory":null,"reviewFrequencyDays":"365.0","coords":"-83.05141,42.32519","geojson":{"id":"4200","type":"Feature","geometry":{"type":"Point","coordinates":[-83.051406129,42.325190385]},"properties":{"name":"Joe Louis Arena-Suite Kitchen","owner":"Olympia Entertainment","address":"600 Civic Center Dr","zipcode":"48226","license_type":"Fixed Establishment","risk_category":null,"license_number":"069257","establishmentid":"4200","establishment_type":"Food Service Establishment","establishment_status":"Permanently Closed","review_frequency_days":"365.0","most_recent_license_date":"5/10/2017"}},"nearbyList":[{"establishmentid":"741","name":"Detroit Racquet Club","address":"626 Woodbridge St","zipcode":"48226"},{"establishmentid":"4397","name":"Cobo Hall- New Kitchen/Concessions","address":"1 Washington Blvd","zipcode":"48226"},{"establishmentid":"4048","name":"Cobo Hall-Wayne Hall Kitchen","address":"1 Washington Blvd","zipcode":"48226"},{"establishmentid":"4049","name":"Cobo Hall-Go Gourmet/Coffee Shop","address":"1 Washington Blvd","zipcode":"48226"},{"establishmentid":"4211","name":"Cobo Hall- Portables","address":"1 Washington Blvd","zipcode":"48226"},{"establishmentid":"5117","name":"Cobo Hall- Cork and Grind","address":"1 Washington Blvd","zipcode":"48226"},{"establishmentid":"4291","name":"Tommy's Detroit Bar and Grill","address":"624 Third St","zipcode":"48226"},{"establishmentid":"1387","name":"Cobo Joe's","address":"422 W Congress","zipcode":"48226"},{"establishmentid":"1407","name":"Fort Street Presbyterian Church","address":"631 W Fort St","zipcode":"48226"},{"establishmentid":"5388","name":"The Drink Hall","address":"408 W Congress","zipcode":"48226"},{"establishmentid":"3451","name":"Signature Grill","address":"250 Riverfront Drive","zipcode":"48226"},{"establishmentid":"51622912","name":"Anchor Bar ","address":"450 W Fort St","zipcode":"48226"},{"establishmentid":"1597","name":"Anchor Bar","address":"450 W Fort St","zipcode":"48226"},{"establishmentid":"5419","name":"Press Room Cafe","address":"615 W Lafayette","zipcode":"48226"},{"establishmentid":"3956","name":"Motor City Kitchen","address":"525 W Lafayette Blvd","zipcode":"48226"},{"establishmentid":"3992","name":"Motor City Kitchen Market","address":"525 W Lafayette St","zipcode":"48226"},{"establishmentid":"5396","name":"Foundation Hotel- Apparatus Room","address":"250 W Larned","zipcode":"48226"},{"establishmentid":"51622489","name":"Foundation Hotel- Employee Dining","address":"250 W Larned","zipcode":"48226"},{"establishmentid":"51622490","name":"Foundation Hotel- Chef's Table","address":"250 W Larned","zipcode":"48226"},{"establishmentid":"51622491","name":"Foundation Hotel- Banquet","address":"250 W Larned","zipcode":"48226"}],"inspectionsByEstablishmentidList":[{"inspectionid":"37991","inspectionDate":"2017-01-31T00:00:00","inspectionType":"Routine Inspection","inCompliance":"Yes","violationsByInspectionidList":[{"violationCode":"3-302.11","violationDescription":"(A) FOOD shall be protected from cross contamination by:  \r\n(1) Except as specified in (1)(c) below, separating raw animal FOODS during         storage, preparation, holding, and display from:\r\n(a) Raw READY-TO-EAT FOOD including other raw animal FOOD such as FISH for sushi or MOLLUSCAN SHELLFISH, or other raw READY-TO-EAT FOOD such as fruits and vegetables,(P) and\r\n(b) Cooked READY-TO-EAT FOOD; (P)\r\n(c) Frozen, commercially processed and packaged raw animal FOOD may be          stored or displayed with or above frozen, commercially processed and           packaged, ready-to-eat food.\r\n(2) Except when combined as ingredients, separating types of raw animal FOODS    from each other such as beef, FISH, lamb, pork, and POULTRY during storage,        preparation, holding, and display by:\r\n(a) Using separate EQUIPMENT for each type, (P) or\r\n(b) Arranging each type of FOOD in EQUIPMENT so that cross contamination of one type with another is prevented, (P) and\r\n(c) Preparing each type of FOOD at different times or in separate areas; (P)\r\n","violationType":"Priority","itemDescription":"Raw animal food(s)","subItem":"","problemDescription":"Stored over/next to","subProblem":"Raw ready-to-eat food(s) Fish for sushi","location":"WALK-IN COOLER","subLocation":"","corrected":"Yes","daysToCorrect":"10.0","correctedDate":"2017-01-31T00:00:00","correctionDescription":"Store raw animal foods below and away from foods needing little or no further prep."},{"violationCode":"3-501.17","violationDescription":"(A)  READY-TO-EAT, POTENTIALLY HAZARDOUS FOOD (TIME/TEMPERATURE CONTROL FOR SAFETY FOOD)  prepared and held refrigerated for more than 24 hours in a FOOD ESTABLISHMENT  shall be clearly marked at the time of preparation to indicate the date or day by which the FOOD shall be consumed. (Pf)\r\n(B)  A container of refrigerated, commercially prepared READY-TO-EAT POTENTIALLY HAZARDOUS FOOD (TIME/TEMPERATURE CONTROL FOR SAFETY FOOD)  shall be clearly marked, at the time the original container is opened in a FOOD ESTABLISHMENT, to indicate the date or day by which the FOOD shall be consumed. (Pf)\r\n\r\nA date marking system that does not exceed 7 days, including date of preparation, or opening is to be used. (Pf)\r\n","violationType":"Foundation","itemDescription":"In house prepared ready-to-eat potentially hazardous  food(s)","subItem":"","problemDescription":"Without date of consumption marking","subProblem":"","location":"WALK-IN COOLER","subLocation":"","corrected":"Yes","daysToCorrect":"10.0","correctedDate":"2017-01-31T00:00:00","correctionDescription":"Datemark with a discard date of 7 days or less."},{"violationCode":"3-302.12","violationDescription":"Except for containers holding FOOD that can be readily and unmistakably recognized such as dry pasta, working containers holding FOOD or FOOD ingredients that are removed from their original packages for use in the FOOD ESTABLISHMENT, such as cooking oils, flour, herbs, potato flakes, salt, spices, and sugar shall be identified with the common name of the FOOD.","violationType":"Core","itemDescription":"Food item(s)","subItem":"","problemDescription":"Not identified","subProblem":"","location":"KITCHEN","subLocation":"","corrected":"Not required","daysToCorrect":"30.0","correctedDate":null,"correctionDescription":"Label containers with common name."},{"violationCode":"6-501.14","violationDescription":"(A) Intake and exhaust air ducts shall be cleaned and filters changed so they are not a source of contamination by dust, dirt, and other materials. \r\n(B) If vented to the outside, ventilation systems may not create a public health HAZARD or nuisance or unLAWful discharge.\r\n","violationType":"Core","itemDescription":"Ventilation system","subItem":"","problemDescription":"Not clean","subProblem":"","location":"KITCHEN","subLocation":"","corrected":"Not required","daysToCorrect":"30.0","correctedDate":null,"correctionDescription":"Clean"},{"violationCode":"6-501.11","violationDescription":"PHYSICAL FACILITIES shall be maintained in good repair.\r\n","violationType":"Core","itemDescription":"Physical facilities","subItem":"ceiling(s)","problemDescription":"In poor repair","subProblem":"","location":"KITCHEN","subLocation":"","corrected":"Not required","daysToCorrect":"30.0","correctedDate":null,"correctionDescription":"Repair"}]}]}]}},"pageContext":{"eid":"4200"}}