{"componentChunkName":"component---src-templates-establishment-page-js","path":"/establishment/51623525","result":{"data":{"site":{"pathPrefix":"/restaurant-inspections"},"postgres":{"establishment":[{"establishmentid":"51623525","name":"Lefty's Cheesesteaks","address":"28 Adams W.","zipcode":"48203","owner":"Sam Berry","licenseNumber":"263593","licenseType":"Fixed Establishment","establishmentType":"Food Service Establishment","establishmentStatus":"Plan Review","riskCategory":null,"reviewFrequencyDays":"335","coords":"-83.05171,42.33688","geojson":{"id":"51623525","type":"Feature","geometry":{"type":"Point","coordinates":[-83.051711018,42.336877676]},"properties":{"name":"Lefty's Cheesesteaks","owner":"Sam Berry","address":"28 Adams W.","zipcode":"48203","license_type":"Fixed Establishment","risk_category":null,"license_number":"263593","establishmentid":"51623525","establishment_type":"Food Service Establishment","establishment_status":"Plan Review","review_frequency_days":"335","most_recent_license_date":null}},"nearbyList":[{"establishmentid":"5351","name":"Subway","address":"28 Adams","zipcode":"48226"},{"establishmentid":"4076","name":"Subway","address":"28 Adams","zipcode":"48226"},{"establishmentid":"4166","name":"Lax Club Hanger","address":"22 Adams W.","zipcode":"48226"},{"establishmentid":"4158","name":"Proof","address":"2001 Woodward Ave.","zipcode":"48226"},{"establishmentid":"4859","name":"Norte","address":"22 Adams W.","zipcode":"48226"},{"establishmentid":"3464","name":"The Dirty Trick","address":"2001 Woodward Ave.","zipcode":"48202"},{"establishmentid":"51622517","name":"Brass Rail","address":"18 Adams St. W.","zipcode":"48226"},{"establishmentid":"4070","name":"Rub BBQ & Pub","address":"18 Adams W.","zipcode":"48226"},{"establishmentid":"4429","name":"Shield's Pizza","address":"76 W. Adams","zipcode":"48226"},{"establishmentid":"5186","name":"The Royce Detroit","address":"76 Adams W.","zipcode":"48226"}],"inspectionsByEstablishmentidList":[{"inspectionid":"59759","inspectionDate":"2022-07-07T00:00:00","inspectionType":"Routine Inspection","inCompliance":"Yes","violationsByInspectionidList":[{"violationCode":"7-201.11","violationDescription":"POISONOUS OR TOXIC MATERIAL shall be stored so they can not contaminate FOOD, EQUIPMENT, UTENSILS, LINENS, AND SINGLE-SERVICE AND SINGLE-USE ARTICLES by:   \n(A) Separating the POISONOUS OR TOXIC MATERIAL by spacing or partitioning; (P) and   \n(B) Locating the POISONOUS OR TOXIC MATERIAL in an area that is not above FOOD, EQUIPMENT, UTENSILS, LINENS, AND SINGLE-SERVICE AND SINGLE-USE ARTICLES.  This paragraph does not apply to EQUIPMENT and UTENSIL cleaners and sanitizers that are stored in WAREWASHING areas for availability and convenience if the materials are stored to prevent contamination of FOOD, EQUIPMENT, UTENSILS, LINENS, AND SINGLE-SERVICE and SINGLE-USE ARTICLES. (P)","violationType":"Priority","itemDescription":"Poisonous/toxic material(s)","subItem":"","problemDescription":"Stored over/with","subProblem":"Food","location":"PREP AREA(S)","subLocation":"","corrected":"True","daysToCorrect":"10","correctedDate":"2022-07-08T00:00:00","correctionDescription":"Store toxics below and away from all other items."},{"violationCode":"6-301.12","violationDescription":"Each HANDWASHING SINK or group of adjacent HANDWASHING SINKS shall be provided with:\n(A) Individual, disposable towels; (Pf)\n(B) A continuous towel system that supplies the user with a clean towel;(Pf) or \n(C) A heated-air hand drying device.(Pf)\n(D) A hand drying device that employs an air-knife system that delivers high velocity pressurized air at ambient temperatures.(Pf)\n","violationType":"Foundation","itemDescription":"Sanitary hand drying provisions","subItem":"disposable, paper towels","problemDescription":"Not provided","subProblem":"At hand sink","location":"BACK AREA","subLocation":"","corrected":"True","daysToCorrect":"10","correctedDate":"2022-07-08T00:00:00","correctionDescription":"Provide"},{"violationCode":"3-304.14","violationDescription":"(A)  Cloths that are in use for wiping FOOD spills on TABLEWARE shall be maintained dry and used for no other purpose. \n(B)  Cloths in-use for wiping counters and equipment shall be held between uses in   a chemical sanitizer solution, and laundered daily.\n(C)  Cloths in-use for wiping surfaces in contact with raw animal FOODS shall be      kept separate from cloths used for other purposes.\n(D)  Dry wiping cloths and the chemical sanitizing solutions shall be free of FOOD    debris or visible soil.\n(E)  Containers of chemical sanitizing solutions shall be stored off the floor and         used in a manner that prevents contamination of FOOD, EQUIPMENT, UTENSILS, LINENS, SINGLE-SERVICE, or SINGLE-USE ARTICLES.\n(E)  SINGLE-USE disposable sanitizer wipes shall be used in accordance lable               instructions.\n","violationType":"Core","itemDescription":"Wiping cloth(s)","subItem":"wet","problemDescription":"Stored in","subProblem":"Less than 100-200 ppm quaternary ammonia","location":"COOK LINE AREA","subLocation":"","corrected":"False","daysToCorrect":"30","correctedDate":null,"correctionDescription":"Store wiping cloths in 100-200 ppm quaternary ammonia."}]},{"inspectionid":"59721","inspectionDate":"2022-06-14T00:00:00","inspectionType":"Preopening/New","inCompliance":"Yes","violationsByInspectionidList":[]}]}],"maxInspectionDate":[{"inspectionDate":"2023-04-25T00:00:00"}]}},"pageContext":{"eid":"51623525"}},"staticQueryHashes":["3649515864","63159454"]}