{"data":{"site":{"pathPrefix":"/restaurant-inspections"},"postgres":{"establishment":[{"establishmentid":"51622776","name":"Taco Palace","address":"14458 Grand River Ave","zipcode":"48227","owner":"Tonia Watts","licenseNumber":"229399","licenseType":"Fixed Establishment","establishmentType":"Food Service Establishment","establishmentStatus":null,"riskCategory":null,"reviewFrequencyDays":"180","coords":"-83.18682,42.38833","geojson":{"id":"51622776","type":"Feature","geometry":{"type":"Point","coordinates":[-83.186822791,42.388333956]},"properties":{"name":"Taco Palace","owner":"Tonia Watts","address":"14458 Grand River Ave","zipcode":"48227","license_type":"Fixed Establishment","risk_category":null,"license_number":"229399","establishmentid":"51622776","establishment_type":"Food Service Establishment","establishment_status":null,"review_frequency_days":"180","most_recent_license_date":"4/18/2019"}},"nearbyList":[{"establishmentid":"4483","name":"Grand River Fuel LLC","address":"14458 Grand River Ave","zipcode":"48227"},{"establishmentid":"4992","name":"Glasshouse Bar and Grill","address":"14301 Grand River Ave","zipcode":"48227"},{"establishmentid":"870","name":"Burns Elementary- Middle School","address":"14350 Terry St","zipcode":"48227"},{"establishmentid":"2280","name":"Mary's Grille","address":"13900 Schaefer Hwy","zipcode":"48227"},{"establishmentid":"5362","name":"McDonald's","address":"13676 Grand River","zipcode":"48227"},{"establishmentid":"1495","name":"McDonald's #5456","address":"13676 Grand River Ave","zipcode":"48227"},{"establishmentid":"5234","name":"Fish & Chicken Stop Inc.","address":"13465 Schaefer Hwy","zipcode":"48227"},{"establishmentid":"51622832","name":"Fred's Fish & Chicken-Schaefer","address":"13465 Schaefer","zipcode":"48227"},{"establishmentid":"2277","name":"Galaxy Coney Island","address":"13611 Grand River Ave","zipcode":"48227"},{"establishmentid":"4907","name":"Javon's Kitchen","address":"14445 Schaefer Hwy","zipcode":"48227"}],"inspectionsByEstablishmentidList":[{"inspectionid":"51152","inspectionDate":"2020-03-10T00:00:00","inspectionType":"Routine Inspection","inCompliance":"Yes","violationsByInspectionidList":[{"violationCode":"5-205.11","violationDescription":"(A) A HANDWASHING SINK shall be maintained so that it is accessible at all times for EMPLOYEE use and used for no other purpose. (Pf)\r\n(B)  An automatic handwashing facility shall be used in accordance with manufacturer's instructions. (Pf)\r\n","violationType":"Foundation","itemDescription":"Handwashing sink(s)","subItem":"","problemDescription":"Not easily accessible","subProblem":"Items stored In","location":"HANDSINK(S)","subLocation":"","corrected":"Yes","daysToCorrect":"10","correctedDate":"2020-03-10T00:00:00","correctionDescription":null}]},{"inspectionid":"49108","inspectionDate":"2019-08-08T00:00:00","inspectionType":"Routine Inspection","inCompliance":"Yes","violationsByInspectionidList":[{"violationCode":"5-205.11","violationDescription":"(A) A HANDWASHING SINK shall be maintained so that it is accessible at all times for EMPLOYEE use and used for no other purpose. (Pf)\r\n(B)  An automatic handwashing facility shall be used in accordance with manufacturer's instructions. (Pf)\r\n","violationType":"Foundation","itemDescription":"Handwashing sink(s)","subItem":"","problemDescription":"Not easily accessible","subProblem":"Items stored In","location":"HANDSINK(S)","subLocation":"","corrected":"Yes","daysToCorrect":"10","correctedDate":"2019-08-08T00:00:00","correctionDescription":null},{"violationCode":"3-501.17","violationDescription":"(A)  READY-TO-EAT, POTENTIALLY HAZARDOUS FOOD (TIME/TEMPERATURE CONTROL FOR SAFETY FOOD)  prepared and held refrigerated for more than 24 hours in a FOOD ESTABLISHMENT  shall be clearly marked at the time of preparation to indicate the date or day by which the FOOD shall be consumed. (Pf)\r\n(B)  A container of refrigerated, commercially prepared READY-TO-EAT POTENTIALLY HAZARDOUS FOOD (TIME/TEMPERATURE CONTROL FOR SAFETY FOOD)  shall be clearly marked, at the time the original container is opened in a FOOD ESTABLISHMENT, to indicate the date or day by which the FOOD shall be consumed. (Pf)\r\n\r\nA date marking system that does not exceed 7 days, including date of preparation, or opening is to be used. (Pf)\r\n","violationType":"Foundation","itemDescription":"In house prepared ready-to-eat potentially hazardous  food(s)","subItem":"","problemDescription":"Without date of consumption marking","subProblem":"","location":"COOLER","subLocation":"","corrected":"Yes","daysToCorrect":"10","correctedDate":"2019-08-08T00:00:00","correctionDescription":null}]},{"inspectionid":"42484","inspectionDate":"2018-06-08T00:00:00","inspectionType":"Routine Inspection","inCompliance":"Yes","violationsByInspectionidList":[{"violationCode":"6-301.11","violationDescription":"Each HANDWASHING SINK or group of 2 adjacent HANDWASHING SINKS shall be provided with a supply of hand cleaning liquid, powder, or bar soap. (Pf)\r\n","violationType":"Foundation","itemDescription":"Soap","subItem":"","problemDescription":"Not provided","subProblem":"","location":"HANDSINK(S)","subLocation":"","corrected":"Yes","daysToCorrect":"10","correctedDate":"2018-06-08T00:00:00","correctionDescription":"Provide adequate supply of soap at all hand sinks."}]}]}],"maxInspectionDate":[{"inspectionDate":"2020-10-30T00:00:00"}]}},"pageContext":{"eid":"51622776"}}