{"data":{"site":{"pathPrefix":"/restaurant-inspections"},"postgres":{"establishment":[{"establishmentid":"1478","name":"Nortown Dairy Bar","address":"20018 Van Dyke Ave","zipcode":"48234","owner":"NORTOWN ENTERPRISES INC","licenseNumber":"035677","licenseType":"Fixed Establishment","establishmentType":"Food Service Establishment","establishmentStatus":"Temporarily Closed","riskCategory":null,"reviewFrequencyDays":"365.0","coords":"-83.02427,42.44317","geojson":{"id":"1478","type":"Feature","geometry":{"type":"Point","coordinates":[-83.0242723659999,42.4431693160001]},"properties":{"name":"Nortown Dairy Bar","owner":"NORTOWN ENTERPRISES INC","address":"20018 Van Dyke Ave","zipcode":"48234","license_type":"Fixed Establishment","risk_category":null,"license_number":"035677","establishmentid":"1478","establishment_type":"Food Service Establishment","establishment_status":"Temporarily Closed","review_frequency_days":"365.0","most_recent_license_date":"4/22/2016"}},"nearbyList":[{"establishmentid":"1864","name":"Hec's Stables","address":"20005 Van Dyke Ave","zipcode":"48234"},{"establishmentid":"564","name":"American Serbian Memorial Hall","address":"19940 Van Dyke Ave","zipcode":"48234"},{"establishmentid":"1576","name":"Burger King Corp #6796","address":"19901 Van Dyke Ave","zipcode":"48234"},{"establishmentid":"51622683","name":"Detroit Grill & Deli","address":"20216 Van Dyke Ave","zipcode":"48234"},{"establishmentid":"1657","name":"McDonald's #14217","address":"19840 Van Dyke Ave","zipcode":"48234"},{"establishmentid":"5335","name":"Great Lakes Fish & Chicken Market","address":"20445 Van Dyke Ave","zipcode":"48234"},{"establishmentid":"5249","name":"Motown Cafe Grill","address":"19638 Van Dyke Street","zipcode":"48234"},{"establishmentid":"51622743","name":"Diamond Hospitality LLC","address":"4777 E Outer Drive","zipcode":"48234"},{"establishmentid":"643","name":"UAW Local Union #1700","address":"8230 E Eight Mile Rd","zipcode":"48234"},{"establishmentid":"1863","name":"New Law Elementary","address":"19411 Cliff St","zipcode":"48235"}],"inspectionsByEstablishmentidList":[{"inspectionid":"40150","inspectionDate":"2017-09-26T00:00:00","inspectionType":"Routine Inspection","inCompliance":"Yes","violationsByInspectionidList":[{"violationCode":"3-501.16","violationDescription":"Except during preparation, cooking, or cooling, or when time is used as the public health control POTENTIALLY HAZARDOUS FOOD (TIME/TEMPERATURE CONTROL FOR SAFETY FOOD) shall be maintained:\r\n(A)  135ºF or above, except that roasts properly cooked and cooled may be held              at a temperature of 130ºF; or (P)\r\n(B)   At 41ºF or less (P)\r\n","violationType":"Priority","itemDescription":"Cold food item(s)","subItem":"","problemDescription":"Stored above 41 degrees F","subProblem":"","location":"REAR STORAGE AREA","subLocation":"Inside the Cooler (2 door)","corrected":"Yes","daysToCorrect":"10.0","correctedDate":"2017-09-26T00:00:00","correctionDescription":"Discard"},{"violationCode":"6-301.12","violationDescription":"Each HANDWASHING SINK or group of adjacent HANDWASHING SINKS shall be provided with:\r\n(A) Individual, disposable towels; (Pf)\r\n(B) A continuous towel system that supplies the user with a clean towel;(Pf) or \r\n(C) A heated-air hand drying device.(Pf)\r\n(D) A hand drying device that employs an air-knife system that delivers high velocity pressurized air at ambient temperatures.(Pf)\r\n","violationType":"Foundation","itemDescription":"Sanitary hand drying provisions","subItem":"disposable, paper towels","problemDescription":"Not provided","subProblem":"At hand sink","location":"ESTABLISHMENT","subLocation":"At the Handsink","corrected":"Yes","daysToCorrect":"10.0","correctedDate":"2017-09-26T00:00:00","correctionDescription":"Provide"},{"violationCode":"6-302.11","violationDescription":"A supply of toilet tissue shall be available at each toilet.(Pf)\r\n","violationType":"Foundation","itemDescription":"Toilet paper","subItem":"at toilet in restroom employee","problemDescription":"Not provided","subProblem":"","location":"RESTROOM (EMPLOYEE)","subLocation":"Missing Toilet paper","corrected":"Yes","daysToCorrect":"10.0","correctedDate":"2017-09-26T00:00:00","correctionDescription":"Provide as required"},{"violationCode":"4-501.11","violationDescription":"EQUIPMENT shall be maintained in a state of repair and condition that meets the requirements of the code.\r\n","violationType":"Core","itemDescription":"Equipment","subItem":"","problemDescription":"In poor repair","subProblem":"","location":"REAR STORAGE AREA","subLocation":"Inside the Cooler (2 door)","corrected":"Yes","daysToCorrect":"30.0","correctedDate":"2017-09-29T00:00:00","correctionDescription":null},{"violationCode":"6-201.11","violationDescription":"Except otherwise approved, and except for antislip floor coverings or applications may be used for safety reasons, floors, floor coverings, walls, wall coverings, and ceilings shall be designed, constructed, and installed so they are SMOOTH and EASILY CLEANABLE.\r\n","violationType":"Core","itemDescription":"ceiling(s)","subItem":"","problemDescription":"Not constructed, designed, installed to be","subProblem":"Smooth","location":"REAR AREA","subLocation":"Missing Ceiling tile(s)","corrected":"Not required","daysToCorrect":"30.0","correctedDate":null,"correctionDescription":"Repair/replace to be smooth and easily cleanable."}]}]}],"maxInspectionDate":[{"inspectionDate":"2019-03-31T00:00:00"}]}},"pageContext":{"eid":"1478"}}