{"data":{"site":{"pathPrefix":"/restaurant-inspections"},"postgres":{"establishment":[{"establishmentid":"51622747","name":"S.L Ice Cream","address":"2455 Andrus St","zipcode":"48212","owner":"Saleh Almasmari","licenseNumber":"229335","licenseType":"Mobile Food Establishment","establishmentType":"LHD - Mobile Food Establishmen","establishmentStatus":"Seasonal","riskCategory":null,"reviewFrequencyDays":"395","coords":"-83.05583,42.38781","geojson":{"id":"51622747","type":"Feature","geometry":{"type":"Point","coordinates":[-83.055829359,42.387811377]},"properties":{"name":"S.L Ice Cream","owner":"Saleh Almasmari","address":"2455 Andrus St","zipcode":"48212","license_type":"Mobile Food Establishment","risk_category":null,"license_number":"229335","establishmentid":"51622747","establishment_type":"LHD - Mobile Food Establishmen","establishment_status":"Seasonal","review_frequency_days":"395","most_recent_license_date":"5/8/2019"}},"nearbyList":[{"establishmentid":"51622748","name":"S.E Ice Cream","address":"2455 Andrus St","zipcode":"48212"},{"establishmentid":"5216","name":"OW Soft Serve","address":"2456 Faber St","zipcode":"48212"},{"establishmentid":"5214","name":"NYC Yogurt","address":"2261 Faber St","zipcode":"48212"},{"establishmentid":"5217","name":"Fresh Creamer","address":"2236 Wyandotte St","zipcode":"48212"},{"establishmentid":"4199","name":"Simpson Softy","address":"3005 Jacob St","zipcode":"48212"},{"establishmentid":"4453","name":"Beignet's, LLC","address":"2424 Florian St","zipcode":"48212"},{"establishmentid":"51622689","name":"American Axle Plant #6","address":"2020 Holbrook Ave","zipcode":"48212"},{"establishmentid":"51622754","name":"Mr. Ice Cream","address":"3252 Jacob St","zipcode":"48212"},{"establishmentid":"5346","name":"Clay Street Entertainment","address":"1680 Clay St","zipcode":"48211"},{"establishmentid":"5390","name":"Premier Ice Cream","address":"2217 Evaline St","zipcode":"48212"}],"inspectionsByEstablishmentidList":[{"inspectionid":"49384","inspectionDate":"2019-05-08T00:00:00","inspectionType":"Routine Inspection","inCompliance":"No","violationsByInspectionidList":[{"violationCode":"4-203.12","violationDescription":"(A)     Ambient air and water TEMPERATURE MEASURING DEVICES that are scaled in Celsius or dually scaled in Celsius and Fahrenheit shall be designed to be easily readable and accurate to Â±1.5C in the intended range of use. (Pf)\r\n(B)     Ambient air and water TEMPERATURE MEASURING DEVICES that are scaled only in Fahrenheit shall be accurate to 3F in the intended range of use. (Pf)\r\n","violationType":"Foundation","itemDescription":"Air/water thermometer(s)","subItem":"freezer(s)","problemDescription":"Not accurate","subProblem":"To intended range of use","location":"FREEZER","subLocation":"","corrected":"No","daysToCorrect":"10","correctedDate":null,"correctionDescription":"Provide thermometer scaled in intended range of use."},{"violationCode":"4-501.11","violationDescription":"EQUIPMENT shall be maintained in a state of repair and condition that meets the requirements of the code.\r\n","violationType":"Core","itemDescription":"Equipment components","subItem":"","problemDescription":"In poor repair","subProblem":"","location":"VENTILATION HOOD SYSTEM","subLocation":"","corrected":"Not required","daysToCorrect":"30","correctedDate":null,"correctionDescription":"Repair"}]}]}],"maxInspectionDate":[{"inspectionDate":"2020-05-29T00:00:00"}]}},"pageContext":{"eid":"51622747"}}