{"data":{"site":{"pathPrefix":"/restaurant-inspections"},"postgres":{"establishment":[{"establishmentid":"5028","name":"Marisqueria El Emperio","address":"1633 Lawndale St","zipcode":"48209","owner":"Nancy Lopez","licenseNumber":"208152","licenseType":"Mobile Food Establishment","establishmentType":"LHD - Mobile Food Establishmen","establishmentStatus":"Seasonal","riskCategory":null,"reviewFrequencyDays":"210","coords":"-83.12959,42.30481","geojson":{"id":"5028","type":"Feature","geometry":{"type":"Point","coordinates":[-83.129585225,42.304807107]},"properties":{"name":"Marisqueria El Emperio","owner":"Nancy Lopez","address":"1633 Lawndale St","zipcode":"48209","license_type":"Mobile Food Establishment","risk_category":null,"license_number":"208152","establishmentid":"5028","establishment_type":"LHD - Mobile Food Establishmen","establishment_status":"Seasonal","review_frequency_days":"210","most_recent_license_date":"4/19/2017"}},"nearbyList":[{"establishmentid":"4960","name":"El Parian Commissary","address":"1633 Lawndale St","zipcode":"48209"},{"establishmentid":"51622654","name":"La Reata","address":"1633 Lawndale St","zipcode":"48209"},{"establishmentid":"51622764","name":"Tres Leches 'n Snacks","address":"1210 Lawndale St","zipcode":"48209"},{"establishmentid":"4234","name":"Mangonadas Del Barrio","address":"1210-14 Lawndale St","zipcode":"48209"},{"establishmentid":"926","name":"Bennett Elementary","address":"2111 Mullane St","zipcode":"48209"},{"establishmentid":"370","name":"Los Compadres","address":"1132 Lawndale St","zipcode":"48209"},{"establishmentid":"211","name":"La Terraza","address":"8445 W Vernor","zipcode":"48209"},{"establishmentid":"4571","name":"WAY Academy","address":"8701 W Vernor","zipcode":"48209"},{"establishmentid":"305","name":"Matrix Head Start-Manuel Reyes","address":"8500 W Vernor","zipcode":"48209"},{"establishmentid":"5173","name":"El Salpicon","address":"8600 W Vernor","zipcode":"48209"}],"inspectionsByEstablishmentidList":[{"inspectionid":"52942","inspectionDate":"2020-09-22T00:00:00","inspectionType":"Routine Inspection","inCompliance":"No","violationsByInspectionidList":[{"violationCode":"4-102.11","violationDescription":"Materials that are used to make SINGLE-SERVICE and SINGLE-USE ARTICLES:\r\n(A)    May not:\r\n        (1) Allow the migration of deleterious substances,(P) or\r\n        (2) Impart colors, odors, or tastes to FOOD; and \r\n(B)    Shall be:\r\n        (1) Safe,(P) and\r\n        (2) Clean.\r\n","violationType":"Priority","itemDescription":"Single-service/use articles","subItem":"","problemDescription":"Constructed from materials that are not","subProblem":"Impart colors, odors, or tastes to food","location":"HOT HOLDING AREA","subLocation":"Equipment","corrected":"No","daysToCorrect":"10","correctedDate":null,"correctionDescription":"Provide safe, approved materials."},{"violationCode":"3-403.11","violationDescription":"(A)     POTENTIALLY HAZARDOUS FOOD that is cooked, cooled, and reheated  for hot holding shall be reheated so that all parts of the FOOD reach a temperature of at least 165°F for 15 seconds, if  reheated in a microwave oven the FOOD must be rotated or stirred, covered, and allowed to stand covered for 2 minutes after reheating. (P)\r\n(B)  Commercially processed READY-TO-EAT FOOD shall be heated to a temperature of at least 135°F for hot holding. (P)\r\n(C) Reheating for hot holding shall be done rapidly and the may not exceed 2 hours. (P)\r\n\r\n","violationType":"Priority","itemDescription":"Food item(s) reheated","subItem":"","problemDescription":"Longer than two hours to reach 165 degrees F","subProblem":"In steam table","location":"HOT HOLDING AREA","subLocation":"","corrected":"No","daysToCorrect":"10","correctedDate":null,"correctionDescription":"Reheat food items quickly."},{"violationCode":"MFL289.6149","violationDescription":"Definitions; satisfaction of  section 3-603.11 of food code; statement; disclosures and reminders; text;  exemptions.*  Sec. 6149. (1) As used in this section: (P)    (a) &quot; Publicly available&quot; means  accessible to consumers, without their having to request it, before their  placing food orders or making their selections.    (b) &quot; Selection information&quot; means  whatever consumers read to make their order selections, such as menu, table  tent, placard, chalkboard, or other written means.    (2) To satisfy section 3-603.11 of the food code, the food establishment may  provide the following statement on selection information so that it is publicly  available: &quot; Ask your server about menu items that are cooked to order or  served raw. Consuming raw or undercooked meats, poultry, seafood, shellfish, or  eggs may increase your risk of foodborne illness&quot;.(P)    (4) The language for the menu items shall match the language used for the  disclosure and the reminder.  The  disclosure and reminder may also be in additional languages.(P)    (5) The text for disclosures and reminders shall meet the following requirements: (P)    (a) The text size for statements on handheld  menus or table tents shall be visually equivalent to at least 11-point font  size or may be visually equivalent to the font size of menu item descriptions.    (b) Text color provides a clear contrast to  background.    (6) Table tents, placards, or chalkboards that are used exclusively to list food  items that are offered as daily, weekly, or temporary specials are exempt from  the requirements of this section when those food items also appear in the  primary selection information that contains the disclosures and reminders  meeting the requirements of this section.(S)","violationType":"Priority","itemDescription":null,"subItem":"","problemDescription":null,"subProblem":"","location":"FOOD TRUCK","subLocation":"Menu","corrected":"No","daysToCorrect":"10","correctedDate":null,"correctionDescription":null}]}]}],"maxInspectionDate":[{"inspectionDate":"2020-10-30T00:00:00"}]}},"pageContext":{"eid":"5028"}}