{"data":{"site":{"pathPrefix":"/restaurant-inspections"},"postgres":{"establishment":[{"establishmentid":"2458","name":"Subway #24814","address":"6781 Greenfield Rd","zipcode":"48228","owner":"Yousef Abusalah","licenseNumber":"081050","licenseType":"Fixed Establishment","establishmentType":"Food Service Establishment","establishmentStatus":"Open","riskCategory":"High","reviewFrequencyDays":"180.0","coords":"-83.19659,42.34094","geojson":{"id":"2458","type":"Feature","geometry":{"type":"Point","coordinates":[-83.196589143,42.340944123]},"properties":{"name":"Subway #24814","owner":"Yousef Abusalah","address":"6781 Greenfield Rd","zipcode":"48228","license_type":"Fixed Establishment","risk_category":"High","license_number":"081050","establishmentid":"2458","establishment_type":"Food Service Establishment","establishment_status":"Open","review_frequency_days":"180.0","most_recent_license_date":null}},"nearbyList":[{"establishmentid":"432","name":"Cardoni's Bar & Grill","address":"6615 Greenfield  Rd","zipcode":"48228"},{"establishmentid":"5074","name":"OZZIES","address":"6593 Greenfield","zipcode":"48228"},{"establishmentid":"2230","name":"Halal Pizza","address":"6531 Greenfield Rd","zipcode":"48228"},{"establishmentid":"2710","name":"True Arbeel Kabab","address":"6551 Greenfield Ave","zipcode":"48228"},{"establishmentid":"1361","name":"Caesars Cafe, Inc","address":"15621 W Warren Ave","zipcode":"48228"},{"establishmentid":"258","name":"Barachit Club","address":"7235 Greenfield Rd","zipcode":"48228"},{"establishmentid":"51622704","name":"Tim Hortons","address":"7285 Greenfield Rd","zipcode":"48228"},{"establishmentid":"1233","name":"Gardner Elementary School","address":"6528 Mansfield St","zipcode":"48228"},{"establishmentid":"3197","name":"Rafidian Shish Kabob","address":"16032 W Warren Ave","zipcode":"48228"},{"establishmentid":"4403","name":"Dairy King DBA Beirut Grill","address":"16251 W Warren","zipcode":"48228"},{"establishmentid":"51622783","name":"Fire Pizza Inc","address":"8004 Greenfield Rd","zipcode":"48228"},{"establishmentid":"1097","name":"Hayloft Saloon","address":"8070 Greenfield Ave","zipcode":"48228"},{"establishmentid":"3402","name":"Detroit Premier Academy Charter School","address":"7781 Asbury Park","zipcode":"48228"},{"establishmentid":"5330","name":"Halal Pizza Box","address":"16645 W Warren","zipcode":"48228"},{"establishmentid":"1313","name":"St. Christopher Church","address":"7800 Woodmont St","zipcode":"48228"},{"establishmentid":"212","name":"Nick's Detroit","address":"16807 W Warren Ave","zipcode":"48228"},{"establishmentid":"5315","name":"Mr. Softy","address":"7262 Memorial St","zipcode":"48228"},{"establishmentid":"1014","name":"L. George's Restaurant Coney Island","address":"16835 W Warren Ave","zipcode":"48228"},{"establishmentid":"803","name":"Gigi's","address":"16920 W Warren Ave","zipcode":"48228"},{"establishmentid":"1459","name":"Rob's Deli","address":"16956-58 E Warren Ave","zipcode":"48224"}],"inspectionsByEstablishmentidList":[{"inspectionid":"43417","inspectionDate":"2018-09-18T00:00:00","inspectionType":"Routine Inspection","inCompliance":"Yes","violationsByInspectionidList":[{"violationCode":"3-501.16","violationDescription":"Except during preparation, cooking, or cooling, or when time is used as the public health control POTENTIALLY HAZARDOUS FOOD (TIME/TEMPERATURE CONTROL FOR SAFETY FOOD) shall be maintained:\r\n(A)  135ºF or above, except that roasts properly cooked and cooled may be held              at a temperature of 130ºF; or (P)\r\n(B)   At 41ºF or less (P)\r\n","violationType":"Priority","itemDescription":"Cold food item(s)","subItem":"","problemDescription":"Stored above 41 degrees F","subProblem":"","location":"COOLER","subLocation":"","corrected":"Yes","daysToCorrect":"10.0","correctedDate":"2018-10-02T00:00:00","correctionDescription":"Store below 41 degrees F."}]},{"inspectionid":"41569","inspectionDate":"2018-02-21T00:00:00","inspectionType":"Routine Inspection","inCompliance":"Yes","violationsByInspectionidList":[]},{"inspectionid":"39944","inspectionDate":"2017-09-14T00:00:00","inspectionType":"Routine Inspection","inCompliance":"Yes","violationsByInspectionidList":[]},{"inspectionid":"38414","inspectionDate":"2017-03-23T00:00:00","inspectionType":"Routine Inspection","inCompliance":"Yes","violationsByInspectionidList":[{"violationCode":"3-501.18","violationDescription":"A FOOD specified in ¶ 3-501.17(A) or (B) shall be discarded if it:  \r\n    (1) Exceeds the temperature and time combination specified in ¶ 3-501.17(A),              except time that the product is frozen; (P)\r\n    (2) Is in a container or PACKAGE that does not bear a date or day; (P) or\r\n    (3) Is appropriately marked with a date or day that exceeds a temperature and              time combination as specified in ¶ 3-501.17(A). (P)  \r\n\r\n","violationType":"Priority","itemDescription":"Ready to eat, potentially hazardous food(s)","subItem":"","problemDescription":"Beyond consume by date","subProblem":"","location":"WALK-IN COOLER","subLocation":"","corrected":"Yes","daysToCorrect":"10.0","correctedDate":"2017-03-23T00:00:00","correctionDescription":"Discard."},{"violationCode":"MFL289.2129","violationDescription":"Sec. 2129. (1) All of the following food establishments shall employ a minimum of 1 managerial employee who is currently certified under a personnel certification program accredited by the American national standards institute, utilizing the conference for food protection standards:  (a) A food service establishment that is not any of the following:    (i) Operating under a temporary food service establishment license.  (ii) A vending machine location.     (b) An extended retail food establishment.  (c) Operated within a retail grocery.  (2) An individual certified under subsection (1) shall be recognized with full faith and credit by the state and all local units of government throughout the state.  (3) The department may promulgate rules to do all of the following:  (a) Develop requirements for retail food establishments to follow when employing certified food safety managers or personnel.  (b) Set a reasonable date for compliance with the requirements under subdivision (a) taking into consideration existing local personnel certification requirements.  (c) Establish certification fees necessary to implement, maintain, and track certified individuals directly or by contract. The department may annually adjust the schedule of fees to provide that the fee charged is sufficient to cover the cost of the certification tracking program.  (d) Implement and enforce the requirements described in subdivision (a).    (4) The certification program developed by the American national standards institute, as it exists on April 1, 2008 , is incorporated by reference. The department may adopt updates to the certification program accreditation standards in subsection (1) by rule.     (5) This section does not prohibit any local legislative body from implementing a food handler program, an employee health certification program, or a manager certification program, if it is not in conflict with this section.","violationType":"Core","itemDescription":"Person-in-charge","subItem":"","problemDescription":null,"subProblem":"","location":"ESTABLISHMENT","subLocation":"","corrected":"Not required","daysToCorrect":"30.0","correctedDate":null,"correctionDescription":null}]},{"inspectionid":"36934","inspectionDate":"2016-10-26T00:00:00","inspectionType":"Routine Inspection","inCompliance":"Yes","violationsByInspectionidList":[]}]}]}},"pageContext":{"eid":"2458"}}