{"data":{"site":{"pathPrefix":"/restaurant-inspections"},"postgres":{"establishment":[{"establishmentid":"51622620","name":"Cobb Corner Bar","address":"4201 Cass Ave","zipcode":"48201","owner":"Robert Cobb","licenseNumber":"229372","licenseType":"Fixed Establishment","establishmentType":"Food Service Establishment","establishmentStatus":"Open","riskCategory":"Medium","reviewFrequencyDays":"180.0","coords":"-83.06402,42.35057","geojson":{"id":"51622620","type":"Feature","geometry":{"type":"Point","coordinates":[-83.064016782,42.3505721290001]},"properties":{"name":"Cobb Corner Bar","owner":"Robert Cobb","address":"4201 Cass Ave","zipcode":"48201","license_type":"Fixed Establishment","risk_category":"Medium","license_number":"229372","establishmentid":"51622620","establishment_type":"Food Service Establishment","establishment_status":"Open","review_frequency_days":"180.0","most_recent_license_date":"4/30/2019"}},"nearbyList":[{"establishmentid":"51622811","name":"Avalon International Breads","address":"422 W Willis St","zipcode":"48201"},{"establishmentid":"5380","name":"Alley Taco","address":"418 Willis St","zipcode":"48201"},{"establishmentid":"51622794","name":"Spread Deli","address":"4215 Cass Ave","zipcode":"48201"},{"establishmentid":"5386","name":"Detroit Royale with Cheese","address":"4163 Cass Ave","zipcode":"48201"},{"establishmentid":"51622479","name":"Tou & Mai","address":"4240 Cass Ave, Ste. 102","zipcode":"48201"},{"establishmentid":"51622641","name":"Fresh 101 Superfood Cafe","address":"4240 Cass Ave Ste. 100","zipcode":"48201"},{"establishmentid":"4608","name":"Go! Sy Thai","address":"4240 Cass Ave","zipcode":"48201"},{"establishmentid":"5056","name":"Treat Dreams","address":"4160 Cass Ave","zipcode":"48201"},{"establishmentid":"5042","name":"Slows On The Go Mobile Kitchen","address":"4107 Cass Ave","zipcode":"48201"},{"establishmentid":"4152","name":"Slows To Go","address":"4107 Cass Ave","zipcode":"48201"}],"inspectionsByEstablishmentidList":[{"inspectionid":"45551","inspectionDate":"2019-03-12T00:00:00","inspectionType":"Routine Inspection","inCompliance":"No","violationsByInspectionidList":[{"violationCode":"3-603.11","violationDescription":"If an animal FOOD such as  beef, EGGS, FISH, lamb, milk, pork, POULTRY, or shellfish is served or sold raw, undercooked, or without otherwise being processed to eliminate pathogens, either in a READY-TO-EAT form or as an ingredient in another READY-TO-EAT FOOD, the PERMIT HOLDER shall inform CONSUMERS of the significantly increased RISK of consuming such FOODS, by using menu advisories, brochures, lable statements, table tents, placards, or other effective written means. (Pf)\r\nFOOD LAW SEC 6149\r\n...The food establishment may provide the following statement on selection information so that it is made pulblicly available: \"Ask your server about menu items that are cooked to order or served raw.  Consuming raw or undercooked, meats, poultry, shellfish, or eggs may increase your risk of foodborne illness.\"\r\nThe statements must be in a minimum of 11 point font and in a color that provides a clear contrast to background.\r\n","violationType":"Foundation","itemDescription":"Menu advisories","subItem":"for raw or undercooked food(s)/ingredient(s) meat","problemDescription":"Not provided","subProblem":"","location":"ESTABLISHMENT","subLocation":"At the Menu","corrected":"No","daysToCorrect":"10.0","correctedDate":null,"correctionDescription":null},{"violationCode":"4-903.11","violationDescription":"Cleaned EQUIPMENT and UTENSILS, laundered LINENS, and SINGLE-SERVICE and SINGLE-USE ARTICLES shall be stored in an approved manner and location.\r\n","violationType":"Core","itemDescription":"Clean equipment/utensil(s)","subItem":"","problemDescription":"Stored with food-contact portion exposed","subProblem":"Not covered","location":"ESTABLISHMENT","subLocation":"At the Plate","corrected":"Not required","daysToCorrect":"30.0","correctedDate":null,"correctionDescription":null},{"violationCode":"4-602.13","violationDescription":"NonFOOD-CONTACT SURFACES of EQUIPMENT shall be cleaned at a frequency necessary to preclude accumulation of soil residues.\r\n","violationType":"Core","itemDescription":"Nonfood contact surface(s)","subItem":"","problemDescription":"Soiled","subProblem":"","location":"KITCHEN","subLocation":"On the Shelf","corrected":"Not required","daysToCorrect":"30.0","correctedDate":null,"correctionDescription":null}]},{"inspectionid":"43517","inspectionDate":"2018-09-20T00:00:00","inspectionType":"Plan Review/Final/Ap","inCompliance":"Yes","violationsByInspectionidList":[]},{"inspectionid":"43157","inspectionDate":"2018-08-09T00:00:00","inspectionType":"Plan Review/Pre-Open","inCompliance":"Yes","violationsByInspectionidList":[]}]}],"maxInspectionDate":[{"inspectionDate":"2019-04-30T00:00:00"}]}},"pageContext":{"eid":"51622620"}}