{"data":{"site":{"pathPrefix":"/restaurant-inspections"},"postgres":{"establishment":[{"establishmentid":"5204","name":"Miss Virginia's Ice Cream Parlor","address":"8801 Oakland Ave","zipcode":"48211","owner":"Vickie & Charley Ransom","licenseNumber":"226496","licenseType":"Fixed Establishment","establishmentType":"Food Service Establishment","establishmentStatus":"Open","riskCategory":"Medium","reviewFrequencyDays":"365.0","coords":"-83.07145,42.38377","geojson":{"id":"5204","type":"Feature","geometry":{"type":"Point","coordinates":[-83.071451082,42.3837690060001]},"properties":{"name":"Miss Virginia's Ice Cream Parlor","owner":"Vickie & Charley Ransom","address":"8801 Oakland Ave","zipcode":"48211","license_type":"Fixed Establishment","risk_category":"Medium","license_number":"226496","establishmentid":"5204","establishment_type":"Food Service Establishment","establishment_status":"Open","review_frequency_days":"365.0","most_recent_license_date":"2/14/2018"}},"nearbyList":[{"establishmentid":"696","name":"Grandy's Coney Island","address":"1200 Holbrook Rd","zipcode":"48211"},{"establishmentid":"4015","name":"Greater New Mount Moriah","address":"586 Owens St","zipcode":"48202"},{"establishmentid":"2404","name":"The Schvitz ","address":"8295 Oakland Ave","zipcode":"48211"},{"establishmentid":"3650","name":"American Axle","address":"1 Dauch Dr","zipcode":"48211"},{"establishmentid":"949","name":"Detroit International Academy/ Northern","address":"9026 Woodward Ave","zipcode":"48202"},{"establishmentid":"1317","name":"Loving Elementary","address":"1000 Lynn Ave","zipcode":"48202"},{"establishmentid":"5267","name":"Ocean Splash Fish & Chicken","address":"8528 Woodward Ave","zipcode":"48202"},{"establishmentid":"4881","name":"Cleary University","address":"8904 Woodward Ave","zipcode":"48202"},{"establishmentid":"51622495","name":"The Turkey Grill Food Truck","address":"8290 Woodward Ave","zipcode":"48202"},{"establishmentid":"1717","name":"The Turkey Grill","address":"8290 Woodward Ave","zipcode":"48202"},{"establishmentid":"1871","name":"Clay Super Coney Island","address":"1141 Clay St","zipcode":"48211"},{"establishmentid":"753","name":"Burger King ","address":"8201 Woodward Ave","zipcode":"48202"},{"establishmentid":"2006","name":"Subway","address":"9320 Woodward Ave","zipcode":"48202"},{"establishmentid":"785","name":"Parks Old Style Bar-B-Q ","address":"7444 Beaubien St","zipcode":"48202"},{"establishmentid":"51622689","name":"American Axle Plant #6","address":"2020 Holbrook Ave","zipcode":"48212"},{"establishmentid":"3468","name":"Happy's Pizza ","address":"7450 Woodward Ave","zipcode":"48202"},{"establishmentid":"698","name":"New China Wang","address":"7414 Woodward Ave","zipcode":"48202"},{"establishmentid":"4376","name":"Mount Zion New Covenant Baptist Church","address":"8231 Second Ave","zipcode":"48202"},{"establishmentid":"4411","name":"Triumph Church","address":"2760 E Grand Blvd","zipcode":"48211"},{"establishmentid":"3892","name":"Evans Solutions","address":"8045 Second","zipcode":"48202"}],"inspectionsByEstablishmentidList":[{"inspectionid":"42756","inspectionDate":"2018-06-15T00:00:00","inspectionType":"Routine Inspection","inCompliance":"No","violationsByInspectionidList":[{"violationCode":"4-702.11","violationDescription":"UTENSILS and FOOD-CONTACT SURFACES of EQUIPMENT shall be SANITIZED before use after cleaning. (P)\r\n","violationType":"Priority","itemDescription":"Clean utensil(s) and food-contact surface(s)","subItem":"","problemDescription":"Not sanitized","subProblem":"","location":"3 COMPARTMENT SINK AREA","subLocation":"","corrected":"Yes","daysToCorrect":"10.0","correctedDate":"2018-06-15T00:00:00","correctionDescription":"Equipment/utensils must be sanitized after cleaning."},{"violationCode":"3-501.16","violationDescription":"Except during preparation, cooking, or cooling, or when time is used as the public health control POTENTIALLY HAZARDOUS FOOD (TIME/TEMPERATURE CONTROL FOR SAFETY FOOD) shall be maintained:\r\n(A)  135ºF or above, except that roasts properly cooked and cooled may be held              at a temperature of 130ºF; or (P)\r\n(B)   At 41ºF or less (P)\r\n","violationType":"Priority","itemDescription":"Hot food item(s)","subItem":"","problemDescription":"Stored below 135 degrees F","subProblem":"","location":"HOT DOG STATION","subLocation":"","corrected":"Yes","daysToCorrect":"10.0","correctedDate":"2018-06-15T00:00:00","correctionDescription":"Store above 135 degrees F."},{"violationCode":"4-302.12","violationDescription":"(A) FOOD TEMPERATURE MEASURING DEVICES shall be provided and readily accessible for use in ensuring attainment and maintenance of FOOD temperatures as specified under Chapter 3. (Pf)   \r\n(B) A TEMPERATURE MEASURING DEVICE with a suitable small-diameter probe that is designed to measure the temperature of thin masses shall be provided and readily accessible to accurately measure the temperature in thin FOODS such as MEAT patties and FISH filets. (Pf)\r\n","violationType":"Foundation","itemDescription":"Food thermometer(s)","subItem":"","problemDescription":"Not provided","subProblem":"","location":"FACILITY","subLocation":"","corrected":"No","daysToCorrect":"10.0","correctedDate":null,"correctionDescription":"Provide as required"},{"violationCode":"3-501.17","violationDescription":"(A)  READY-TO-EAT, POTENTIALLY HAZARDOUS FOOD (TIME/TEMPERATURE CONTROL FOR SAFETY FOOD)  prepared and held refrigerated for more than 24 hours in a FOOD ESTABLISHMENT  shall be clearly marked at the time of preparation to indicate the date or day by which the FOOD shall be consumed. (Pf)\r\n(B)  A container of refrigerated, commercially prepared READY-TO-EAT POTENTIALLY HAZARDOUS FOOD (TIME/TEMPERATURE CONTROL FOR SAFETY FOOD)  shall be clearly marked, at the time the original container is opened in a FOOD ESTABLISHMENT, to indicate the date or day by which the FOOD shall be consumed. (Pf)\r\n\r\nA date marking system that does not exceed 7 days, including date of preparation, or opening is to be used. (Pf)\r\n","violationType":"Foundation","itemDescription":"In house prepared ready-to-eat potentially hazardous  food(s)","subItem":"","problemDescription":"Without date of consumption marking","subProblem":"","location":"3 COMPARTMENT SINK AREA","subLocation":"Cooler(s)","corrected":"Yes","daysToCorrect":"10.0","correctedDate":"2018-06-15T00:00:00","correctionDescription":"Datemark with a discard date of 7 days or less."},{"violationCode":"4-302.14","violationDescription":"A test kit or other device that accurately measures the concentration in mg/L of SANITIZING solutions shall be provided. (Pf)\r\n","violationType":"Foundation","itemDescription":"Sanitizer test kit","subItem":"chlorine","problemDescription":"Not provided","subProblem":"","location":"FACILITY","subLocation":"","corrected":"No","daysToCorrect":"10.0","correctedDate":null,"correctionDescription":"Provide as required"}]},{"inspectionid":"41915","inspectionDate":"2018-03-02T00:00:00","inspectionType":"Routine Inspection","inCompliance":"Yes","violationsByInspectionidList":[]}]}]}},"pageContext":{"eid":"5204"}}