{"data":{"site":{"pathPrefix":"/restaurant-inspections"},"postgres":{"establishment":[{"establishmentid":"51622840","name":"Toarminas Pizza","address":"2470 Collingwood St","zipcode":"48219","owner":"Darius & Latrice McClendon","licenseNumber":"ps082818","licenseType":"Fixed Establishment","establishmentType":"Food Service Establishment","establishmentStatus":"Open","riskCategory":"High","reviewFrequencyDays":"180.0","coords":"-83.11092,42.38220","geojson":{"id":"51622840","type":"Feature","geometry":{"type":"Point","coordinates":[-83.110915228,42.382199244]},"properties":{"name":"Toarminas Pizza","owner":"Darius & Latrice McClendon","address":"2470 Collingwood St","zipcode":"48219","license_type":"Fixed Establishment","risk_category":"High","license_number":"ps082818","establishmentid":"51622840","establishment_type":"Food Service Establishment","establishment_status":"Open","review_frequency_days":"180.0","most_recent_license_date":null}},"nearbyList":[{"establishmentid":"827","name":"Central Collegiate Academy 9-12","address":"2425 Tuxedo","zipcode":"48206"},{"establishmentid":"4418","name":"Blue Fish and Chicken","address":"11611 Linwood Ave","zipcode":"48206"},{"establishmentid":"1738","name":"Genesis House III (WEST)","address":"2015 Webb St","zipcode":"48206"},{"establishmentid":"3898","name":"Detroit Job Corps Center","address":"11801 Woodrow Wilson","zipcode":"48206"},{"establishmentid":"3134","name":"Cass Community Social Services","address":"11850 Woodrow Wilson St","zipcode":"48206"},{"establishmentid":"5328","name":"Detroit City Coney Island","address":"9910 Dexter St","zipcode":"48206"},{"establishmentid":"5274","name":"Moma Shirley's Soul Food","address":"3426 Joy Rd","zipcode":"48206"},{"establishmentid":"2310","name":"Salvation Army - Detroit Temple","address":"3729 W Chicago Ave","zipcode":"48206"},{"establishmentid":"1257","name":"Detroit Repertory Theater","address":"13103 Woodrow Wilson St","zipcode":"48238"},{"establishmentid":"5235","name":"Hook Fresh Fish & Chicken LLC","address":"9200 Dexter Ave","zipcode":"48206"},{"establishmentid":"1456","name":"Grandy's Coney Island Restaurant","address":"13331 Fourteenth","zipcode":"48238"},{"establishmentid":"2820","name":"A Eagles Coney Island","address":"9122 Dexter Ave","zipcode":"48206"},{"establishmentid":"5017","name":"Howard Dreams","address":"1260 W Boston Blvd","zipcode":"48202"},{"establishmentid":"5294","name":"Eleo's Ministries, Inc.","address":"12041 Dexter Ave","zipcode":"48206"},{"establishmentid":"1480","name":"Legends Coney Island","address":"2525 W Davison Ave","zipcode":"48238"},{"establishmentid":"2149","name":"Kentucky Fried Chicken (KFC)","address":"2601 W Davison Ave","zipcode":"48238"},{"establishmentid":"1627","name":"McDonald's #15873","address":"13500 Linwood Ave","zipcode":"48238"},{"establishmentid":"453","name":"White Castle #51","address":"2735 W Davison Ave","zipcode":"48238"},{"establishmentid":"1149","name":"Church's Fried Chicken #863","address":"2757 W Davison Ave","zipcode":"48238"},{"establishmentid":"826","name":"Stewart Elementary- Middle School","address":"13120 Wildemere","zipcode":"48238"}],"inspectionsByEstablishmentidList":[{"inspectionid":"43497","inspectionDate":"2018-09-20T00:00:00","inspectionType":"Preopening/Other","inCompliance":"No","violationsByInspectionidList":[{"violationCode":"4-302.14","violationDescription":"A test kit or other device that accurately measures the concentration in mg/L of SANITIZING solutions shall be provided. (Pf)\r\n","violationType":"Foundation","itemDescription":"Sanitizer test kit","subItem":"","problemDescription":"Not provided","subProblem":"","location":"FACILITY","subLocation":"Throughout","corrected":"No","daysToCorrect":"10.0","correctedDate":null,"correctionDescription":"Provide as required"},{"violationCode":"6-301.14","violationDescription":"A sign or poster that notifies FOOD EMPLOYEES to wash their hands shall be provided at all HANDWASHING SINKS used by FOOD EMPLOYEES and shall be clearly visible to FOOD EMPLOYEES.\r\n","violationType":"Core","itemDescription":"Handwashing signage","subItem":"","problemDescription":"Not provided","subProblem":"","location":"FACILITY","subLocation":"At the Handsink","corrected":"Not required","daysToCorrect":"30.0","correctedDate":null,"correctionDescription":"Provided handwashing signage "},{"violationCode":"6-501.12","violationDescription":"(A) PHYSICAL FACILITIES shall be cleaned as often as necessary to keep them clean.\r\n(B) Except spill cleanup, cleaning shall be done during periods when the least amount of FOOD is exposed such as after closing. ","violationType":"Core","itemDescription":"Physical facilities/structures","subItem":"","problemDescription":"With accumulation of debris","subProblem":"","location":"FLOOR DRAIN(S)","subLocation":"In the Facility","corrected":"Not required","daysToCorrect":"30.0","correctedDate":null,"correctionDescription":"Keep clean."}]}]}]}},"pageContext":{"eid":"51622840"}}