{"data":{"site":{"pathPrefix":"/restaurant-inspections"},"postgres":{"establishment":[{"establishmentid":"51623197","name":"St. Leos Soup Kitchen","address":"4800 Grand River Ave","zipcode":"48208","owner":"St. Leo's Soup Kitchen","licenseNumber":"247182","licenseType":"Fixed Establishment","establishmentType":"Food Service Establishment","establishmentStatus":"Open","riskCategory":"High","reviewFrequencyDays":"365","coords":"-83.08719,42.34823","geojson":{"id":"51623197","type":"Feature","geometry":{"type":"Point","coordinates":[-83.087194955,42.348230859]},"properties":{"name":"St. Leos Soup Kitchen","owner":"St. Leo's Soup Kitchen","address":"4800 Grand River Ave","zipcode":"48208","license_type":"Fixed Establishment","risk_category":"High","license_number":"247182","establishmentid":"51623197","establishment_type":"Food Service Establishment","establishment_status":"Open","review_frequency_days":"365","most_recent_license_date":"5/31/2019"}},"nearbyList":[{"establishmentid":"1411","name":"St. Leo's","address":"4860 Fifteenth St","zipcode":"48208"},{"establishmentid":"51622688","name":"Magnet","address":"4842 Grand River Ave","zipcode":"48208"},{"establishmentid":"2442","name":"George Crockett Academy","address":"4851 Fourteenth St","zipcode":"48208"},{"establishmentid":"5205","name":"Coriander","address":"4848 Grand River Blvd","zipcode":"48207"},{"establishmentid":"51622649","name":"The Commissary","address":"4848 Grand River Ste 1A","zipcode":"48208"},{"establishmentid":"952","name":"Douglass Academy For Young Men","address":"2001 W Warren Ave","zipcode":"48208"},{"establishmentid":"51623311","name":"Big Mama Pizzeria LLC","address":"5181 Grand River","zipcode":"48208"},{"establishmentid":"3865","name":"Monte Bello Pizzeria","address":"5181 Grand River Ave","zipcode":"48208"},{"establishmentid":"4459","name":"Legend's Coney Island","address":"5210 W Grand River","zipcode":"48208"},{"establishmentid":"4572","name":"Legends Grill","address":"5210 Grand River Ave","zipcode":"48208"}],"inspectionsByEstablishmentidList":[{"inspectionid":"50643","inspectionDate":"2020-02-03T00:00:00","inspectionType":"Routine Inspection","inCompliance":"Yes","violationsByInspectionidList":[{"violationCode":"3-501.17","violationDescription":"(A)  READY-TO-EAT, POTENTIALLY HAZARDOUS FOOD (TIME/TEMPERATURE CONTROL FOR SAFETY FOOD)  prepared and held refrigerated for more than 24 hours in a FOOD ESTABLISHMENT  shall be clearly marked at the time of preparation to indicate the date or day by which the FOOD shall be consumed. (Pf)\r\n(B)  A container of refrigerated, commercially prepared READY-TO-EAT POTENTIALLY HAZARDOUS FOOD (TIME/TEMPERATURE CONTROL FOR SAFETY FOOD)  shall be clearly marked, at the time the original container is opened in a FOOD ESTABLISHMENT, to indicate the date or day by which the FOOD shall be consumed. (Pf)\r\n\r\nA date marking system that does not exceed 7 days, including date of preparation, or opening is to be used. (Pf)\r\n","violationType":"Foundation","itemDescription":"Commercially processed ready to eat potentially hazardous food(s)","subItem":"","problemDescription":"Without date of consumption marking","subProblem":"","location":"WALK-IN COOLER","subLocation":"","corrected":"Yes","daysToCorrect":"10","correctedDate":"2020-02-03T00:00:00","correctionDescription":null},{"violationCode":"6-501.12","violationDescription":"(A) PHYSICAL FACILITIES shall be cleaned as often as necessary to keep them clean.\r\n(B) Except spill cleanup, cleaning shall be done during periods when the least amount of FOOD is exposed such as after closing. ","violationType":"Core","itemDescription":"Physical facilities/structures","subItem":"","problemDescription":"Not clean","subProblem":"","location":"KITCHEN","subLocation":"","corrected":"Not required","daysToCorrect":"30","correctedDate":null,"correctionDescription":null}]},{"inspectionid":"50641","inspectionDate":"2019-07-09T00:00:00","inspectionType":"Routine Inspection","inCompliance":"Yes","violationsByInspectionidList":[{"violationCode":"4-102.11","violationDescription":"Materials that are used to make SINGLE-SERVICE and SINGLE-USE ARTICLES:\r\n(A)    May not:\r\n        (1) Allow the migration of deleterious substances,(P) or\r\n        (2) Impart colors, odors, or tastes to FOOD; and \r\n(B)    Shall be:\r\n        (1) Safe,(P) and\r\n        (2) Clean.\r\n","violationType":"Priority","itemDescription":"Single-service/use articles","subItem":"","problemDescription":"Constructed from materials that are not","subProblem":"Allow migration of deleterious substances","location":"DRY STORAGE AREA","subLocation":"","corrected":"Yes","daysToCorrect":"10","correctedDate":"2019-07-09T00:00:00","correctionDescription":null},{"violationCode":"3-501.17","violationDescription":"(A)  READY-TO-EAT, POTENTIALLY HAZARDOUS FOOD (TIME/TEMPERATURE CONTROL FOR SAFETY FOOD)  prepared and held refrigerated for more than 24 hours in a FOOD ESTABLISHMENT  shall be clearly marked at the time of preparation to indicate the date or day by which the FOOD shall be consumed. (Pf)\r\n(B)  A container of refrigerated, commercially prepared READY-TO-EAT POTENTIALLY HAZARDOUS FOOD (TIME/TEMPERATURE CONTROL FOR SAFETY FOOD)  shall be clearly marked, at the time the original container is opened in a FOOD ESTABLISHMENT, to indicate the date or day by which the FOOD shall be consumed. (Pf)\r\n\r\nA date marking system that does not exceed 7 days, including date of preparation, or opening is to be used. (Pf)\r\n","violationType":"Foundation","itemDescription":"Commercially processed ready to eat potentially hazardous food(s)","subItem":"","problemDescription":"Without date of consumption marking","subProblem":"","location":"WALK-IN COOLER","subLocation":"","corrected":"Yes","daysToCorrect":"10","correctedDate":"2019-07-09T00:00:00","correctionDescription":null}]}]}],"maxInspectionDate":[{"inspectionDate":"2020-10-30T00:00:00"}]}},"pageContext":{"eid":"51623197"}}