{"componentChunkName":"component---src-templates-establishment-page-js","path":"/establishment/51623204","result":{"data":{"site":{"pathPrefix":"/restaurant-inspections"},"postgres":{"establishment":[{"establishmentid":"51623204","name":"Capital One Cafe","address":"511 Woodward","zipcode":"48226","owner":"Capital One","licenseNumber":"253479","licenseType":"Fixed Establishment","establishmentType":"Food Service Establishment","establishmentStatus":"Open","riskCategory":"High","reviewFrequencyDays":"150","coords":"-83.04583,42.32966","geojson":{"id":"51623204","type":"Feature","geometry":{"type":"Point","coordinates":[-83.045827064,42.329657513]},"properties":{"name":"Capital One Cafe","owner":"Capital One","address":"511 Woodward","zipcode":"48226","license_type":"Fixed Establishment","risk_category":"High","license_number":"253479","establishmentid":"51623204","establishment_type":"Food Service Establishment","establishment_status":"Open","review_frequency_days":"150","most_recent_license_date":null}},"nearbyList":[{"establishmentid":"51623154","name":"Shirley Shawarma","address":"500 Griswold Street","zipcode":"48226"},{"establishmentid":"51622988","name":"Crazy Gringo Express","address":"500 Griswold St.","zipcode":"48226"},{"establishmentid":"3201","name":"Karmic Cafe","address":"500  Griswold","zipcode":"48226"},{"establishmentid":"51622930","name":"Green Room Salads dba Lunchbox Deli","address":"500 Griswold Ste 220","zipcode":"48226"},{"establishmentid":"3202","name":"Rowland Cafe","address":"500 Griswold St.","zipcode":"48226"},{"establishmentid":"3521","name":"Stella International Cafe ","address":"500 Griswold St.","zipcode":"48226"},{"establishmentid":"2004","name":"STERLING SERVICES","address":"500 GRISWOLD","zipcode":"48226"},{"establishmentid":"3170","name":"Karmic Cafe","address":"500 Griswold","zipcode":"48226"},{"establishmentid":"51622894","name":"Crazy Gringo Express","address":"500 Griswold","zipcode":"48226"},{"establishmentid":"5418","name":"The Guardian Cafe","address":"500 Griswold St.","zipcode":"48226"}],"inspectionsByEstablishmentidList":[{"inspectionid":"59265","inspectionDate":"2022-05-02T00:00:00","inspectionType":"Routine Inspection","inCompliance":"Yes","violationsByInspectionidList":[{"violationCode":"7-201.11","violationDescription":"POISONOUS OR TOXIC MATERIAL shall be stored so they can not contaminate FOOD, EQUIPMENT, UTENSILS, LINENS, AND SINGLE-SERVICE AND SINGLE-USE ARTICLES by:   \n(A) Separating the POISONOUS OR TOXIC MATERIAL by spacing or partitioning; (P) and   \n(B) Locating the POISONOUS OR TOXIC MATERIAL in an area that is not above FOOD, EQUIPMENT, UTENSILS, LINENS, AND SINGLE-SERVICE AND SINGLE-USE ARTICLES.  This paragraph does not apply to EQUIPMENT and UTENSIL cleaners and sanitizers that are stored in WAREWASHING areas for availability and convenience if the materials are stored to prevent contamination of FOOD, EQUIPMENT, UTENSILS, LINENS, AND SINGLE-SERVICE and SINGLE-USE ARTICLES. (P)","violationType":"Priority","itemDescription":"Poisonous/toxic material(s)","subItem":null,"problemDescription":"Stored over/with","subProblem":"Single-service/use items","location":"SERVICE AREA","subLocation":null,"corrected":"True","daysToCorrect":"10","correctedDate":"2022-05-02T00:00:00","correctionDescription":"Store toxics below and away from all other items."},{"violationCode":"6-301.11","violationDescription":"Each HANDWASHING SINK or group of 2 adjacent HANDWASHING SINKS shall be provided with a supply of hand cleaning liquid, powder, or bar soap. (Pf)\n","violationType":"Foundation","itemDescription":"Soap","subItem":"at handsink","problemDescription":"Not provided","subProblem":"At hand sink","location":"HANDSINK(S)","subLocation":null,"corrected":"True","daysToCorrect":"10","correctedDate":"2022-06-01T00:00:00","correctionDescription":"Provide"},{"violationCode":"5-205.11","violationDescription":"(A) A HANDWASHING SINK shall be maintained so that it is accessible at all times for EMPLOYEE use and used for no other purpose. (Pf)\n(B)  An automatic handwashing facility shall be used in accordance with manufacturer's instructions. (Pf)\n","violationType":"Foundation","itemDescription":"Handwashing sink(s)","subItem":null,"problemDescription":"Not easily accessible","subProblem":"Items stored In front of","location":"HANDSINK(S)","subLocation":null,"corrected":"True","daysToCorrect":"10","correctedDate":"2022-05-02T00:00:00","correctionDescription":"Remove items from handsink.  Do not store items at handsink."}]},{"inspectionid":"56458","inspectionDate":"2021-10-12T00:00:00","inspectionType":"Routine Inspection","inCompliance":"Yes","violationsByInspectionidList":[]},{"inspectionid":"54625","inspectionDate":"2021-04-05T00:00:00","inspectionType":"Preopening/New","inCompliance":"Yes","violationsByInspectionidList":[{"violationCode":"4-402.11","violationDescription":"EQUIPMENT that is fixed because it is not EASILY MOVABLE shall be installed so that it is spaced to allow access for cleaning along the sides, behind, and above the EQUIPMENT or sealed as required,  COUNTER-MOUNTED EQUIPMENT that is not EASILY MOVABLE shall be installed to allow cleaning of the EQUIPMENT and areas underneath and around the EQUIPMENT .\n","violationType":"Core","itemDescription":null,"subItem":null,"problemDescription":null,"subProblem":null,"location":null,"subLocation":null,"corrected":"False","daysToCorrect":"30","correctedDate":null,"correctionDescription":null}]}]}],"maxInspectionDate":[{"inspectionDate":"2022-07-25T00:00:00"}]}},"pageContext":{"eid":"51623204"}},"staticQueryHashes":["3649515864","63159454"]}