{"componentChunkName":"component---src-templates-establishment-page-js","path":"/establishment/890","result":{"data":{"site":{"pathPrefix":"/restaurant-inspections"},"postgres":{"establishment":[{"establishmentid":"890","name":"Dixon Educational Learning Center","address":"8401 Trinity","zipcode":"48228","owner":"Detroit Public Schools Communi","licenseNumber":"034924","licenseType":"Fixed Establishment","establishmentType":"Public School","establishmentStatus":"Open","riskCategory":null,"reviewFrequencyDays":"180","coords":"-83.24789,42.35442","geojson":{"id":"890","type":"Feature","geometry":{"type":"Point","coordinates":[-83.247889007,42.354420494]},"properties":{"name":"Dixon Educational Learning Center","owner":"Detroit Public Schools Communi","address":"8401 Trinity","zipcode":"48228","license_type":"Fixed Establishment","risk_category":null,"license_number":"034924","establishmentid":"890","establishment_type":"Public School","establishment_status":"Open","review_frequency_days":"180","most_recent_license_date":null}},"nearbyList":[{"establishmentid":"262","name":"B. M. G. Bar & Grill","address":"20809 Joy Rd.","zipcode":"48228"},{"establishmentid":"1983","name":"Dynasty Express NY Style Chinese Food","address":"20622 Joy Rd.","zipcode":"48228"},{"establishmentid":"263","name":"E & H Lounge","address":"20531 Joy Rd.","zipcode":"48228"},{"establishmentid":"51623397","name":"Buick Hall","address":"20531  Joy Rd.","zipcode":"48228"},{"establishmentid":"51622456","name":"Chris Top Dog's LLC","address":"8420 Stout","zipcode":"48228"},{"establishmentid":"264","name":"Loose Ends, Inc/dba Club Ro-zay","address":"20226 Joy Rd.","zipcode":"48228"},{"establishmentid":"51623012","name":"Ameera's Place","address":"20226 Joy Rd.","zipcode":"48228"},{"establishmentid":"1274","name":"McColl Elementary School","address":"20550 Cathedral","zipcode":"48228"},{"establishmentid":"1238","name":"Kosciusko Elementary School","address":"20220 Tireman","zipcode":"48228"},{"establishmentid":"51623388","name":"Gusto's Burgers","address":"8475 Evergreen","zipcode":"48228"}],"inspectionsByEstablishmentidList":[{"inspectionid":"62226","inspectionDate":"2023-04-18T00:00:00","inspectionType":"Routine Inspection","inCompliance":"Yes","violationsByInspectionidList":[]},{"inspectionid":"60941","inspectionDate":"2022-12-07T00:00:00","inspectionType":"Routine Inspection","inCompliance":"Yes","violationsByInspectionidList":[]},{"inspectionid":"59237","inspectionDate":"2022-04-25T00:00:00","inspectionType":"Routine Inspection","inCompliance":"Yes","violationsByInspectionidList":[]},{"inspectionid":"56308","inspectionDate":"2021-10-12T00:00:00","inspectionType":"Routine Inspection","inCompliance":"Yes","violationsByInspectionidList":[]},{"inspectionid":"55221","inspectionDate":"2021-06-22T00:00:00","inspectionType":"Routine Inspection","inCompliance":"Yes","violationsByInspectionidList":[{"violationCode":"6-501.111","violationDescription":"The presence of insects, rodents, and other pests shall be controlled to minimize their presence on the PREMISES.  by:\n(A) Routinely inspecting incoming shipments of FOOD and supplies; \n(B) Routinely inspecting the PREMISES for evidence of pests;\n(C) Using methods, if pests are found, such as trapping devices or other means of pest control as specified.(Pf) \n(D) Eliminating harborage conditions. \n","violationType":"Foundation","itemDescription":"Routine inspections","subItem":"of premises for evidence of pests","problemDescription":"Not performed","subProblem":"","location":"KITCHEN","subLocation":"","corrected":"True","daysToCorrect":"10","correctedDate":"2021-06-23T00:00:00","correctionDescription":null}]},{"inspectionid":"53278","inspectionDate":"2020-10-26T00:00:00","inspectionType":"Routine Inspection","inCompliance":"Yes","violationsByInspectionidList":[]},{"inspectionid":"51189","inspectionDate":"2020-03-13T00:00:00","inspectionType":"COVID19-phone-low","inCompliance":"Yes","violationsByInspectionidList":[]},{"inspectionid":"49401","inspectionDate":"2019-10-08T00:00:00","inspectionType":"Routine Inspection","inCompliance":"No","violationsByInspectionidList":[{"violationCode":"6-501.111","violationDescription":"The presence of insects, rodents, and other pests shall be controlled to minimize their presence on the PREMISES.  by:\n(A) Routinely inspecting incoming shipments of FOOD and supplies; \n(B) Routinely inspecting the PREMISES for evidence of pests;\n(C) Using methods, if pests are found, such as trapping devices or other means of pest control as specified.(Pf) \n(D) Eliminating harborage conditions. \n","violationType":"Core","itemDescription":"Pest(s)","subItem":"","problemDescription":"Present in facility","subProblem":"","location":"DRY STORAGE AREA","subLocation":"","corrected":"False","daysToCorrect":"10","correctedDate":null,"correctionDescription":"Remove pests from facility."}]},{"inspectionid":"47655","inspectionDate":"2019-05-08T00:00:00","inspectionType":"Routine Inspection","inCompliance":"Yes","violationsByInspectionidList":[]},{"inspectionid":"43575","inspectionDate":"2018-09-26T00:00:00","inspectionType":"Routine Inspection","inCompliance":"Yes","violationsByInspectionidList":[]},{"inspectionid":"42056","inspectionDate":"2018-04-23T00:00:00","inspectionType":"Routine Inspection","inCompliance":"Yes","violationsByInspectionidList":[]},{"inspectionid":"40021","inspectionDate":"2017-09-18T00:00:00","inspectionType":"Routine Inspection","inCompliance":"Yes","violationsByInspectionidList":[]},{"inspectionid":"38683","inspectionDate":"2017-04-24T00:00:00","inspectionType":"Routine Inspection","inCompliance":"Yes","violationsByInspectionidList":[]},{"inspectionid":"36688","inspectionDate":"2016-10-03T00:00:00","inspectionType":"Routine Inspection","inCompliance":"Yes","violationsByInspectionidList":[]}]}],"maxInspectionDate":[{"inspectionDate":"2023-04-25T00:00:00"}]}},"pageContext":{"eid":"890"}},"staticQueryHashes":["3649515864","63159454"]}