{"data":{"site":{"pathPrefix":"/restaurant-inspections"},"postgres":{"establishment":[{"establishmentid":"3579","name":"Brooksey's","address":"7625 W Warren Ave","zipcode":"4821","owner":"Brooksy J. Irvine, Jr.--member","licenseNumber":"059569","licenseType":"Fixed Establishment","establishmentType":"Food Service Establishment","establishmentStatus":"Open","riskCategory":"Medium","reviewFrequencyDays":"365.0","coords":"-83.14544,42.34448","geojson":{"id":"3579","type":"Feature","geometry":{"type":"Point","coordinates":[-83.145440019,42.3444805820001]},"properties":{"name":"Brooksey's","owner":"Brooksy J. Irvine, Jr.--member","address":"7625 W Warren Ave","zipcode":"4821","license_type":"Fixed Establishment","risk_category":"Medium","license_number":"059569","establishmentid":"3579","establishment_type":"Food Service Establishment","establishment_status":"Open","review_frequency_days":"365.0","most_recent_license_date":null}},"nearbyList":[{"establishmentid":"2583","name":"Priest Annex","address":"5901 Casper","zipcode":"4821"},{"establishmentid":"944","name":"Priest Elementary","address":"7840 Wagner St","zipcode":"4821"},{"establishmentid":"3813","name":"Unity Baptist Church","address":"7500 Tireman Ave","zipcode":"48204"},{"establishmentid":"3137","name":"La Rosita","address":"7831-49 McGraw St","zipcode":"4821"},{"establishmentid":"5050","name":"El Rey De Las Arepas","address":"7701 McGraw St","zipcode":"4821"},{"establishmentid":"3481","name":"Matrix Head Start","address":"5690 Cecil","zipcode":"4821"},{"establishmentid":"5426","name":"Asty Time Inc.","address":"7340 McGraw Ave","zipcode":"4821"},{"establishmentid":"51622525","name":"El Brasero","address":"5546 Chopin","zipcode":"4821"},{"establishmentid":"1278","name":"Onasis Coney Island ","address":"8001 Livernois Ave","zipcode":"48204"},{"establishmentid":"635","name":"Deb's Place","address":"8748 Tireman Ave","zipcode":"48204"}],"inspectionsByEstablishmentidList":[{"inspectionid":"44049","inspectionDate":"2018-07-06T00:00:00","inspectionType":"Routine Inspection","inCompliance":"Yes","violationsByInspectionidList":[{"violationCode":"6-501.11","violationDescription":"PHYSICAL FACILITIES shall be maintained in good repair.\r\n","violationType":"Core","itemDescription":"Physical facilities","subItem":"","problemDescription":"In poor repair","subProblem":"","location":"KITCHEN","subLocation":"On the Floor","corrected":"Not required","daysToCorrect":"30.0","correctedDate":null,"correctionDescription":null}]},{"inspectionid":"38691","inspectionDate":"2017-05-12T00:00:00","inspectionType":"Routine Inspection","inCompliance":"Yes","violationsByInspectionidList":[{"violationCode":"4-502.11","violationDescription":"(A) UTENSILS shall be maintained in a state of repair or condition that complies with the requirements specified under Parts 4-1 and 4-2 or shall be discarded.\r\n(B) FOOD TEMPERATURE MEASURING DEVICES shall be calibrated in accordance with manufacturer's specifications as necessary to ensure their accuracy. (Pf)   \r\n(C) Ambient air temperature, water pressure, and water TEMPERATURE MEAURING DEVICES shall be maintained in good repair and be accurate within the intended range of use.","violationType":"Foundation","itemDescription":"Food thermometer(s)","subItem":"","problemDescription":"Not calibrated","subProblem":"","location":"BAR","subLocation":"","corrected":"Yes","daysToCorrect":"10.0","correctedDate":"2017-05-12T00:00:00","correctionDescription":"Calibrate in accordance with manufacturer specifications."}]}]}],"maxInspectionDate":[{"inspectionDate":"2019-03-31T00:00:00"}]}},"pageContext":{"eid":"3579"}}