{"componentChunkName":"component---src-templates-establishment-page-js","path":"/establishment/51622940","result":{"data":{"site":{"pathPrefix":"/restaurant-inspections"},"postgres":{"establishment":[{"establishmentid":"51622940","name":"Tenacity Craft","address":"8517 Second Ave.","zipcode":"48202","owner":"Tenacity Brewing LLC","licenseNumber":"253472","licenseType":"Fixed Establishment","establishmentType":"Food Service Establishment","establishmentStatus":"Open","riskCategory":"High","reviewFrequencyDays":"335","coords":"-83.08196,42.37711","geojson":{"id":"51622940","type":"Feature","geometry":{"type":"Point","coordinates":[-83.081955347,42.377113066]},"properties":{"name":"Tenacity Craft","owner":"Tenacity Brewing LLC","address":"8517 Second Ave.","zipcode":"48202","license_type":"Fixed Establishment","risk_category":"High","license_number":"253472","establishmentid":"51622940","establishment_type":"Food Service Establishment","establishment_status":"Open","review_frequency_days":"335","most_recent_license_date":"5/5/2022"}},"nearbyList":[{"establishmentid":"229","name":"Fish Nook","address":"8517 Second","zipcode":"48202"},{"establishmentid":"51623063","name":"Garden Flora","address":"611 Philadelphia W.","zipcode":"48202"},{"establishmentid":"51623861","name":"The Mug ","address":"8735 Second","zipcode":"48202"},{"establishmentid":"51623555","name":"People's Community Church","address":"8601 Woodward","zipcode":"48202"},{"establishmentid":"4721","name":"People's Community Church","address":"8601 Woodward","zipcode":"48202"},{"establishmentid":"4376","name":"Mount Zion New Covenant Baptist Church","address":"8231 Second Ave.","zipcode":"48202"},{"establishmentid":"4142","name":"Riverside Prep Academy","address":"8801  Woodward Ave.","zipcode":"48202"},{"establishmentid":"4160","name":"Cafe Sonshine","address":"8902 Second Ave.","zipcode":"48202"},{"establishmentid":"1101","name":"Cafe Sonshine","address":"8902 Second","zipcode":"48202"},{"establishmentid":"4375","name":"Cafe Sonshine","address":"8902 Second Ave.","zipcode":"48202"}],"inspectionsByEstablishmentidList":[{"inspectionid":"60940","inspectionDate":"2022-12-09T00:00:00","inspectionType":"Routine Inspection","inCompliance":"Yes","violationsByInspectionidList":[{"violationCode":"4-204.11","violationDescription":"Exhaust ventilation hood systems in FOOD preparation and WAREWASHING areas including components such as hoods, fans, guards, and ducting shall be designed to prevent grease or condensation from draining or dripping onto FOOD, EQUIPMENT, UTENSILS, LINENS, and SINGLE-SERVICE and SINGLE-USE ARTICLES.\n","violationType":"Core","itemDescription":null,"subItem":"","problemDescription":null,"subProblem":"","location":"BAR","subLocation":"","corrected":"False","daysToCorrect":"30","correctedDate":null,"correctionDescription":null}]},{"inspectionid":"56482","inspectionDate":"2021-11-03T00:00:00","inspectionType":"Routine Inspection","inCompliance":"Yes","violationsByInspectionidList":[{"violationCode":"2-201.11","violationDescription":"The PERMIT HOLDER shall require FOOD EMPLOYEE applicants and  FOOD EMPLOYEES to report to the PERSON IN CHARGE,  information about their health and activities as they relate to diseases that are transmissible through FOOD. AND report the information in a manner that allows the PERSON IN CHARGE to prevent the likelihood of foodborne disease transmission.(P)\n","violationType":"Priority","itemDescription":null,"subItem":"","problemDescription":null,"subProblem":"","location":"BREWERY","subLocation":"","corrected":"True","daysToCorrect":"10","correctedDate":"2011-01-03T00:00:00","correctionDescription":null},{"violationCode":"6-301.12","violationDescription":"Each HANDWASHING SINK or group of adjacent HANDWASHING SINKS shall be provided with:\n(A) Individual, disposable towels; (Pf)\n(B) A continuous towel system that supplies the user with a clean towel;(Pf) or \n(C) A heated-air hand drying device.(Pf)\n(D) A hand drying device that employs an air-knife system that delivers high velocity pressurized air at ambient temperatures.(Pf)\n","violationType":"Foundation","itemDescription":"Sanitary hand drying provisions","subItem":"","problemDescription":"Not provided","subProblem":"","location":"BREWERY","subLocation":"","corrected":"True","daysToCorrect":"10","correctedDate":"2011-01-03T00:00:00","correctionDescription":null},{"violationCode":"6-301.14","violationDescription":"A sign or poster that notifies FOOD EMPLOYEES to wash their hands shall be provided at all HANDWASHING SINKS used by FOOD EMPLOYEES and shall be clearly visible to FOOD EMPLOYEES.\n","violationType":"Core","itemDescription":"Handwashing signage","subItem":"","problemDescription":"Not provided","subProblem":"At hand sink","location":"BREWERY","subLocation":"","corrected":"False","daysToCorrect":"30","correctedDate":null,"correctionDescription":null}]},{"inspectionid":"54682","inspectionDate":"2021-04-17T00:00:00","inspectionType":"Preopening/New","inCompliance":"Yes","violationsByInspectionidList":[{"violationCode":"5-501.11","violationDescription":"An outdoor storage surface for REFUSE, recyclables, and returnable's shall be constructed of nonabsorbent material such as concrete or asphalt and shall be SMOOTH, durable, and sloped to drain.\n","violationType":"Core","itemDescription":"Waste receptacle(s)","subItem":"dumpster","problemDescription":"Stored over","subProblem":"Gravel","location":"OUTSIDE PREMISES","subLocation":"Dumpster(s)","corrected":"False","daysToCorrect":"30","correctedDate":null,"correctionDescription":"Store over cement or machine laid asphalt that is sloped to drain."}]}]}],"maxInspectionDate":[{"inspectionDate":"2023-04-13T00:00:00"}]}},"pageContext":{"eid":"51622940"}},"staticQueryHashes":["3649515864","63159454"]}