{"componentChunkName":"component---src-templates-establishment-page-js","path":"/establishment/51622658","result":{"data":{"site":{"pathPrefix":"/restaurant-inspections"},"postgres":{"establishment":[{"establishmentid":"51622658","name":"Detroit Original Seafood Truck ","address":"19665 Stratford","zipcode":"48221","owner":"Rashad Torrence","licenseNumber":"229214","licenseType":"Special Transitory Food Unit","establishmentType":"Food Service Establishment","establishmentStatus":"Seasonal","riskCategory":null,"reviewFrequencyDays":"150","coords":"-83.13612,42.43865","geojson":{"id":"51622658","type":"Feature","geometry":{"type":"Point","coordinates":[-83.136123095,42.438648336]},"properties":{"name":"Detroit Original Seafood Truck ","owner":"Rashad Torrence","address":"19665 Stratford","zipcode":"48221","license_type":"Special Transitory Food Unit","risk_category":null,"license_number":"229214","establishmentid":"51622658","establishment_type":"Food Service Establishment","establishment_status":"Seasonal","review_frequency_days":"150","most_recent_license_date":null}},"nearbyList":[{"establishmentid":"3190","name":"Lola's Restaurant","address":"19595  Stratford","zipcode":"48226"},{"establishmentid":"51623614","name":"Zippy's Coffee","address":"20227 Stratford Rd.","zipcode":"48221"},{"establishmentid":"1469","name":"Noni's Sherwood Grille","address":"19700 Livernois Ave.","zipcode":"48221"},{"establishmentid":"51622487","name":"Bucharest Grill","address":"19492 Livernois","zipcode":"48221"},{"establishmentid":"1492","name":"O'Quinn's Shrimp House #2","address":"20050 Livernois Ave.","zipcode":"48221"},{"establishmentid":"51623421","name":"Petty Cash","address":"20050 Livernois","zipcode":"48221"},{"establishmentid":"51623505","name":"Reca Creations Food Truck LLC (Wayne)","address":"3931 Norfolk","zipcode":"48221"},{"establishmentid":"3928","name":"1917 American Bistro","address":"19416 Livernois","zipcode":"48221"},{"establishmentid":"51622708","name":"Good Times on the Ave","address":"19416 Livernois","zipcode":"48221"},{"establishmentid":"4245","name":"New Prospect Missionary Baptist Church","address":"6330  Pembroke","zipcode":"48221"}],"inspectionsByEstablishmentidList":[{"inspectionid":"41652","inspectionDate":"2018-03-04T00:00:00","inspectionType":"Plan Review/Final/Ap","inCompliance":"Yes","violationsByInspectionidList":[]},{"inspectionid":"41639","inspectionDate":"2018-03-01T00:00:00","inspectionType":"Plan Review/Pre-Open","inCompliance":"No","violationsByInspectionidList":[{"violationCode":"5-402.11","violationDescription":"Except as otherwise allowed, a direct connection may not exist between the SEWAGE system and a drain originating from EQUIPMENT in which FOOD, portable EQUIPMENT, or UTENSILS are placed. (P)\n","violationType":"Priority","itemDescription":"Backflow/backsiphonage prevention device(s)","subItem":"Air gap","problemDescription":"Not provided on","subProblem":"Sink","location":"THREE COMPARTMENT SINK","subLocation":"At the AIR GAP","corrected":"False","daysToCorrect":"10","correctedDate":null,"correctionDescription":"Provide adequate air gap."},{"violationCode":"6-201.11","violationDescription":"Except otherwise approved, and except for antislip floor coverings or applications may be used for safety reasons, floors, floor coverings, walls, wall coverings, and ceilings shall be designed, constructed, and installed so they are SMOOTH and EASILY CLEANABLE.\n","violationType":"Core","itemDescription":"wall(s)","subItem":"wall covering(s)","problemDescription":"Not constructed, designed, installed to be","subProblem":"Smooth","location":"PHYSICAL FACILITIES","subLocation":"","corrected":"False","daysToCorrect":"30","correctedDate":null,"correctionDescription":"Repair/replace to be smooth and easily cleanable."},{"violationCode":"6-101.11","violationDescription":"Materials for indoor floor, wall, and ceiling surfaces under conditions of normal use shall be:\n(1) SMOOTH, durable, and EASILY CLEANABLE for areas where FOOD ESTABLISHMENT operations are conducted;\n(2) Closely woven and EASILY CLEANABLE carpet for carpeted areas; and\n(3) Nonabsorbent for areas subject to moisture such as FOOD preparation areas, walk-in refrigerators, WAREWASHING areas, toilet rooms, mobile FOOD ESTABLISHMENT SERVICING AREAS, and areas subject to flushing or spray cleaning methods.\n","violationType":"Core","itemDescription":"wall(s)","subItem":"wall covering(s)","problemDescription":"Not constructed, designed, installed to be","subProblem":"Easily cleanable","location":"PHYSICAL FACILITIES","subLocation":"","corrected":"False","daysToCorrect":"30","correctedDate":null,"correctionDescription":"Repair/replace to be smooth and easily cleanable."},{"violationCode":"5-205.15","violationDescription":"A PLUMBING SYSTEM shall be:\n(A) Repaired according to LAW; (P) and\n(B) Maintained in good repair.\n","violationType":"Core","itemDescription":"Plumbing system","subItem":"water line(s)","problemDescription":"Not maintained","subProblem":"","location":"THREE COMPARTMENT SINK","subLocation":"At the Faucet","corrected":"False","daysToCorrect":"10","correctedDate":null,"correctionDescription":"Maintain in good repair"}]}]}],"maxInspectionDate":[{"inspectionDate":"2023-04-25T00:00:00"}]}},"pageContext":{"eid":"51622658"}},"staticQueryHashes":["3649515864","63159454"]}