{"data":{"site":{"pathPrefix":"/restaurant-inspections"},"postgres":{"establishment":[{"establishmentid":"3463","name":"Breithaupt Career/Technical Center","address":"9300 Hubbell Ave","zipcode":"48228","owner":"Detroit Public Schools","licenseNumber":"035405","licenseType":"Fixed Establishment","establishmentType":"Public School","establishmentStatus":"Open","riskCategory":"High","reviewFrequencyDays":"210.0","coords":"-83.18667,42.36371","geojson":{"id":"3463","type":"Feature","geometry":{"type":"Point","coordinates":[-83.1866694779999,42.363707075]},"properties":{"name":"Breithaupt Career/Technical Center","owner":"Detroit Public Schools","address":"9300 Hubbell Ave","zipcode":"48228","license_type":"Fixed Establishment","risk_category":"High","license_number":"035405","establishmentid":"3463","establishment_type":"Public School","establishment_status":"Open","review_frequency_days":"210.0","most_recent_license_date":"4/13/2016"}},"nearbyList":[{"establishmentid":"3535","name":"Front Page Deli","address":"14744 W Chicago","zipcode":"48228"},{"establishmentid":"2077","name":"Superior Coney Island","address":"14501 Joy Rd","zipcode":"48228"},{"establishmentid":"722","name":"Club Celebrity","address":"14421 Plymouth Rd","zipcode":"48227"},{"establishmentid":"527","name":"Lon's Ham and Corned Beef","address":"13600 Chicago Ave W","zipcode":"48228"},{"establishmentid":"5065","name":"Johnson's Southern Bar And Grille","address":"14701 Plymouth Rd","zipcode":"48227"},{"establishmentid":"734","name":"Verdell's Lounge","address":"14826 Plymouth Rd","zipcode":"48227"},{"establishmentid":"1581","name":"Club Jovonnes","address":"9138 Greenfield Rd","zipcode":"48228"},{"establishmentid":"1075","name":"Omega Coney Island","address":"9500 Greenfield Rd","zipcode":"48227"},{"establishmentid":"2647","name":"Captain Jay's Fish & Chicken #101","address":"9233 Greenfield Ave","zipcode":"48228"},{"establishmentid":"3976","name":"Manhattan Fish and Chicken","address":"8712 Schaefer Ave ","zipcode":"48228"}],"inspectionsByEstablishmentidList":[{"inspectionid":"44166","inspectionDate":"2018-11-20T00:00:00","inspectionType":"Routine Inspection","inCompliance":"Yes","violationsByInspectionidList":[{"violationCode":"6-501.11","violationDescription":"PHYSICAL FACILITIES shall be maintained in good repair.\r\n","violationType":"Core","itemDescription":"Physical facilities","subItem":"Floor(s)","problemDescription":"In poor repair","subProblem":"","location":"BAKERY","subLocation":"","corrected":"Not required","daysToCorrect":"30.0","correctedDate":null,"correctionDescription":null}]},{"inspectionid":"41663","inspectionDate":"2018-02-08T00:00:00","inspectionType":"Routine Inspection","inCompliance":"Yes","violationsByInspectionidList":[{"violationCode":"4-901.11","violationDescription":"After cleaning and SANITIZING, EQUIPMENT and UTENSILS shall be air-dried or used after adequate draining.\r\n","violationType":"Core","itemDescription":"Clean equipment and utensil(s)","subItem":"","problemDescription":"Stored/stacked wet","subProblem":"","location":"BAKERY","subLocation":"","corrected":"Yes","daysToCorrect":"30.0","correctedDate":"2018-02-08T00:00:00","correctionDescription":"Completely air dry all items prior to storage/use."}]},{"inspectionid":"39052","inspectionDate":"2017-06-14T00:00:00","inspectionType":"Routine Inspection","inCompliance":"Yes","violationsByInspectionidList":[{"violationCode":"5-205.15","violationDescription":"A PLUMBING SYSTEM shall be:\r\n(A) Repaired according to LAW; (P) and\r\n(B) Maintained in good repair.\r\n","violationType":"Core","itemDescription":"Plumbing system","subItem":"","problemDescription":"Not maintained","subProblem":"","location":"Main Kitchen","subLocation":"","corrected":"Not required","daysToCorrect":"10.0","correctedDate":null,"correctionDescription":"Maintain in good repair"}]},{"inspectionid":"37353","inspectionDate":"2016-12-08T00:00:00","inspectionType":"Routine Inspection","inCompliance":"Yes","violationsByInspectionidList":[]}]}],"maxInspectionDate":[{"inspectionDate":"2019-01-31T00:00:00"}]}},"pageContext":{"eid":"3463"}}