{"data":{"site":{"pathPrefix":"/restaurant-inspections"},"postgres":{"establishment":[{"establishmentid":"4311","name":"Holy Redeemer Church","address":"1721 Junction Ave","zipcode":"48209","owner":"Dennis Walsh, SOLT","licenseNumber":"203412","licenseType":"Fixed Establishment","establishmentType":"Food Service Establishment","establishmentStatus":"Open","riskCategory":null,"reviewFrequencyDays":"365","coords":"-83.10207,42.31707","geojson":{"id":"4311","type":"Feature","geometry":{"type":"Point","coordinates":[-83.102066283,42.317066121]},"properties":{"name":"Holy Redeemer Church","owner":"Dennis Walsh, SOLT","address":"1721 Junction Ave","zipcode":"48209","license_type":"Fixed Establishment","risk_category":null,"license_number":"203412","establishmentid":"4311","establishment_type":"Food Service Establishment","establishment_status":"Open","review_frequency_days":"365","most_recent_license_date":"6/6/2019"}},"nearbyList":[{"establishmentid":"3661","name":"Detroit Cristo Rey High School","address":"5679 W Vernor","zipcode":"48209"},{"establishmentid":"259","name":"Duly's Coney Island","address":"5458 W Vernor","zipcode":"48209"},{"establishmentid":"1525","name":"Holy Redeemer Grade School","address":"1711 Junction Ave","zipcode":"48209"},{"establishmentid":"1452","name":"El Palenque","address":"5426 W Vernor","zipcode":"48209"},{"establishmentid":"1338","name":"Columbo's Coney Island","address":"5414 W Vernor","zipcode":"48209"},{"establishmentid":"461","name":"Ho Ho Village","address":"5821 W Vernor","zipcode":"48209"},{"establishmentid":"3647","name":"Pollo Chapin","address":"2054 Junction Ave","zipcode":"48209"},{"establishmentid":"4662","name":"Tacos Morelotes","address":"1494 Junction Ave","zipcode":"48209"},{"establishmentid":"4677","name":"La Fiesta Ice Cream Shop","address":"4801 W Vernor","zipcode":"48209"},{"establishmentid":"1125","name":"Donut Villa","address":"5875 W Vernor","zipcode":"48209"}],"inspectionsByEstablishmentidList":[{"inspectionid":"47711","inspectionDate":"2019-05-14T00:00:00","inspectionType":"Routine Inspection","inCompliance":"Yes","violationsByInspectionidList":[{"violationCode":"4-501.114","violationDescription":"A chemical SANITIZER used in a SANITIZING solution for a manual or\r\nmechanical operation shall meet these limits or as otherwise approved: (P)\r\n\tChlorine        ppm           pH<10             pH<8\r\n\t\t      25              120 F              120 F\r\n\t\t      50              100 F              75 F\r\n\t\t     100              55 F               55 F\r\n                 Iodine           a concentration of between 12.5 and 25 ppm and minimum temp of 75 F and pH of 5 or less or meets manufacturer's specifications. (P)\r\n\r\n                Quats            minimum temperature of 75 F, hardness of 500 ppm or less and meet manufacturers use directions. (P)\r\n","violationType":"Priority","itemDescription":"Other chemical sanitizing solution concentration(s)","subItem":"","problemDescription":"Not approved for use","subProblem":"","location":"THREE COMPARTMENT SINK","subLocation":"Approved Sanitizer","corrected":"Yes","daysToCorrect":"10","correctedDate":"2019-06-13T00:00:00","correctionDescription":"Discontinue use.  Provide approved source."},{"violationCode":"4-302.14","violationDescription":"A test kit or other device that accurately measures the concentration in mg/L of SANITIZING solutions shall be provided. (Pf)\r\n","violationType":"Foundation","itemDescription":"Sanitizer test kit","subItem":"","problemDescription":"Not provided","subProblem":"","location":"THREE COMPARTMENT SINK","subLocation":"Test strips","corrected":"Yes","daysToCorrect":"10","correctedDate":"2019-06-13T00:00:00","correctionDescription":"Provide."}]},{"inspectionid":"39237","inspectionDate":"2017-07-13T00:00:00","inspectionType":"Routine Inspection","inCompliance":"Yes","violationsByInspectionidList":[]}]}],"maxInspectionDate":[{"inspectionDate":"2020-05-29T00:00:00"}]}},"pageContext":{"eid":"4311"}}