{"data":{"site":{"pathPrefix":"/restaurant-inspections"},"postgres":{"establishment":[{"establishmentid":"4016","name":"Mr. Soft Serve","address":"11613 Lumpkin Street","zipcode":"48212","owner":"Mohamed Ghaleb-A Almasmari","licenseNumber":"038302","licenseType":"Mobile Food Establishment","establishmentType":"LHD - Mobile Food Establishmen","establishmentStatus":"Seasonal","riskCategory":null,"reviewFrequencyDays":"395.0","coords":"-83.06754,42.40011","geojson":{"id":"4016","type":"Feature","geometry":{"type":"Point","coordinates":[-83.067543975,42.4001080740001]},"properties":{"name":"Mr. Soft Serve","owner":"Mohamed Ghaleb-A Almasmari","address":"11613 Lumpkin Street","zipcode":"48212","license_type":"Mobile Food Establishment","risk_category":null,"license_number":"038302","establishmentid":"4016","establishment_type":"LHD - Mobile Food Establishmen","establishment_status":"Seasonal","review_frequency_days":"395.0","most_recent_license_date":"5/1/2019"}},"nearbyList":[{"establishmentid":"51623011","name":"Detroit Ice Cream","address":"11613 Lumpkin","zipcode":"48212"},{"establishmentid":"5312","name":"Wonka Soft Serve","address":"11609 Lumpkin St","zipcode":"48212"},{"establishmentid":"5314","name":"Fresh Soft Serve","address":"11516 Saint Aubin St","zipcode":"48212"},{"establishmentid":"51622757","name":"Supa Flavor ","address":"11514 St Aubin St","zipcode":"48212"},{"establishmentid":"5390","name":"Premier Ice Cream","address":"2217 Evaline St","zipcode":"48212"},{"establishmentid":"4402","name":"Bridge Academy West","address":"3105 Carpenter St","zipcode":"48212"},{"establishmentid":"4453","name":"Beignet's, LLC","address":"2424 Florian St","zipcode":"48212"},{"establishmentid":"51622689","name":"American Axle Plant #6","address":"2020 Holbrook Ave","zipcode":"48212"},{"establishmentid":"914","name":"Davison Elementary Annex","address":"13210 Maine St","zipcode":"48238"},{"establishmentid":"1317","name":"Loving Elementary","address":"1000 Lynn Ave","zipcode":"48202"}],"inspectionsByEstablishmentidList":[{"inspectionid":"42125","inspectionDate":"2018-05-09T00:00:00","inspectionType":"Mobile Inspection","inCompliance":"Yes","violationsByInspectionidList":[{"violationCode":"5-302.14","violationDescription":"If provided, a water tank vent shall terminate in a downward direction and shall be covered with: 16 mesh screen or equivalent when the vent is in a protected area or A protective filter when the vent is in an area that is not protected from windblown dirt and debris.\r\n","violationType":"Core","itemDescription":"Mobile water tank vent","subItem":"","problemDescription":"Does not terminate in downward direction","subProblem":"","location":"TRUCK","subLocation":"At the Water Tank Vent","corrected":"Yes","daysToCorrect":"30.0","correctedDate":"2018-05-09T00:00:00","correctionDescription":"Repair/replace to meet requirements above."}]},{"inspectionid":"41159","inspectionDate":"2017-05-09T00:00:00","inspectionType":"Routine Inspection","inCompliance":"Yes","violationsByInspectionidList":[{"violationCode":"MFL289.2129","violationDescription":"Sec. 2129. (1) All food establishments shall employ a minimum of 1 managerial employee as a food safety manager, who must be an individual who is currently certified under a personnel certification program accredited by the American National Standards Institute, utilizing the Conference for Food Protection standards:\r\n(2) Beginning January 14, 2017 and every 5 years thereafter, a certified  food safety manager who supervises the operations of a food service establishment shall have completed a food safety training program\r\ncontaining an allergen awareness  component that has been approved by  the department. A food service establishment shall retain records on the  site of the food service establishment documenting compliance of its  certified food safety managers with this subsection. ","violationType":"Core","itemDescription":"Person-in-charge","subItem":"","problemDescription":null,"subProblem":"","location":"MOBILE UNIT","subLocation":"","corrected":"Not required","daysToCorrect":"30.0","correctedDate":null,"correctionDescription":null}]}]}],"maxInspectionDate":[{"inspectionDate":"2019-04-30T00:00:00"}]}},"pageContext":{"eid":"4016"}}