{"data":{"site":{"pathPrefix":"/restaurant-inspections"},"postgres":{"establishment":[{"establishmentid":"51622834","name":"Awake Cafe Coffee and Conversation","address":"4224 Third Ave","zipcode":"48201","owner":"Evangelistic Faith Ministries","licenseNumber":"236360","licenseType":"Fixed Establishment","establishmentType":"Food Service Establishment","establishmentStatus":"Open","riskCategory":"High","reviewFrequencyDays":"180.0","coords":"-83.06797,42.34962","geojson":{"id":"51622834","type":"Feature","geometry":{"type":"Point","coordinates":[-83.067965202,42.34961932]},"properties":{"name":"Awake Cafe Coffee and Conversation","owner":"Evangelistic Faith Ministries","address":"4224 Third Ave","zipcode":"48201","license_type":"Fixed Establishment","risk_category":"High","license_number":"236360","establishmentid":"51622834","establishment_type":"Food Service Establishment","establishment_status":"Open","review_frequency_days":"180.0","most_recent_license_date":"1/7/2019"}},"nearbyList":[{"establishmentid":"51622458","name":"Willis Show Bar","address":"4156 Third Ave","zipcode":"48201"},{"establishmentid":"5180","name":"Cinema Detroit","address":"4126 Third Ave","zipcode":"48201"},{"establishmentid":"5193","name":"Gus's Fried Chicken","address":"4101 Third Ave","zipcode":"48201"},{"establishmentid":"4658","name":"Traffic Jam-Snug/Brewery","address":"4268 Second Ave","zipcode":"48201"},{"establishmentid":"235","name":"Traffic Jam-Snug","address":"4268 Second Ave","zipcode":"48201"},{"establishmentid":"5036","name":"Maya's Indo-Pak Cuisine","address":"4445 Second Ave","zipcode":"48201"},{"establishmentid":"4392","name":"The Bottom Line Coffee House","address":"4474 Third Ave","zipcode":"48201"},{"establishmentid":"4657","name":"Traffic Jam-Snug/Bakery","address":"511 W Canfield St","zipcode":"48201"},{"establishmentid":"718","name":"Mario's","address":"4222 Second Ave","zipcode":"48201"},{"establishmentid":"4941","name":"Jolly Pumpkin Pizzeria","address":"441 W Canfield St","zipcode":"48201"}],"inspectionsByEstablishmentidList":[{"inspectionid":"48998","inspectionDate":"2019-09-05T00:00:00","inspectionType":"Routine Inspection","inCompliance":"Yes","violationsByInspectionidList":[{"violationCode":"7-204.11","violationDescription":"Chemical SANITIZERS and other chemical antimicrobials applied to FOOD-CONTACT SURFACES shall meet the requirements specified in this code. (P)\r\n","violationType":"Priority","itemDescription":"Sanitizer(s)","subItem":"","problemDescription":"Do not comply with law","subProblem":"","location":"3 COMPARTMENT SINK AREA","subLocation":"","corrected":"Yes","daysToCorrect":"10.0","correctedDate":"2019-09-05T00:00:00","correctionDescription":null}]},{"inspectionid":"45929","inspectionDate":"2019-04-04T00:00:00","inspectionType":"Routine Inspection","inCompliance":"Yes","violationsByInspectionidList":[]},{"inspectionid":"45238","inspectionDate":"2019-02-18T00:00:00","inspectionType":"Preopening/New","inCompliance":"Yes","violationsByInspectionidList":[{"violationCode":"6-101.11","violationDescription":"Materials for indoor floor, wall, and ceiling surfaces under conditions of normal use shall be:\r\n(1) SMOOTH, durable, and EASILY CLEANABLE for areas where FOOD ESTABLISHMENT operations are conducted;\r\n(2) Closely woven and EASILY CLEANABLE carpet for carpeted areas; and\r\n(3) Nonabsorbent for areas subject to moisture such as FOOD preparation areas, walk-in refrigerators, WAREWASHING areas, toilet rooms, mobile FOOD ESTABLISHMENT SERVICING AREAS, and areas subject to flushing or spray cleaning methods.\r\n","violationType":"Core","itemDescription":"Floor material(s)","subItem":"for construction","problemDescription":"Not easily cleanable","subProblem":"","location":"COFFEE AREA","subLocation":"","corrected":"Yes","daysToCorrect":"30.0","correctedDate":"2019-02-19T00:00:00","correctionDescription":"Repair/replace to be easily cleanable."},{"violationCode":"4-903.11","violationDescription":"Cleaned EQUIPMENT and UTENSILS, laundered LINENS, and SINGLE-SERVICE and SINGLE-USE ARTICLES shall be stored in an approved manner and location.\r\n","violationType":"Core","itemDescription":"Clean equipment/utensil(s)","subItem":"","problemDescription":"Exposed to dust, splash, or other contaminates","subProblem":"","location":"HANDSINK(S)","subLocation":"","corrected":"Yes","daysToCorrect":"30.0","correctedDate":"2019-02-19T00:00:00","correctionDescription":null},{"violationCode":"4-202.16","violationDescription":"NonFOOD-CONTACT SURFACES shall be free of unnecessary ledges, projections, and crevices, and designed and constructed to allow easy cleaning and to facilitate maintenance.\r\n","violationType":"Core","itemDescription":"Nonfood contact surface(s)","subItem":"","problemDescription":"With ledges, projections, or crevices","subProblem":"","location":"COFFEE AREA","subLocation":"","corrected":"Yes","daysToCorrect":"30.0","correctedDate":"2019-02-19T00:00:00","correctionDescription":"Repair/replace to be easily cleanable."}]}]}],"maxInspectionDate":[{"inspectionDate":"2019-10-31T00:00:00"}]}},"pageContext":{"eid":"51622834"}}