{"data":{"postgres":{"establishment":[{"establishmentid":"51622453","name":"Narrow Way Cafe LLC","address":"19331 Livernois Ave","zipcode":"48221","owner":"Sabrina Swain","licenseNumber":"218115","licenseType":"Fixed Establishment","establishmentType":"Food Service Establishment","establishmentStatus":"Open","riskCategory":"Medium","reviewFrequencyDays":"365.0","coords":"-83.14154,42.43398","geojson":{"id":"51622453","type":"Feature","geometry":{"type":"Point","coordinates":[-83.1415373039999,42.4339775180001]},"properties":{"name":"Narrow Way Cafe LLC","owner":"Sabrina Swain","address":"19331 Livernois Ave","zipcode":"48221","license_type":"Fixed Establishment","risk_category":"Medium","license_number":"218115","establishmentid":"51622453","establishment_type":"Food Service Establishment","establishment_status":"Open","review_frequency_days":"365.0","most_recent_license_date":"5/7/2018"}},"nearbyList":[{"establishmentid":"4617","name":"Kuzzo's Chicken & Waffles LLC","address":"19345 Livernois Ave","zipcode":"48221"},{"establishmentid":"5208","name":"The Avenue \"An International Kitchen\"","address":"19163 Livernois Ave","zipcode":"48221"},{"establishmentid":"51622833","name":"Legends Pizza on the Ave","address":"19163 Livernois Ave","zipcode":"48221"},{"establishmentid":"5301","name":"Mr. Fofo's Deli","address":"19166 Livernois","zipcode":"48221"},{"establishmentid":"3928","name":"1917 American Bistro","address":"19416 Livernois","zipcode":"48221"},{"establishmentid":"51622487","name":"Bucharest Grill","address":"19492 Livernois","zipcode":"48221"},{"establishmentid":"1469","name":"Noni's Sherwood Grille","address":"19700 Livernois Ave","zipcode":"48221"},{"establishmentid":"5428","name":"BabyBack's Open Pit","address":"7108 W Seven Mile Rd","zipcode":"48221"},{"establishmentid":"1243","name":"Pasteur Elementary School","address":"19811 Stoepel St","zipcode":"48221"},{"establishmentid":"51622673","name":"Biggby Coffee","address":"18685 Livernois","zipcode":"48221"},{"establishmentid":"4245","name":"New Prospect Missionary Baptist Church","address":"6330 Pembroke St","zipcode":"48221"},{"establishmentid":"5078","name":"Papa's Pizza - JNL Pizzaria, Inc.","address":"7410 W Seven Mile Rd","zipcode":"48221"},{"establishmentid":"1656","name":"Boston Market #976","address":"18610 Livernois Ave","zipcode":"48221"},{"establishmentid":"2467","name":"China Wok","address":"18670 Livernois Ave ","zipcode":"48221"},{"establishmentid":"1174","name":"Palmer Park Preparatory Academy","address":"3901 Margareta","zipcode":"48221"},{"establishmentid":"2110","name":"Hangover's Lounge","address":"20143 Livernois Ave","zipcode":"48221"},{"establishmentid":"1168","name":"Locker Room Lounge","address":"18290 Livernois Ave","zipcode":"48221"},{"establishmentid":"5251","name":"Livernois Fresh Fish","address":"18280 Livernois Ave","zipcode":"48221"},{"establishmentid":"4452","name":"Happy's Pizza #100","address":"7731 E Seven Mile Rd","zipcode":"48234"},{"establishmentid":"5190","name":"D and D Cuisine LLC","address":"17521 Livernois Ave","zipcode":"48221"}],"inspectionsByEstablishmentidList":[{"inspectionid":"43970","inspectionDate":"2018-10-29T00:00:00","inspectionType":"Routine Inspection","inCompliance":"Yes","violationsByInspectionidList":[{"violationCode":"4-302.14","violationDescription":"A test kit or other device that accurately measures the concentration in mg/L of SANITIZING solutions shall be provided. (Pf)\r\n","violationType":"Foundation","itemDescription":"Sanitizer test kit","subItem":"quaternary ammonia","problemDescription":"Not provided","subProblem":"","location":"SANITIZER","subLocation":"","corrected":"Yes","daysToCorrect":"10.0","correctedDate":"2018-10-30T00:00:00","correctionDescription":"Provide."}]},{"inspectionid":"40098","inspectionDate":"2017-09-26T00:00:00","inspectionType":"Routine Inspection","inCompliance":"No","violationsByInspectionidList":[{"violationCode":"4-302.14","violationDescription":"A test kit or other device that accurately measures the concentration in mg/L of SANITIZING solutions shall be provided. (Pf)\r\n","violationType":"Foundation","itemDescription":"Sanitizer test kit","subItem":"quaternary ammonia","problemDescription":"Not provided","subProblem":"","location":"SANITIZER","subLocation":"","corrected":"No","daysToCorrect":"10.0","correctedDate":null,"correctionDescription":"Provide."},{"violationCode":"3-501.17","violationDescription":"(A)  READY-TO-EAT, POTENTIALLY HAZARDOUS FOOD (TIME/TEMPERATURE CONTROL FOR SAFETY FOOD)  prepared and held refrigerated for more than 24 hours in a FOOD ESTABLISHMENT  shall be clearly marked at the time of preparation to indicate the date or day by which the FOOD shall be consumed. (Pf)\r\n(B)  A container of refrigerated, commercially prepared READY-TO-EAT POTENTIALLY HAZARDOUS FOOD (TIME/TEMPERATURE CONTROL FOR SAFETY FOOD)  shall be clearly marked, at the time the original container is opened in a FOOD ESTABLISHMENT, to indicate the date or day by which the FOOD shall be consumed. (Pf)\r\n\r\nA date marking system that does not exceed 7 days, including date of preparation, or opening is to be used. (Pf)\r\n","violationType":"Foundation","itemDescription":"Commercially processed ready to eat potentially hazardous food(s)","subItem":"","problemDescription":"Without date of consumption marking","subProblem":"","location":"Refrigerator","subLocation":"","corrected":"No","daysToCorrect":"10.0","correctedDate":null,"correctionDescription":"Establishment shall provide a clear date marking system."},{"violationCode":"6-301.12","violationDescription":"Each HANDWASHING SINK or group of adjacent HANDWASHING SINKS shall be provided with:\r\n(A) Individual, disposable towels; (Pf)\r\n(B) A continuous towel system that supplies the user with a clean towel;(Pf) or \r\n(C) A heated-air hand drying device.(Pf)\r\n(D) A hand drying device that employs an air-knife system that delivers high velocity pressurized air at ambient temperatures.(Pf)\r\n","violationType":"Foundation","itemDescription":"Sanitary hand drying provisions","subItem":"","problemDescription":"Not provided","subProblem":"","location":"HANDSINK(S)","subLocation":"","corrected":"No","daysToCorrect":"10.0","correctedDate":null,"correctionDescription":"Provide."}]},{"inspectionid":"39313","inspectionDate":"2017-07-14T00:00:00","inspectionType":"Preopening/New","inCompliance":"Yes","violationsByInspectionidList":[{"violationCode":"4-202.16","violationDescription":"NonFOOD-CONTACT SURFACES shall be free of unnecessary ledges, projections, and crevices, and designed and constructed to allow easy cleaning and to facilitate maintenance.\r\n","violationType":"Core","itemDescription":"Nonfood contact surface(s)","subItem":"","problemDescription":"Bare wood","subProblem":"","location":"NON-FOOD CONTACT SURFACES","subLocation":"","corrected":"Not required","daysToCorrect":"30.0","correctedDate":null,"correctionDescription":"Replace/seal to be smooth, durable, non-absorbent, and easily cleanable."},{"violationCode":"6-201.13","violationDescription":"(A) In FOOD ESTABLISHMENTS in which cleaning methods other than water flushing are used for cleaning floors, the floor and wall junctures shall be coved and closed to no larger than one thirty-second inch.\r\n(B) The floors in FOOD ESTABLISHMENTS in which water flush cleaning methods are used shall be provided with drains and be graded to drain, and the floor and wall junctures shall be coved and SEALED.","violationType":"Core","itemDescription":"Floor(s)","subItem":"","problemDescription":"Not coved","subProblem":"","location":"FLOOR","subLocation":"","corrected":"Not required","daysToCorrect":"30.0","correctedDate":null,"correctionDescription":"Provide / install coved molding."}]}]}]}},"pageContext":{"eid":"51622453"}}