{"componentChunkName":"component---src-templates-establishment-page-js","path":"/establishment/51623161","result":{"data":{"site":{"pathPrefix":"/restaurant-inspections"},"postgres":{"establishment":[{"establishmentid":"51623161","name":"DPSCD Food Truck #2","address":"1601 Farnsworth","zipcode":"48211","owner":"Detroit Public Schools","licenseNumber":"249620","licenseType":"Mobile Food Establishment","establishmentType":"LHD - Mobile Food Establishmen","establishmentStatus":"Open","riskCategory":null,"reviewFrequencyDays":null,"coords":"-83.04829,42.36525","geojson":{"id":"51623161","type":"Feature","geometry":{"type":"Point","coordinates":[-83.048291338,42.365245215]},"properties":{"name":"DPSCD Food Truck #2","owner":"Detroit Public Schools","address":"1601 Farnsworth","zipcode":"48211","license_type":"Mobile Food Establishment","risk_category":null,"license_number":"249620","establishmentid":"51623161","establishment_type":"LHD - Mobile Food Establishmen","establishment_status":"Open","review_frequency_days":null,"most_recent_license_date":null}},"nearbyList":[{"establishmentid":"51622943","name":"Office of School Nutrition","address":"1601 Farnsworth","zipcode":"48211"},{"establishmentid":"51623160","name":"DPSCD Food Truck #1","address":"1601 Farnsworth","zipcode":"48211"},{"establishmentid":"978","name":"Frank Beard Elementary","address":"1425  Warren E.","zipcode":"48209"},{"establishmentid":"952","name":"Douglass Academy For Young Men","address":"2001 Warren Ave. W.","zipcode":"48208"},{"establishmentid":"4193","name":"Sodexo Mgmt. Inc.","address":"1600 Warren Ave. E.","zipcode":"48207"},{"establishmentid":"4516","name":"Sodexo Mgmt. Inc.","address":"1600 E. Warren","zipcode":"48207"},{"establishmentid":"3275","name":"Federal Reserve Bank Detroit Branch","address":"1600 Warren Ave. E.","zipcode":"48207"},{"establishmentid":"51623892","name":"Birmingham Deli","address":"5301 Russell St.","zipcode":"48207"},{"establishmentid":"1986","name":"Four Star Vending","address":"5700 Russell","zipcode":"48211"},{"establishmentid":"1963","name":"Plymouth Educational Center","address":"1460 Forest Ave. E.","zipcode":"48207"}],"inspectionsByEstablishmentidList":[{"inspectionid":"50689","inspectionDate":"2020-02-06T00:00:00","inspectionType":"Preopening/New","inCompliance":"No","violationsByInspectionidList":[{"violationCode":"5-103.12","violationDescription":"Water under pressure shall be provided to all fixtures, EQUIPMENT, and nonFOOD EQUIPMENT that are required to use water unless otherwise approved. (Pf)\n","violationType":"Foundation","itemDescription":"Water under pressure","subItem":"","problemDescription":"Insufficient to meet demands","subProblem":"","location":"FOOD TRUCK","subLocation":"","corrected":"True","daysToCorrect":"10","correctedDate":"0001-01-01T00:00:00","correctionDescription":null},{"violationCode":"4-204.112","violationDescription":"(A)  In a mechanically refrigerated or hot FOOD storage unit, the sensor of a TEMPERATURE MEASURING DEVICE shall be located to measure the air temperature in the warmest part of a mechanically refrigerated unit and in the coolest part of a hot FOOD storage unit.\n(B)  Cold or hot holding EQUIPMENT used for POTENTIALLY HAZARDOUS FOOD shall be designed to include and shall be equipped with at least one integral or permanently affixed TEMPERATURE MEASURING DEVICE that is located to allow easy viewing of the device's temperature display (EXCEPT, heat lamps, cold plates, steam tables, or other equipment where it is not practical).\n(C)  TEMPERATURE MEASURING DEVICES shall be designed to be easily readable.\n(D)  FOOD TEMPERATURE MEASURING DEVICES and water TEMPERATURE MEASURING DEVICES on WAREWASHING machines shall have a numerical scale, printed record, or digital readout in increments no greater than 1C or 2F in the intended range of use. (Pf)\n\n","violationType":"Core","itemDescription":"Thermometer(s)","subItem":"hot holding cabinet","problemDescription":"Not provided","subProblem":"","location":"FOOD TRUCK","subLocation":"","corrected":"True","daysToCorrect":"10","correctedDate":"0001-01-01T00:00:00","correctionDescription":null},{"violationCode":"6-201.11","violationDescription":"Except otherwise approved, and except for antislip floor coverings or applications may be used for safety reasons, floors, floor coverings, walls, wall coverings, and ceilings shall be designed, constructed, and installed so they are SMOOTH and EASILY CLEANABLE.\n","violationType":"Core","itemDescription":"wall(s)","subItem":"wall covering(s)","problemDescription":"Not constructed, designed, installed to be","subProblem":"Easily cleanable","location":"FOOD TRUCK","subLocation":"","corrected":"True","daysToCorrect":"30","correctedDate":"0001-01-01T00:00:00","correctionDescription":null}]}]}],"maxInspectionDate":[{"inspectionDate":"2023-04-13T00:00:00"}]}},"pageContext":{"eid":"51623161"}},"staticQueryHashes":["3649515864","63159454"]}