{"componentChunkName":"component---src-templates-establishment-page-js","path":"/establishment/51623677","result":{"data":{"site":{"pathPrefix":"/restaurant-inspections"},"postgres":{"establishment":[{"establishmentid":"51623677","name":"Village Hand Pies LLC","address":"2547 Bagley","zipcode":"48216","owner":"Graham & Amy Mitchell","licenseNumber":"PS032322","licenseType":"Fixed Establishment","establishmentType":"Food Service Establishment","establishmentStatus":"Open","riskCategory":null,"reviewFrequencyDays":null,"coords":"-83.07744,42.32547","geojson":{"id":"51623677","type":"Feature","geometry":{"type":"Point","coordinates":[-83.07743835,42.32547378]},"properties":{"name":"Village Hand Pies LLC","owner":"Graham & Amy Mitchell","address":"2547 Bagley","zipcode":"48216","license_type":"Fixed Establishment","risk_category":null,"license_number":"PS032322","establishmentid":"51623677","establishment_type":"Food Service Establishment","establishment_status":"Open","review_frequency_days":null,"most_recent_license_date":"3/23/2022"}},"nearbyList":[{"establishmentid":"51623643","name":"Shell Shock'd Taco","address":"2547 Bagley","zipcode":"48216"},{"establishmentid":"51623136","name":"Dr. Sushi","address":"2547 Bagley Ave.","zipcode":"48216"},{"establishmentid":"51623455","name":"The Goblin","address":"2547  Bagley","zipcode":"48216"},{"establishmentid":"51622959","name":"Peso Bar","address":"2547 Bagley","zipcode":"48216"},{"establishmentid":"5013","name":"Fist of Curry","address":"2547 Bagley","zipcode":"48216"},{"establishmentid":"525","name":"Mexican Village Of Detroit","address":"2600 Bagley  ","zipcode":"48216"},{"establishmentid":"1532","name":"Clemente Center","address":"2631 Bagley","zipcode":"48207"},{"establishmentid":"1056","name":"Tameleria Nuevo Leon","address":"2669 Vernor St.W.","zipcode":"48216"},{"establishmentid":"2061","name":"Casa Richard Charter School","address":"2635 Howard","zipcode":"48216"},{"establishmentid":"51623097","name":"Escuela Avencemos","address":"2635 Howard St.","zipcode":"48216"}],"inspectionsByEstablishmentidList":[{"inspectionid":"59343","inspectionDate":"2022-05-12T00:00:00","inspectionType":"Preopening/New","inCompliance":"No","violationsByInspectionidList":[{"violationCode":"4-302.12","violationDescription":"(A) FOOD TEMPERATURE MEASURING DEVICES shall be provided and readily accessible for use in ensuring attainment and maintenance of FOOD temperatures as specified under Chapter 3. (Pf)   \n(B) A TEMPERATURE MEASURING DEVICE with a suitable small-diameter probe that is designed to measure the temperature of thin masses shall be provided and readily accessible to accurately measure the temperature in thin FOODS such as MEAT patties and FISH filets. (Pf)\n","violationType":"Foundation","itemDescription":"Food thermometer(s)","subItem":"probe","problemDescription":"Not available","subProblem":null,"location":"STORAGE AREA(S)","subLocation":"At the Light fixture","corrected":"False","daysToCorrect":"10","correctedDate":null,"correctionDescription":null},{"violationCode":"6-303.11","violationDescription":"Light of the proper intensity shall be provided as specified.\n","violationType":"Core","itemDescription":"Lighting intensity","subItem":null,"problemDescription":"Not maintained","subProblem":null,"location":"STORAGE AREA(S)","subLocation":"At the Light fixture","corrected":"False","daysToCorrect":"30","correctedDate":null,"correctionDescription":null}]}]}],"maxInspectionDate":[{"inspectionDate":"2022-07-25T00:00:00"}]}},"pageContext":{"eid":"51623677"}},"staticQueryHashes":["3649515864","63159454"]}