{"data":{"site":{"pathPrefix":"/restaurant-inspections"},"postgres":{"establishment":[{"establishmentid":"5151","name":"Pop'n Smoke BBQ","address":"13849 W Eight Mile Rd","zipcode":"48235","owner":"Barbara Garrett","licenseNumber":"220931","licenseType":"Fixed Establishment","establishmentType":"Food Service Establishment","establishmentStatus":"Open","riskCategory":null,"reviewFrequencyDays":"180","coords":"-83.18446,42.44491","geojson":{"id":"5151","type":"Feature","geometry":{"type":"Point","coordinates":[-83.184456116,42.444913456]},"properties":{"name":"Pop'n Smoke BBQ","owner":"Barbara Garrett","address":"13849 W Eight Mile Rd","zipcode":"48235","license_type":"Fixed Establishment","risk_category":null,"license_number":"220931","establishmentid":"5151","establishment_type":"Food Service Establishment","establishment_status":"Open","review_frequency_days":"180","most_recent_license_date":"4/29/2019"}},"nearbyList":[{"establishmentid":"5157","name":"44 Burrito","address":"14015 W Eight Mile Rd","zipcode":"48235"},{"establishmentid":"2074","name":"Church's Fried Chicken #976","address":"13611 W Eight Mile Rd","zipcode":"48235"},{"establishmentid":"51622621","name":"Da Catch LLC","address":"20449 Schaefer Hwy","zipcode":"48235"},{"establishmentid":"5373","name":"Schaefer Fish Market LLC","address":"20449 Schaefer Hwy","zipcode":"48235"},{"establishmentid":"51622944","name":"Crown Burgers","address":"20449 Schaefer Hwy","zipcode":"48212"},{"establishmentid":"1462","name":"Tubby's","address":"601 Schaefer Hwy S","zipcode":"48217"},{"establishmentid":"3380","name":"Subway","address":"335 Schaefer Hwy S","zipcode":"48217"},{"establishmentid":"4343","name":"Subway","address":"13541 W Eight Mile Rd","zipcode":"48235"},{"establishmentid":"1991","name":"Mama's, Inc.","address":"14620 E Eight Mile Rd","zipcode":"48205"},{"establishmentid":"5286","name":"Rinor LLC / Mama's","address":"14620 E Eight Mile Rd","zipcode":"48205"}],"inspectionsByEstablishmentidList":[{"inspectionid":"43380","inspectionDate":"2018-09-11T00:00:00","inspectionType":"Routine Inspection","inCompliance":"Yes","violationsByInspectionidList":[{"violationCode":"MFL289.4119","violationDescription":"Sec. 4119. (1) Except as otherwise provided in subsection (2), a person licensed as a food establishment under this chapter shall keep a copy of the current license or temporary license furnished by the department posted and exposed in a conspicuous place for public inspection. A conspicuous place is the principal place where food business is transacted.  (2) In the case of vending machines, the name and address and telephone number of the current vending machine location operator shall be conspicuously displayed on each vending machine.","violationType":"Core","itemDescription":"Food Service License","subItem":"","problemDescription":"Not displayed","subProblem":"","location":"ESTABLISHMENT","subLocation":"","corrected":"Not required","daysToCorrect":"30","correctedDate":null,"correctionDescription":null}]},{"inspectionid":"40521","inspectionDate":"2017-10-18T00:00:00","inspectionType":"Routine Inspection","inCompliance":"Yes","violationsByInspectionidList":[{"violationCode":"4-602.13","violationDescription":"NonFOOD-CONTACT SURFACES of EQUIPMENT shall be cleaned at a frequency necessary to preclude accumulation of soil residues.\r\n","violationType":"Core","itemDescription":"Nonfood contact surface(s)","subItem":"","problemDescription":"With accumulation of debris","subProblem":"","location":"EQUIPMENT","subLocation":"","corrected":"Not required","daysToCorrect":"30","correctedDate":null,"correctionDescription":"Keep clean."}]}]}],"maxInspectionDate":[{"inspectionDate":"2020-05-29T00:00:00"}]}},"pageContext":{"eid":"5151"}}