{"data":{"site":{"pathPrefix":"/restaurant-inspections"},"postgres":{"establishment":[{"establishmentid":"1276","name":"New Day Center","address":"511 Post St S","zipcode":"48209","owner":"Detroit Area Agency on Aging","licenseNumber":"035386","licenseType":"Fixed Establishment","establishmentType":"Food Service Establishment","establishmentStatus":"Temporarily Closed","riskCategory":null,"reviewFrequencyDays":"180.0","coords":"-83.10776,42.29864","geojson":{"id":"1276","type":"Feature","geometry":{"type":"Point","coordinates":[-83.107755358,42.2986351060001]},"properties":{"name":"New Day Center","owner":"Detroit Area Agency on Aging","address":"511 Post St S","zipcode":"48209","license_type":"Fixed Establishment","risk_category":null,"license_number":"035386","establishmentid":"1276","establishment_type":"Food Service Establishment","establishment_status":"Temporarily Closed","review_frequency_days":"180.0","most_recent_license_date":"11/7/2016"}},"nearbyList":[{"establishmentid":"675","name":"Motz  Restaurant Inc","address":"7208 Fort St W","zipcode":"48209"},{"establishmentid":"1901","name":"Black Horse Cantina","address":"7844 W Jefferson Ave","zipcode":"48209"},{"establishmentid":"3140","name":"West Fort Street Bar & Grill","address":"7642 Fort St W","zipcode":"48209"},{"establishmentid":"2473","name":"Universal Coney Island","address":"6260 W Fort St","zipcode":"48209"},{"establishmentid":"3800","name":"All Saints Soup Kitchen","address":"7824 W Fort Street ","zipcode":"48209"},{"establishmentid":"735","name":"Happy Bar","address":"1247 Green St N","zipcode":"48209"},{"establishmentid":"1561","name":"Club International","address":"6060 Fort St W","zipcode":"48209"},{"establishmentid":"3926","name":"Taqueria Camino Real","address":"1100 Central","zipcode":"48209"},{"establishmentid":"732","name":"Sidekicks Saloon","address":"7023 Chatsfield St","zipcode":"48209"},{"establishmentid":"469","name":"Puerto Rican Club","address":"8050 Fort St W","zipcode":"48209"}],"inspectionsByEstablishmentidList":[{"inspectionid":"37389","inspectionDate":"2016-12-09T00:00:00","inspectionType":"Routine Inspection","inCompliance":"Yes","violationsByInspectionidList":[{"violationCode":"7-204.11","violationDescription":"Chemical SANITIZERS and other chemical antimicrobials applied to FOOD-CONTACT SURFACES shall meet the requirements specified in this code. (P)\r\n","violationType":"Priority","itemDescription":"Sanitizer(s)","subItem":"","problemDescription":"Do not comply with law","subProblem":"","location":"KITCHEN","subLocation":"At the Bleach","corrected":"Yes","daysToCorrect":"10.0","correctedDate":"2016-12-21T00:00:00","correctionDescription":"Provide labels that comply with law."},{"violationCode":"6-301.12","violationDescription":"Each HANDWASHING SINK or group of adjacent HANDWASHING SINKS shall be provided with:\r\n(A) Individual, disposable towels; (Pf)\r\n(B) A continuous towel system that supplies the user with a clean towel;(Pf) or \r\n(C) A heated-air hand drying device.(Pf)\r\n(D) A hand drying device that employs an air-knife system that delivers high velocity pressurized air at ambient temperatures.(Pf)\r\n","violationType":"Foundation","itemDescription":"Sanitary hand drying provisions","subItem":"disposable, paper towels","problemDescription":"Not provided","subProblem":"At hand sink","location":"KITCHEN","subLocation":"At the Handsink","corrected":"Yes","daysToCorrect":"10.0","correctedDate":"2016-12-21T00:00:00","correctionDescription":"Provide"},{"violationCode":"4-302.14","violationDescription":"A test kit or other device that accurately measures the concentration in mg/L of SANITIZING solutions shall be provided. (Pf)\r\n","violationType":"Foundation","itemDescription":"Sanitizer test kit","subItem":"","problemDescription":"Not provided","subProblem":"","location":"KITCHEN","subLocation":"No Test strips","corrected":"Yes","daysToCorrect":"10.0","correctedDate":"2016-12-21T00:00:00","correctionDescription":"Provide as required"}]}]}],"maxInspectionDate":[{"inspectionDate":"2019-05-31T00:00:00"}]}},"pageContext":{"eid":"1276"}}