{"data":{"postgres":{"establishment":[{"establishmentid":"3324","name":"Timbuktu Academy","address":"10800 E Canfield Rd","zipcode":"48214","owner":"TIMBUKTU ACADEMY","licenseNumber":"053559","licenseType":"Fixed Establishment","establishmentType":"Non-Public School","establishmentStatus":"Open","riskCategory":null,"reviewFrequencyDays":"365.0","coords":"-82.98583,42.38066","geojson":{"id":"3324","type":"Feature","geometry":{"type":"Point","coordinates":[-82.9858323079999,42.3806607860001]},"properties":{"name":"Timbuktu Academy","owner":"TIMBUKTU ACADEMY","address":"10800 E Canfield Rd","zipcode":"48214","license_type":"Fixed Establishment","risk_category":null,"license_number":"053559","establishmentid":"3324","establishment_type":"Non-Public School","establishment_status":"Open","review_frequency_days":"365.0","most_recent_license_date":"4/30/2018"}},"nearbyList":[{"establishmentid":"1392","name":"Williams and Sons Ice Cream","address":"10700 Mack Ave","zipcode":"48214"},{"establishmentid":"1737","name":"Genesis House III (EAST)","address":"3840 Fairview St","zipcode":"48214"},{"establishmentid":"5429","name":"Palace Pizza","address":"11207 Mack","zipcode":"48214"},{"establishmentid":"1037","name":"Detroit Lions Academy","address":"10101 E Canfield","zipcode":"48214"},{"establishmentid":"3821","name":"Shabazz East Restaurant","address":"4712-16 Cadillac Blvd","zipcode":"48214"},{"establishmentid":"873","name":"Southeastern High School","address":"3030 Fairview","zipcode":"48214"},{"establishmentid":"4977","name":"Jungle Juice","address":"4000 St Jean St","zipcode":"48214"},{"establishmentid":"4156","name":"Samaritan Cafe","address":"5555 Conner","zipcode":"48213"},{"establishmentid":"2390","name":"Edibles Rex","address":"5555 Conner, Ste 1058","zipcode":"48213"},{"establishmentid":"3412","name":"Number 1 Chinese Restaurant","address":"11918 E Warren Ave","zipcode":"48214"},{"establishmentid":"517","name":"Subway","address":"11939 E Warren Ave","zipcode":"48214"},{"establishmentid":"1196","name":"Church's Fried Chicken #975","address":"11965 E Warren Ave","zipcode":"48214"},{"establishmentid":"834","name":"Hutchinson Learning Academy","address":"2600 Garland","zipcode":"48214"},{"establishmentid":"4999","name":"Big A's Concessions","address":"5119 Cadillac","zipcode":"48213"},{"establishmentid":"1796","name":"Popeye's Chicken & Biscuits","address":"12218 E Warren Ave","zipcode":"48215"},{"establishmentid":"3662","name":"Captain J Fish & Chicken #105","address":"12248 E Warren Ave","zipcode":"48215"},{"establishmentid":"5227","name":"Al Namer Fish & Seafood #2 LLC","address":"12332 E Warren","zipcode":"48215"},{"establishmentid":"2766","name":"Wendy's ","address":"4749 Conner St","zipcode":"48215"},{"establishmentid":"3658","name":"Spiritual Israel Church","address":"9375 Amity St","zipcode":"48214"},{"establishmentid":"5240","name":"Red Sea Food Inc.","address":"12500 E Warren","zipcode":"48215"}],"inspectionsByEstablishmentidList":[{"inspectionid":"42601","inspectionDate":"2018-06-19T00:00:00","inspectionType":"Routine Inspection","inCompliance":"Yes","violationsByInspectionidList":[{"violationCode":"7-201.11","violationDescription":"POISONOUS OR TOXIC MATERIAL shall be stored so they can not contaminate FOOD, EQUIPMENT, UTENSILS, LINENS, AND SINGLE-SERVICE AND SINGLE-USE ARTICLES by:   \r\n(A) Separating the POISONOUS OR TOXIC MATERIAL by spacing or partitioning; (P) and   \r\n(B) Locating the POISONOUS OR TOXIC MATERIAL in an area that is not above FOOD, EQUIPMENT, UTENSILS, LINENS, AND SINGLE-SERVICE AND SINGLE-USE ARTICLES.  This paragraph does not apply to EQUIPMENT and UTENSIL cleaners and sanitizers that are stored in WAREWASHING areas for availability and convenience if the materials are stored to prevent contamination of FOOD, EQUIPMENT, UTENSILS, LINENS, AND SINGLE-SERVICE and SINGLE-USE ARTICLES. (P)","violationType":"Priority","itemDescription":"Poisonous/toxic material(s)","subItem":"","problemDescription":"Not separated from","subProblem":"Food","location":"KITCHEN","subLocation":"On top of the Walk-in freezer","corrected":"Yes","daysToCorrect":"10.0","correctedDate":"2018-06-19T00:00:00","correctionDescription":"Store toxics below and away from all other items."}]},{"inspectionid":"40339","inspectionDate":"2017-10-11T00:00:00","inspectionType":"Routine Inspection","inCompliance":"Yes","violationsByInspectionidList":[{"violationCode":"6-501.112","violationDescription":"Dead or trapped birds, insects, rodents, and other pests shall be removed from control devices and the PREMISES at a frequency that prevents their accumulation,  decomposition, or the attraction of pests.\r\n","violationType":"Core","itemDescription":"Dead/trapped pest(s)","subItem":"rodents mice","problemDescription":"Not removed from facility","subProblem":"","location":"KITCHEN","subLocation":"Behind the Freezer (upright)","corrected":"Not required","daysToCorrect":"30.0","correctedDate":null,"correctionDescription":"Remove from facility/premises."},{"violationCode":"MFL289.2129","violationDescription":"Sec. 2129. (1) All of the following food establishments shall employ a minimum of 1 managerial employee who is currently certified under a personnel certification program accredited by the American national standards institute, utilizing the conference for food protection standards:  (a) A food service establishment that is not any of the following:    (i) Operating under a temporary food service establishment license.  (ii) A vending machine location.     (b) An extended retail food establishment.  (c) Operated within a retail grocery.  (2) An individual certified under subsection (1) shall be recognized with full faith and credit by the state and all local units of government throughout the state.  (3) The department may promulgate rules to do all of the following:  (a) Develop requirements for retail food establishments to follow when employing certified food safety managers or personnel.  (b) Set a reasonable date for compliance with the requirements under subdivision (a) taking into consideration existing local personnel certification requirements.  (c) Establish certification fees necessary to implement, maintain, and track certified individuals directly or by contract. The department may annually adjust the schedule of fees to provide that the fee charged is sufficient to cover the cost of the certification tracking program.  (d) Implement and enforce the requirements described in subdivision (a).    (4) The certification program developed by the American national standards institute, as it exists on April 1, 2008 , is incorporated by reference. The department may adopt updates to the certification program accreditation standards in subsection (1) by rule.     (5) This section does not prohibit any local legislative body from implementing a food handler program, an employee health certification program, or a manager certification program, if it is not in conflict with this section.","violationType":"Core","itemDescription":"Person-in-charge","subItem":"","problemDescription":"Missing","subProblem":"","location":"SCHOOL","subLocation":"At the PERSON IN CHARGE","corrected":"Not required","daysToCorrect":"30.0","correctedDate":null,"correctionDescription":"Provide."}]},{"inspectionid":"39070","inspectionDate":"2017-06-20T00:00:00","inspectionType":"Routine Inspection","inCompliance":"Yes","violationsByInspectionidList":[{"violationCode":"6-501.11","violationDescription":"PHYSICAL FACILITIES shall be maintained in good repair.\r\n","violationType":"Core","itemDescription":"Physical facilities","subItem":"ceiling(s)","problemDescription":"In poor repair","subProblem":"Broken","location":"KITCHEN","subLocation":"At the Ceiling (s)","corrected":"Not required","daysToCorrect":"30.0","correctedDate":null,"correctionDescription":"Repair/replace."}]},{"inspectionid":"37432","inspectionDate":"2016-12-20T00:00:00","inspectionType":"Routine Inspection","inCompliance":"Yes","violationsByInspectionidList":[]}]}]}},"pageContext":{"eid":"3324"}}