{"data":{"site":{"pathPrefix":"/restaurant-inspections"},"postgres":{"establishment":[{"establishmentid":"834","name":"Hutchinson Learning Academy","address":"2600 Garland St","zipcode":"48214","owner":"Board of Education,City of Det","licenseNumber":"034865","licenseType":"Fixed Establishment","establishmentType":"Public School","establishmentStatus":"Open","riskCategory":null,"reviewFrequencyDays":"210.0","coords":"-82.98315,42.36883","geojson":{"id":"834","type":"Feature","geometry":{"type":"Point","coordinates":[-82.983154503,42.3688302350001]},"properties":{"name":"Hutchinson Learning Academy","owner":"Board of Education,City of Det","address":"2600 Garland St","zipcode":"48214","license_type":"Fixed Establishment","risk_category":null,"license_number":"034865","establishmentid":"834","establishment_type":"Public School","establishment_status":"Open","review_frequency_days":"210.0","most_recent_license_date":"4/15/2019"}},"nearbyList":[{"establishmentid":"3658","name":"Spiritual Israel Church","address":"9375 Amity St","zipcode":"48214"},{"establishmentid":"4952","name":"Rose's Fine Food","address":"10551 E Jefferson Ave","zipcode":"48214"},{"establishmentid":"1392","name":"Williams and Sons Ice Cream","address":"10700 Mack Ave","zipcode":"48214"},{"establishmentid":"873","name":"Southeastern High School","address":"3030 Fairview","zipcode":"48214"},{"establishmentid":"4670","name":"The River Krispy Crunchy Chicken","address":"10736 Jefferson E Ave","zipcode":"48214"},{"establishmentid":"1616","name":"River Breeze Dairy","address":"10800 E Jefferson Ave","zipcode":"48214"},{"establishmentid":"1737","name":"Genesis House III (EAST)","address":"3840 Fairview St","zipcode":"48214"},{"establishmentid":"3317","name":"Detroit Enterprise Academy","address":"11224 Kercheval","zipcode":"48214"},{"establishmentid":"5429","name":"Palace Pizza","address":"11207 Mack","zipcode":"48214"},{"establishmentid":"3331","name":"Legends Grill","address":"11123 E Jefferson Ave","zipcode":"48214"}],"inspectionsByEstablishmentidList":[{"inspectionid":"44521","inspectionDate":"2018-12-18T00:00:00","inspectionType":"Routine Inspection","inCompliance":"Yes","violationsByInspectionidList":[{"violationCode":"6-303.11","violationDescription":"Light of the proper intensity shall be provided as specified.\r\n","violationType":"Core","itemDescription":"Lighting intensity","subItem":"at 30 inches above the floor","problemDescription":"Not maintained","subProblem":"","location":"KITCHEN","subLocation":"Under the Ventilation hood","corrected":"Not required","daysToCorrect":"30.0","correctedDate":null,"correctionDescription":"Maintain in good repair"},{"violationCode":"4-501.11","violationDescription":"EQUIPMENT shall be maintained in a state of repair and condition that meets the requirements of the code.\r\n","violationType":"Core","itemDescription":"Equipment components","subItem":"doors","problemDescription":"In poor repair","subProblem":"","location":"WALK-IN COOLER","subLocation":"At the Door","corrected":"Not required","daysToCorrect":"30.0","correctedDate":null,"correctionDescription":null}]},{"inspectionid":"42379","inspectionDate":"2018-05-30T00:00:00","inspectionType":"Routine Inspection","inCompliance":"Yes","violationsByInspectionidList":[]},{"inspectionid":"40481","inspectionDate":"2017-10-19T00:00:00","inspectionType":"Routine Inspection","inCompliance":"Yes","violationsByInspectionidList":[{"violationCode":"4-501.11","violationDescription":"EQUIPMENT shall be maintained in a state of repair and condition that meets the requirements of the code.\r\n","violationType":"Core","itemDescription":"Equipment components","subItem":"seals","problemDescription":"Broken","subProblem":"","location":"KITCHEN","subLocation":"At the Cooler (milk)","corrected":"Not required","daysToCorrect":"30.0","correctedDate":null,"correctionDescription":"Repair/replace."}]},{"inspectionid":"38722","inspectionDate":"2017-05-18T00:00:00","inspectionType":"Routine Inspection","inCompliance":"Yes","violationsByInspectionidList":[]},{"inspectionid":"37430","inspectionDate":"2016-12-20T00:00:00","inspectionType":"Routine Inspection","inCompliance":"Yes","violationsByInspectionidList":[]},{"inspectionid":"36774","inspectionDate":"2016-10-11T00:00:00","inspectionType":"Routine Inspection","inCompliance":"Yes","violationsByInspectionidList":[{"violationCode":"4-501.11","violationDescription":"EQUIPMENT shall be maintained in a state of repair and condition that meets the requirements of the code.\r\n","violationType":"Core","itemDescription":"Equipment components","subItem":"doors","problemDescription":"In poor repair","subProblem":"","location":"WALK-IN COOLER","subLocation":"At the Door","corrected":"Not required","daysToCorrect":"30.0","correctedDate":null,"correctionDescription":null},{"violationCode":"6-303.11","violationDescription":"Light of the proper intensity shall be provided as specified.\r\n","violationType":"Core","itemDescription":"Lighting intensity","subItem":"at work levels","problemDescription":"Not maintained","subProblem":"","location":"KITCHEN","subLocation":"Under the Ventilation hood","corrected":"Not required","daysToCorrect":"30.0","correctedDate":null,"correctionDescription":"Maintain in good repair"}]}]}],"maxInspectionDate":[{"inspectionDate":"2019-03-31T00:00:00"}]}},"pageContext":{"eid":"834"}}