{"data":{"site":{"pathPrefix":"/restaurant-inspections"},"postgres":{"establishment":[{"establishmentid":"4125","name":"University Yes Academy","address":"14669 Curtis","zipcode":"48235","owner":"New Urban  Leaarning","licenseNumber":"068100","licenseType":"Fixed Establishment","establishmentType":"Public School","establishmentStatus":"Open","riskCategory":null,"reviewFrequencyDays":"210.0","coords":"-83.19166,42.42259","geojson":{"id":"4125","type":"Feature","geometry":{"type":"Point","coordinates":[-83.191656999,42.4225890810001]},"properties":{"name":"University Yes Academy","owner":"New Urban  Leaarning","address":"14669 Curtis","zipcode":"48235","license_type":"Fixed Establishment","risk_category":null,"license_number":"068100","establishmentid":"4125","establishment_type":"Public School","establishment_status":"Open","review_frequency_days":"210.0","most_recent_license_date":"4/15/2019"}},"nearbyList":[{"establishmentid":"1703","name":"Westminster Church of Detroit","address":"17567 Hubbell St","zipcode":"48235"},{"establishmentid":"1543","name":"Foreign Language Immersion","address":"6501 W Outer Dr","zipcode":"48235"},{"establishmentid":"748","name":"Renaissance High School","address":"6565 W Outer Dr","zipcode":"48235"},{"establishmentid":"3520","name":"Nu Wave Fish & Chicken","address":"14541 W McNichols Rd","zipcode":"48235"},{"establishmentid":"4454","name":"Southern Smokehouse","address":"14340 W McNichols Rd","zipcode":"48235"},{"establishmentid":"4839","name":"Asian Corned Beef","address":"14820 Seven Mile Rd W","zipcode":"48235"},{"establishmentid":"2664","name":"Wendy's Old Fashioned Hamburgers #8633","address":"14401 W Seven Mile Rd","zipcode":"48235"},{"establishmentid":"5292","name":"Subway","address":"6071 Outer Drive","zipcode":"48235"},{"establishmentid":"5000","name":"Sinai Grace Hospital","address":"6071 W Outer Dr","zipcode":"48235"},{"establishmentid":"5033","name":"Great Lakes Coffee Beanery","address":"6071 W Outer Dr","zipcode":"48235"}],"inspectionsByEstablishmentidList":[{"inspectionid":"44347","inspectionDate":"2018-12-05T00:00:00","inspectionType":"Routine Inspection","inCompliance":"Yes","violationsByInspectionidList":[{"violationCode":"6-202.15","violationDescription":"Outer openings of a FOOD ESTABLISHMENT shall be protected against the entry of insects and rodents. Unless otherwise allowed by law. \r\n","violationType":"Core","itemDescription":"Outer opening(s)","subItem":"door(s)","problemDescription":"Not provided with","subProblem":"Screening that is sixteen mesh to the inch or greater","location":"KITCHEN","subLocation":"","corrected":"Not required","daysToCorrect":"30.0","correctedDate":null,"correctionDescription":"Repair/replace to meet requirements above."}]},{"inspectionid":"42662","inspectionDate":"2018-06-26T00:00:00","inspectionType":"Routine Inspection","inCompliance":"No","violationsByInspectionidList":[{"violationCode":"5-202.12","violationDescription":"(A) A handwashing sink shall be equipped to provide water at a temperature of at least 38°C (100°F) through a mixing valve or combination faucet. (Pf)  \r\n(B) A steam mixing valve may not be used at a handwashing sink.  \r\n(C) A self-closing, slow-closing, or metering faucet shall provide a flow of water for at least 15 seconds without the need to reactivate the faucet.   \r\n(D) An automatic handwashing facility shall be installed in accordance with manufacturer's instructions.\r\n","violationType":"Foundation","itemDescription":"Handwashing facility","subItem":"","problemDescription":"Lack of hot water","subProblem":"","location":"KITCHEN","subLocation":"Above the","corrected":"No","daysToCorrect":"10.0","correctedDate":null,"correctionDescription":"Provide hot water."},{"violationCode":"6-202.15","violationDescription":"Outer openings of a FOOD ESTABLISHMENT shall be protected against the entry of insects and rodents. Unless otherwise allowed by law. \r\n","violationType":"Core","itemDescription":"Outer opening(s)","subItem":"door(s)","problemDescription":"Not provided with","subProblem":"Screening that is sixteen mesh to the inch or greater","location":"KITCHEN","subLocation":"","corrected":"Not required","daysToCorrect":"30.0","correctedDate":null,"correctionDescription":"Repair/replace to meet requirements above."}]},{"inspectionid":"40811","inspectionDate":"2017-11-14T00:00:00","inspectionType":"Routine Inspection","inCompliance":"Yes","violationsByInspectionidList":[]},{"inspectionid":"38853","inspectionDate":"2017-05-24T00:00:00","inspectionType":"Routine Inspection","inCompliance":"Yes","violationsByInspectionidList":[{"violationCode":"4-501.11","violationDescription":"EQUIPMENT shall be maintained in a state of repair and condition that meets the requirements of the code.\r\n","violationType":"Core","itemDescription":"Equipment","subItem":"","problemDescription":"Broken","subProblem":"","location":"THREE COMPARTMENT SINK","subLocation":"","corrected":"Not required","daysToCorrect":"30.0","correctedDate":null,"correctionDescription":"Repair/replace."}]},{"inspectionid":"36901","inspectionDate":"2016-10-26T00:00:00","inspectionType":"Routine Inspection","inCompliance":"Yes","violationsByInspectionidList":[]}]}],"maxInspectionDate":[{"inspectionDate":"2019-05-31T00:00:00"}]}},"pageContext":{"eid":"4125"}}