{"data":{"site":{"pathPrefix":"/restaurant-inspections"},"postgres":{"establishment":[{"establishmentid":"51622772","name":"Get Back Up Inc. East","address":"4216 McDougall St","zipcode":"48207","owner":"Dr. William L. Taylor","licenseNumber":"229202","licenseType":"Fixed Establishment","establishmentType":"Food Service Establishment","establishmentStatus":"Open","riskCategory":"High","reviewFrequencyDays":"180","coords":"-83.03228,42.36276","geojson":{"id":"51622772","type":"Feature","geometry":{"type":"Point","coordinates":[-83.03228282,42.362755878]},"properties":{"name":"Get Back Up Inc. East","owner":"Dr. William L. Taylor","address":"4216 McDougall St","zipcode":"48207","license_type":"Fixed Establishment","risk_category":"High","license_number":"229202","establishmentid":"51622772","establishment_type":"Food Service Establishment","establishment_status":"Open","review_frequency_days":"180","most_recent_license_date":null}},"nearbyList":[{"establishmentid":"4926","name":"Boggs, James & Grace Lee Boggs School","address":"4141 Mitchell St","zipcode":"48207"},{"establishmentid":"548","name":"Israel of God Church","address":"3533 E Forest Ave","zipcode":"48207"},{"establishmentid":"654","name":"Gratiot Grill Coney Island","address":"3121 Gratiot Ave","zipcode":"48207"},{"establishmentid":"600","name":"Prince Hall Grand Lodge","address":"3500 McDougall Rd","zipcode":"48207"},{"establishmentid":"1350","name":"Kentucky Fried Chicken","address":"3785 Gratiot Ave","zipcode":"48207"},{"establishmentid":"541","name":"D Motown Deli","address":"3750 Gratiot Ave","zipcode":"48207"},{"establishmentid":"51622855","name":"Detroit Collegiate High School","address":"3111 Elmwood St","zipcode":"48207"},{"establishmentid":"2824","name":"Ross-Hill Academy","address":"3111 Elmwood","zipcode":"48207"},{"establishmentid":"648","name":"Ivanhoe Cafe ","address":"5249 Joseph Campau Ave","zipcode":"48211"},{"establishmentid":"1872","name":"Terry's Casablanca","address":"6366 Gratiot Ave              ","zipcode":"48207"}],"inspectionsByEstablishmentidList":[{"inspectionid":"50585","inspectionDate":"2020-01-28T00:00:00","inspectionType":"Routine Inspection","inCompliance":"Yes","violationsByInspectionidList":[{"violationCode":"4-602.13","violationDescription":"NonFOOD-CONTACT SURFACES of EQUIPMENT shall be cleaned at a frequency necessary to preclude accumulation of soil residues.\r\n","violationType":"Core","itemDescription":"Nonfood contact surface(s)","subItem":"","problemDescription":"With accumulation of debris","subProblem":"","location":"KITCHEN","subLocation":"Inside the Stove","corrected":"Yes","daysToCorrect":"30","correctedDate":"2020-01-28T00:00:00","correctionDescription":"Keep clean."}]},{"inspectionid":"43143","inspectionDate":"2018-08-15T00:00:00","inspectionType":"Routine Inspection","inCompliance":"No","violationsByInspectionidList":[{"violationCode":"4-302.14","violationDescription":"A test kit or other device that accurately measures the concentration in mg/L of SANITIZING solutions shall be provided. (Pf)\r\n","violationType":"Foundation","itemDescription":"Sanitizer test kit","subItem":"chlorine","problemDescription":"Not provided","subProblem":"","location":"KITCHEN","subLocation":"No Test strips","corrected":"No","daysToCorrect":"10","correctedDate":null,"correctionDescription":"Provide as required"},{"violationCode":"4-302.12","violationDescription":"(A) FOOD TEMPERATURE MEASURING DEVICES shall be provided and readily accessible for use in ensuring attainment and maintenance of FOOD temperatures as specified under Chapter 3. (Pf)   \r\n(B) A TEMPERATURE MEASURING DEVICE with a suitable small-diameter probe that is designed to measure the temperature of thin masses shall be provided and readily accessible to accurately measure the temperature in thin FOODS such as MEAT patties and FISH filets. (Pf)\r\n","violationType":"Foundation","itemDescription":"Food thermometer(s)","subItem":"probe","problemDescription":"Not provided","subProblem":"","location":"KITCHEN","subLocation":"No Thermometer(s)","corrected":"No","daysToCorrect":"10","correctedDate":null,"correctionDescription":"Provide as required"},{"violationCode":"4-501.11","violationDescription":"EQUIPMENT shall be maintained in a state of repair and condition that meets the requirements of the code.\r\n","violationType":"Core","itemDescription":"Equipment components","subItem":"seals","problemDescription":"Broken","subProblem":"","location":"DINING AREA","subLocation":"Inside the Cooler (2 door)","corrected":"Not required","daysToCorrect":"30","correctedDate":null,"correctionDescription":"Repair/replace."},{"violationCode":"6-501.11","violationDescription":"PHYSICAL FACILITIES shall be maintained in good repair.\r\n","violationType":"Core","itemDescription":"Physical facilities","subItem":"wall(s)","problemDescription":"In poor repair","subProblem":"","location":"DINING AREA","subLocation":"At the Wall(s)","corrected":"Not required","daysToCorrect":"30","correctedDate":null,"correctionDescription":null}]},{"inspectionid":"43614","inspectionDate":"2018-08-09T00:00:00","inspectionType":"Preopening/New","inCompliance":"Yes","violationsByInspectionidList":[{"violationCode":"6-303.11","violationDescription":"Light of the proper intensity shall be provided as specified.\r\n","violationType":"Core","itemDescription":"Lighting intensity","subItem":"","problemDescription":"Less than","subProblem":"50 foot candles","location":"COOK LINE AREA","subLocation":"Light intensity","corrected":"Not required","daysToCorrect":"30","correctedDate":null,"correctionDescription":"Provide as required"}]}]}],"maxInspectionDate":[{"inspectionDate":"2020-05-29T00:00:00"}]}},"pageContext":{"eid":"51622772"}}