{"data":{"postgres":{"establishment":[{"establishmentid":"4704","name":"Subway","address":"1335 W Eight Mile ","zipcode":"48203","owner":"Dortch Enterprises","licenseNumber":"077308","licenseType":"Fixed Establishment","establishmentType":"Food Service Establishment","establishmentStatus":"Permanently Closed","riskCategory":null,"reviewFrequencyDays":"210.0","coords":"-83.11999,42.44440","geojson":{"id":"4704","type":"Feature","geometry":{"type":"Point","coordinates":[-83.119986091,42.4443979230001]},"properties":{"name":"Subway","owner":"Dortch Enterprises","address":"1335 W Eight Mile ","zipcode":"48203","license_type":"Fixed Establishment","risk_category":null,"license_number":"077308","establishmentid":"4704","establishment_type":"Food Service Establishment","establishment_status":"Permanently Closed","review_frequency_days":"210.0","most_recent_license_date":"4/26/2016"}},"nearbyList":[{"establishmentid":"4496","name":"Motown Coney Island","address":"1936 E Eight Mile Rd","zipcode":"48325"},{"establishmentid":"270","name":"Stonehouse Bar","address":"19803 Ralston","zipcode":"48203"},{"establishmentid":"225","name":"Renaissance Bowling Center","address":"19600 Woodward Ave","zipcode":"48203"},{"establishmentid":"5032","name":"Tasty World","address":"19102 Woodward","zipcode":"48201"},{"establishmentid":"993","name":"Palmer Park Golf Course 3216","address":"19013 Woodward Ave","zipcode":"48203"},{"establishmentid":"4065","name":"Ms. E-Vee's Soul Food","address":"201 W Eight Mile Ave","zipcode":"48203"},{"establishmentid":"51622678","name":"Holy Moly Donut Shop","address":"201 W Eight Mile Rd","zipcode":"48203"},{"establishmentid":"3191","name":"Sullaf Restaurant","address":"814 W Seven Mile Rd","zipcode":"48203"},{"establishmentid":"51622461","name":"Magic City of Detroit-Dreams","address":"141 W Eight Mile","zipcode":"48203"},{"establishmentid":"4151","name":"Greenfield Union Elementary","address":"19150 Blake St","zipcode":"48207"},{"establishmentid":"1122","name":"Greenfield Union Annex","address":"420 W Seven Mile Rd","zipcode":"48238"},{"establishmentid":"2742","name":"Golden Gate Cafe","address":"18700 Woodward Ave","zipcode":"48203"},{"establishmentid":"382","name":"Centerfold","address":"20222 John R St","zipcode":"48203"},{"establishmentid":"292","name":"Detroit Golf Club Inc.","address":"17911 Hamilton  St","zipcode":"48203"},{"establishmentid":"51622469","name":"Detroit One Coney Island","address":"5 W Seven Mile Rd","zipcode":"48203"},{"establishmentid":"4266","name":"Baker's Keyboard Lounge","address":"20510 Livernois Ave","zipcode":"48221"},{"establishmentid":"4356","name":"We Will Cook For You","address":"20504 Livernois Ave","zipcode":"48221"},{"establishmentid":"51622720","name":"Durdens Catering LLC","address":"20504 Livernois","zipcode":"48221"},{"establishmentid":"5190","name":"D and D Cuisine LLC","address":"17521 Livernois Ave","zipcode":"48221"},{"establishmentid":"2110","name":"Hangover's Lounge","address":"20143 Livernois Ave","zipcode":"48221"}],"inspectionsByEstablishmentidList":[{"inspectionid":"40653","inspectionDate":"2017-11-02T00:00:00","inspectionType":"Routine Inspection","inCompliance":"No","violationsByInspectionidList":[{"violationCode":"2-301.14","violationDescription":"FOOD EMPLOYEES shall clean their hands and exposed portions of their arms as specified under § 2-301.12 immediately before engaging in FOOD preparation including working with exposed FOOD, clean EQUIPMENT and UTENSILS, and unwrapped SINGLE-SERVICE and SINGLE-USE ARTICLES (P) and:\r\n(A)     After touching bare human body parts other than clean hands and clean, exposed portions of arms; (P)\r\n(B)     After using the toilet room; (P)\r\n(C)     After caring for or handling SERVICE ANIMALS or aquatic animals as specified in ¶ 2-403.11(B); (P).\r\n(D)     Except as specified in ¶ 2-401.11(B), after coughing, sneezing, using a handkerchief or disposable tissue, using tobacco, eating, or drinking; (P)\r\n(E)     After handling soiled EQUIPMENT or UTENSILS; (P)\r\n(F)     During FOOD preparation, as often as necessary to remove soil and contamination and to prevent cross contamination when changing tasks; (P)\r\n(G)     When switching between working with raw FOOD and working with READY-TO-EAT FOOD; (P)\r\n(H)     Before donning gloves for working with FOOD; (P) and\r\n(I)      After engaging in other activities that contaminate the hands. (P)","violationType":"Priority","itemDescription":"Employee(s)","subItem":"","problemDescription":"Did not wash hands","subProblem":"after other activities","location":"SERVICE AREA","subLocation":"and the Dishwasher area","corrected":"Yes","daysToCorrect":"10.0","correctedDate":"2017-11-02T00:00:00","correctionDescription":"Hands shall be washed with hot water and soap for at least 20 seconds after contamination."},{"violationCode":"3-501.16","violationDescription":"Except during preparation, cooking, or cooling, or when time is used as the public health control POTENTIALLY HAZARDOUS FOOD (TIME/TEMPERATURE CONTROL FOR SAFETY FOOD) shall be maintained:\r\n(A)  135ºF or above, except that roasts properly cooked and cooled may be held              at a temperature of 130ºF; or (P)\r\n(B)   At 41ºF or less (P)\r\n","violationType":"Priority","itemDescription":null,"subItem":"","problemDescription":null,"subProblem":"","location":"STEAM TABLE","subLocation":"and the Cold table","corrected":"Yes","daysToCorrect":"10.0","correctedDate":"2017-11-02T00:00:00","correctionDescription":null},{"violationCode":"2-103.11","violationDescription":"The PERSON IN CHARGE shall ensure that employees, practices and policies are in compliance with the code. (Pf) \r\n","violationType":"Foundation","itemDescription":"Person-in-charge","subItem":"","problemDescription":"Not ensuring compliance","subProblem":"","location":"FACILITY","subLocation":"","corrected":"No","daysToCorrect":"10.0","correctedDate":null,"correctionDescription":"Person-in-charge must ensure compliance with items listed above."},{"violationCode":"7-102.11","violationDescription":"Working containers used for storing POISONOUS OR TOXIC MATERIALS such as cleaners and SANITIZERS taken from bulk supplies shall be clearly and individually identified with the common name of the material. (Pf)\r\n","violationType":"Foundation","itemDescription":"Working containers-toxics","subItem":"","problemDescription":"Not labeled as to content","subProblem":"","location":"SERVICE AREA","subLocation":"Under the Counter(s)","corrected":"Yes","daysToCorrect":"10.0","correctedDate":"2017-11-02T00:00:00","correctionDescription":"Label containers with common name."},{"violationCode":"MFL289.2129","violationDescription":"Sec. 2129. (1) All of the following food establishments shall employ a minimum of 1 managerial employee who is currently certified under a personnel certification program accredited by the American national standards institute, utilizing the conference for food protection standards:  (a) A food service establishment that is not any of the following:    (i) Operating under a temporary food service establishment license.  (ii) A vending machine location.     (b) An extended retail food establishment.  (c) Operated within a retail grocery.  (2) An individual certified under subsection (1) shall be recognized with full faith and credit by the state and all local units of government throughout the state.  (3) The department may promulgate rules to do all of the following:  (a) Develop requirements for retail food establishments to follow when employing certified food safety managers or personnel.  (b) Set a reasonable date for compliance with the requirements under subdivision (a) taking into consideration existing local personnel certification requirements.  (c) Establish certification fees necessary to implement, maintain, and track certified individuals directly or by contract. The department may annually adjust the schedule of fees to provide that the fee charged is sufficient to cover the cost of the certification tracking program.  (d) Implement and enforce the requirements described in subdivision (a).    (4) The certification program developed by the American national standards institute, as it exists on April 1, 2008 , is incorporated by reference. The department may adopt updates to the certification program accreditation standards in subsection (1) by rule.     (5) This section does not prohibit any local legislative body from implementing a food handler program, an employee health certification program, or a manager certification program, if it is not in conflict with this section.","violationType":"Core","itemDescription":"Person-in-charge","subItem":"","problemDescription":null,"subProblem":"","location":"FACILITY","subLocation":"","corrected":"Not required","daysToCorrect":"30.0","correctedDate":null,"correctionDescription":null},{"violationCode":"3-501.13","violationDescription":"POTENTIALLY HAZARDOUS FOOD (TIME/TEMPERATURE CONTROL FOR SAFETY FOOD)  shall be thawed:  Under refrigeration, or under cool running water (<70° F), or as part of cooking process, and total accumulated time above 41° F, for thawed portions, shall not exceed 4 hours.  Any thawing procedure may be used for immediate service for individual consumers order of READY-TO-EAT foods.\r\n","violationType":"Core","itemDescription":"Frozen food(s) for thawing","subItem":"","problemDescription":"Stored above 41 degrees F thawed or partially thawed","subProblem":"At room temperature","location":"BACK AREA","subLocation":"At the Prep sink","corrected":"Yes","daysToCorrect":"30.0","correctedDate":"2017-11-02T00:00:00","correctionDescription":"Store under refrigeration."}]},{"inspectionid":"38556","inspectionDate":"2017-04-27T00:00:00","inspectionType":"Routine Inspection","inCompliance":"Yes","violationsByInspectionidList":[]},{"inspectionid":"37199","inspectionDate":"2016-11-15T00:00:00","inspectionType":"Routine Inspection","inCompliance":"Yes","violationsByInspectionidList":[]},{"inspectionid":"36294","inspectionDate":"2016-08-11T00:00:00","inspectionType":"Routine Inspection","inCompliance":"Yes","violationsByInspectionidList":[]},{"inspectionid":"36295","inspectionDate":"2016-08-11T00:00:00","inspectionType":"Routine Inspection","inCompliance":"Yes","violationsByInspectionidList":[{"violationCode":"5-205.11","violationDescription":"(A) A HANDWASHING SINK shall be maintained so that it is accessible at all times for EMPLOYEE use and used for no other purpose. (Pf)\r\n(B)  An automatic handwashing facility shall be used in accordance with manufacturer's instructions. (Pf)\r\n","violationType":"Foundation","itemDescription":"Handwashing sink(s)","subItem":"","problemDescription":"Not easily accessible","subProblem":"","location":"KITCHEN","subLocation":"","corrected":"Yes","daysToCorrect":"10.0","correctedDate":"2016-08-11T00:00:00","correctionDescription":"Make easily accessible."}]}]}]}},"pageContext":{"eid":"4704"}}