{"componentChunkName":"component---src-templates-establishment-page-js","path":"/establishment/4402","result":{"data":{"site":{"pathPrefix":"/restaurant-inspections"},"postgres":{"establishment":[{"establishmentid":"4402","name":"Bridge Academy West","address":"3105 Carpenter St.","zipcode":"48212","owner":"Mohammed Marwan Issa","licenseNumber":"078654","licenseType":"Fixed Establishment","establishmentType":"Non-Public School","establishmentStatus":"Open","riskCategory":null,"reviewFrequencyDays":"180","coords":"-83.06178,42.40747","geojson":{"id":"4402","type":"Feature","geometry":{"type":"Point","coordinates":[-83.061783937,42.40747364]},"properties":{"name":"Bridge Academy West","owner":"Mohammed Marwan Issa","address":"3105 Carpenter St.","zipcode":"48212","license_type":"Fixed Establishment","risk_category":null,"license_number":"078654","establishmentid":"4402","establishment_type":"Non-Public School","establishment_status":"Open","review_frequency_days":"180","most_recent_license_date":"11/5/2022"}},"nearbyList":[{"establishmentid":"51622972","name":"Modhubann Sweet & Cafe ","address":"3611 Carpenter","zipcode":"48212"},{"establishmentid":"4115","name":"Al Baraka Restaurant","address":"3611  Carpenter St.","zipcode":"48212"},{"establishmentid":"51622666","name":"New Al Baraka Restaurant LLC","address":"3611  Carpenter St. Ste 1","zipcode":"48212"},{"establishmentid":"750","name":"Starvin Marvin ","address":"12449 Conant","zipcode":"48212"},{"establishmentid":"3589","name":"HRs Lounge","address":"12449 Conant","zipcode":"48212"},{"establishmentid":"51623906","name":"Hala Restaurant Inc. dba Sylhet Cafe","address":"12900 Joseph Campau","zipcode":"48210"},{"establishmentid":"516","name":"Witchcraft Krakus Bar & Restaurant","address":"12900 Joseph Campau","zipcode":"48212"},{"establishmentid":"717","name":"J & S Bar","address":"12208 Conant Ave.","zipcode":"48212"},{"establishmentid":"3373","name":"Reshmi Sweets & Cafe","address":"12170 Conant Ave.","zipcode":"48212"},{"establishmentid":"51623761","name":"Best Ice Cream ","address":"3886 Gravin ","zipcode":"48212"}],"inspectionsByEstablishmentidList":[{"inspectionid":"61256","inspectionDate":"2022-12-06T00:00:00","inspectionType":"Routine Inspection","inCompliance":"Yes","violationsByInspectionidList":[]},{"inspectionid":"59509","inspectionDate":"2022-05-13T00:00:00","inspectionType":"Routine Inspection","inCompliance":"Yes","violationsByInspectionidList":[]},{"inspectionid":"56209","inspectionDate":"2021-10-06T00:00:00","inspectionType":"Routine Inspection","inCompliance":"Yes","violationsByInspectionidList":[]},{"inspectionid":"55458","inspectionDate":"2021-08-04T00:00:00","inspectionType":"Routine Inspection","inCompliance":"Yes","violationsByInspectionidList":[]},{"inspectionid":"53770","inspectionDate":"2020-12-17T00:00:00","inspectionType":"Routine Inspection","inCompliance":"Yes","violationsByInspectionidList":[{"violationCode":"4-602.13","violationDescription":"NonFOOD-CONTACT SURFACES of EQUIPMENT shall be cleaned at a frequency necessary to preclude accumulation of soil residues.\n","violationType":"Core","itemDescription":"Nonfood contact surface(s)","subItem":"","problemDescription":"With accumulation of debris","subProblem":"","location":"KITCHEN","subLocation":"Inside the Stove","corrected":"False","daysToCorrect":"30","correctedDate":null,"correctionDescription":"Keep clean."}]},{"inspectionid":"52301","inspectionDate":"2020-03-23T00:00:00","inspectionType":"COVID19-temp closed","inCompliance":"Yes","violationsByInspectionidList":[]},{"inspectionid":"49882","inspectionDate":"2019-11-20T00:00:00","inspectionType":"Routine Inspection","inCompliance":"Yes","violationsByInspectionidList":[]},{"inspectionid":"47968","inspectionDate":"2019-06-06T00:00:00","inspectionType":"Routine Inspection","inCompliance":"Yes","violationsByInspectionidList":[]},{"inspectionid":"44122","inspectionDate":"2018-11-13T00:00:00","inspectionType":"Routine Inspection","inCompliance":"Yes","violationsByInspectionidList":[]},{"inspectionid":"42185","inspectionDate":"2018-05-09T00:00:00","inspectionType":"Routine Inspection","inCompliance":"Yes","violationsByInspectionidList":[]},{"inspectionid":"39876","inspectionDate":"2017-09-07T00:00:00","inspectionType":"Routine Inspection","inCompliance":"Yes","violationsByInspectionidList":[{"violationCode":"3-307.11","violationDescription":"FOOD shall be protected from contamination that may result from a factor or source not specified under Subparts 3-301 - 3-306.\n","violationType":"Core","itemDescription":"Food","subItem":"","problemDescription":"Not protected","subProblem":"","location":"HANDSINK(S)","subLocation":"","corrected":"False","daysToCorrect":"30","correctedDate":null,"correctionDescription":"Store in protected manner."}]},{"inspectionid":"37120","inspectionDate":"2016-11-16T00:00:00","inspectionType":"Routine Inspection","inCompliance":"Yes","violationsByInspectionidList":[]}]}],"maxInspectionDate":[{"inspectionDate":"2023-04-13T00:00:00"}]}},"pageContext":{"eid":"4402"}},"staticQueryHashes":["3649515864","63159454"]}