{"data":{"site":{"pathPrefix":"/restaurant-inspections"},"postgres":{"establishment":[{"establishmentid":"51622840","name":"Toarminas Pizza","address":"2470 Collingwood St","zipcode":"48219","owner":"Darius & Latrice McClendon","licenseNumber":"241588","licenseType":"Fixed Establishment","establishmentType":"Food Service Establishment","establishmentStatus":"Open","riskCategory":"High","reviewFrequencyDays":"180.0","coords":"-83.11092,42.38220","geojson":{"id":"51622840","type":"Feature","geometry":{"type":"Point","coordinates":[-83.110915228,42.382199244]},"properties":{"name":"Toarminas Pizza","owner":"Darius & Latrice McClendon","address":"2470 Collingwood St","zipcode":"48219","license_type":"Fixed Establishment","risk_category":"High","license_number":"241588","establishmentid":"51622840","establishment_type":"Food Service Establishment","establishment_status":"Open","review_frequency_days":"180.0","most_recent_license_date":"8/22/2019"}},"nearbyList":[{"establishmentid":"946","name":"Durfee  K-8","address":"2470 Collingwood","zipcode":"48206"},{"establishmentid":"827","name":"Central Collegiate Academy 9-12","address":"2425 Tuxedo St","zipcode":"48206"},{"establishmentid":"4418","name":"Blue Fish and Chicken","address":"11611 Linwood Ave","zipcode":"48206"},{"establishmentid":"1738","name":"Genesis House III (WEST)","address":"2015 Webb St","zipcode":"48206"},{"establishmentid":"51622947","name":"Krispy Krunchy Chicken","address":"10200 Rosa Parks Blvd","zipcode":"48206"},{"establishmentid":"3898","name":"Detroit Job Corps Center","address":"11801 Woodrow Wilson","zipcode":"48206"},{"establishmentid":"3134","name":"Cass Community Social Services","address":"11850 Woodrow Wilson St","zipcode":"48206"},{"establishmentid":"5328","name":"Detroit City Coney Island","address":"9910 Dexter St","zipcode":"48206"},{"establishmentid":"5274","name":"Moma Shirley's Soul Food","address":"3426 Joy Rd","zipcode":"48206"},{"establishmentid":"5352","name":"On The Go Cafe","address":"12815 Linwood St","zipcode":"48238"}],"inspectionsByEstablishmentidList":[{"inspectionid":"48915","inspectionDate":"2019-08-28T00:00:00","inspectionType":"Routine Inspection","inCompliance":"Yes","violationsByInspectionidList":[]},{"inspectionid":"45514","inspectionDate":"2019-03-11T00:00:00","inspectionType":"Routine Inspection","inCompliance":"Yes","violationsByInspectionidList":[]},{"inspectionid":"43497","inspectionDate":"2018-09-20T00:00:00","inspectionType":"Preopening/Other","inCompliance":"No","violationsByInspectionidList":[{"violationCode":"4-302.14","violationDescription":"A test kit or other device that accurately measures the concentration in mg/L of SANITIZING solutions shall be provided. (Pf)\r\n","violationType":"Foundation","itemDescription":"Sanitizer test kit","subItem":"","problemDescription":"Not provided","subProblem":"","location":"FACILITY","subLocation":"Throughout","corrected":"No","daysToCorrect":"10.0","correctedDate":null,"correctionDescription":"Provide as required"},{"violationCode":"6-301.14","violationDescription":"A sign or poster that notifies FOOD EMPLOYEES to wash their hands shall be provided at all HANDWASHING SINKS used by FOOD EMPLOYEES and shall be clearly visible to FOOD EMPLOYEES.\r\n","violationType":"Core","itemDescription":"Handwashing signage","subItem":"","problemDescription":"Not provided","subProblem":"","location":"FACILITY","subLocation":"At the Handsink","corrected":"Not required","daysToCorrect":"30.0","correctedDate":null,"correctionDescription":"Provided handwashing signage "},{"violationCode":"6-501.12","violationDescription":"(A) PHYSICAL FACILITIES shall be cleaned as often as necessary to keep them clean.\r\n(B) Except spill cleanup, cleaning shall be done during periods when the least amount of FOOD is exposed such as after closing. ","violationType":"Core","itemDescription":"Physical facilities/structures","subItem":"","problemDescription":"With accumulation of debris","subProblem":"","location":"FLOOR DRAIN(S)","subLocation":"In the Facility","corrected":"Not required","daysToCorrect":"30.0","correctedDate":null,"correctionDescription":"Keep clean."}]}]}],"maxInspectionDate":[{"inspectionDate":"2019-10-31T00:00:00"}]}},"pageContext":{"eid":"51622840"}}