{"data":{"site":{"pathPrefix":"/restaurant-inspections"},"postgres":{"establishment":[{"establishmentid":"5163","name":"Brown's Kitchen","address":"17150 Schaefer Hwy","zipcode":"48235","owner":"Vaughn Brown","licenseNumber":"082494","licenseType":"Fixed Establishment","establishmentType":"Food Service Establishment","establishmentStatus":"Permanently Closed","riskCategory":"High","reviewFrequencyDays":"180.0","coords":"-83.17948,42.41748","geojson":{"id":"5163","type":"Feature","geometry":{"type":"Point","coordinates":[-83.179476505,42.417481825]},"properties":{"name":"Brown's Kitchen","owner":"Vaughn Brown","address":"17150 Schaefer Hwy","zipcode":"48235","license_type":"Fixed Establishment","risk_category":"High","license_number":"082494","establishmentid":"5163","establishment_type":"Food Service Establishment","establishment_status":"Permanently Closed","review_frequency_days":"180.0","most_recent_license_date":null}},"nearbyList":[{"establishmentid":"2361","name":"Kentucky Fried Chicken H730222","address":"13546 W McNichols Rd","zipcode":"48235"},{"establishmentid":"1426","name":"Burger King ","address":"13600 W McNichols Rd","zipcode":"48235"},{"establishmentid":"1895","name":"L. George's Coney Island ","address":"13635 W McNichols Rd","zipcode":"48235"},{"establishmentid":"2362","name":"Shirley Nelson's E & S Carryout","address":"13400 W McNichols Rd","zipcode":"48235"},{"establishmentid":"4396","name":"Sweet Soul Bistro","address":"13741 W McNichols Rd","zipcode":"48235"},{"establishmentid":"1913","name":"Happy's Pizza #4","address":"16850 Schaefer Hwy","zipcode":"48235"},{"establishmentid":"5332","name":"Sliders LLC","address":"13330 W McNichols Rd","zipcode":"48235"},{"establishmentid":"4253","name":"Golden Bowl Chop Suey","address":"13337 W McNichols Rd","zipcode":"48235"},{"establishmentid":"5341","name":"QuickFire Grille","address":"6001 W Outer Dr","zipcode":"48235"},{"establishmentid":"2131","name":"Twisted Dairy","address":"13801 W McNichols Rd","zipcode":"48235"},{"establishmentid":"3381","name":"Rono's Caribbean Paradise Restaurant","address":"14001 W McNichols Rd","zipcode":"48235"},{"establishmentid":"3582","name":"Lincoln-King Academy","address":"13436 Grove St","zipcode":"48235"},{"establishmentid":"345","name":"Teresa's Place","address":"14000 W McNichols Rd","zipcode":"48235"},{"establishmentid":"5000","name":"Sinai Grace Hospital","address":"6071 W Outer Dr","zipcode":"48235"},{"establishmentid":"5292","name":"Subway","address":"6071 Outer Drive","zipcode":"48235"},{"establishmentid":"5033","name":"Great Lakes Coffee Beanery","address":"6071 W Outer Dr","zipcode":"48235"},{"establishmentid":"519","name":"Connie & Barbara Restaurant","address":"13101 W McNichols Rd","zipcode":"48235"},{"establishmentid":"4454","name":"Southern Smokehouse","address":"14340 W McNichols Rd","zipcode":"48235"},{"establishmentid":"1998","name":"MLK, Jr. Education Center","address":"16827 Appoline","zipcode":"48235"},{"establishmentid":"4374","name":"Captain Jay's Fish & Chicken #112","address":"16907 Meyers","zipcode":"48235"}],"inspectionsByEstablishmentidList":[{"inspectionid":"39890","inspectionDate":"2017-08-01T00:00:00","inspectionType":"Routine Inspection","inCompliance":"Yes","violationsByInspectionidList":[]},{"inspectionid":"37763","inspectionDate":"2017-01-24T00:00:00","inspectionType":"Routine Inspection","inCompliance":"No","violationsByInspectionidList":[{"violationCode":"5-205.11","violationDescription":"(A) A HANDWASHING SINK shall be maintained so that it is accessible at all times for EMPLOYEE use and used for no other purpose. (Pf)\r\n(B)  An automatic handwashing facility shall be used in accordance with manufacturer's instructions. (Pf)\r\n","violationType":"Foundation","itemDescription":"Handwashing sink(s)","subItem":"","problemDescription":"Allows for contamination","subProblem":"","location":"HANDSINK(S)","subLocation":"","corrected":"Yes","daysToCorrect":"10.0","correctedDate":"2017-01-24T00:00:00","correctionDescription":"Remove to prevent contamination."},{"violationCode":"3-501.17","violationDescription":"(A)  READY-TO-EAT, POTENTIALLY HAZARDOUS FOOD (TIME/TEMPERATURE CONTROL FOR SAFETY FOOD)  prepared and held refrigerated for more than 24 hours in a FOOD ESTABLISHMENT  shall be clearly marked at the time of preparation to indicate the date or day by which the FOOD shall be consumed. (Pf)\r\n(B)  A container of refrigerated, commercially prepared READY-TO-EAT POTENTIALLY HAZARDOUS FOOD (TIME/TEMPERATURE CONTROL FOR SAFETY FOOD)  shall be clearly marked, at the time the original container is opened in a FOOD ESTABLISHMENT, to indicate the date or day by which the FOOD shall be consumed. (Pf)\r\n\r\nA date marking system that does not exceed 7 days, including date of preparation, or opening is to be used. (Pf)\r\n","violationType":"Foundation","itemDescription":"In house prepared ready-to-eat potentially hazardous  food(s)","subItem":"","problemDescription":"Without date of consumption marking","subProblem":"","location":"WALK-IN COOLER","subLocation":"","corrected":"No","daysToCorrect":"10.0","correctedDate":null,"correctionDescription":"Datemark with a discard date of 7 days or less."}]}]}]}},"pageContext":{"eid":"5163"}}