{"data":{"site":{"pathPrefix":"/restaurant-inspections"},"postgres":{"establishment":[{"establishmentid":"1275","name":"Munger PK-8","address":"5525 Martin","zipcode":"48238","owner":"Detroit Board of Education","licenseNumber":"073177","licenseType":"Fixed Establishment","establishmentType":"Public School","establishmentStatus":"Open","riskCategory":"Medium","reviewFrequencyDays":"210.0","coords":"-83.13278,42.33726","geojson":{"id":"1275","type":"Feature","geometry":{"type":"Point","coordinates":[-83.13278457,42.3372590700001]},"properties":{"name":"Munger PK-8","owner":"Detroit Board of Education","address":"5525 Martin","zipcode":"48238","license_type":"Fixed Establishment","risk_category":"Medium","license_number":"073177","establishmentid":"1275","establishment_type":"Public School","establishment_status":"Open","review_frequency_days":"210.0","most_recent_license_date":"4/15/2019"}},"nearbyList":[{"establishmentid":"51622564","name":"La Nueva Sierra","address":"5400 Chopin St","zipcode":"4821"},{"establishmentid":"2023","name":"La Sierra","address":"5400 Chopin","zipcode":"4821"},{"establishmentid":"3481","name":"Matrix Head Start","address":"5690 Cecil","zipcode":"4821"},{"establishmentid":"51622525","name":"El Brasero","address":"5546 Chopin","zipcode":"4821"},{"establishmentid":"5426","name":"Asty Time Inc.","address":"7340 McGraw Ave","zipcode":"4821"},{"establishmentid":"3914","name":"Subway #29822","address":"7300 Michigan Ave","zipcode":"4821"},{"establishmentid":"2073","name":"Senor Lopez Taqueria Mexican","address":"7146 Michigan Ave","zipcode":"4821"},{"establishmentid":"1013","name":"Church's Fried Chicken #302","address":"7060 Michigan Ave","zipcode":"48226"},{"establishmentid":"715","name":"Yacht Club Exclusive","address":"7059 Michigan Ave","zipcode":"4821"},{"establishmentid":"716","name":"Jordans Family Restaurant","address":"7031 Michigan Ave","zipcode":"4821"}],"inspectionsByEstablishmentidList":[{"inspectionid":"44364","inspectionDate":"2018-12-04T00:00:00","inspectionType":"Routine Inspection","inCompliance":"Yes","violationsByInspectionidList":[]},{"inspectionid":"42254","inspectionDate":"2018-05-15T00:00:00","inspectionType":"Routine Inspection","inCompliance":"Yes","violationsByInspectionidList":[{"violationCode":"4-901.11","violationDescription":"After cleaning and SANITIZING, EQUIPMENT and UTENSILS shall be air-dried or used after adequate draining.\r\n","violationType":"Core","itemDescription":"Clean equipment and utensil(s)","subItem":"","problemDescription":"Stored/stacked wet","subProblem":"","location":"STORAGE AREA (DRY)","subLocation":"","corrected":"Not required","daysToCorrect":"30.0","correctedDate":null,"correctionDescription":"Completely air dry all items prior to storage/use."}]},{"inspectionid":"40389","inspectionDate":"2017-09-28T00:00:00","inspectionType":"Routine Inspection","inCompliance":"Yes","violationsByInspectionidList":[]},{"inspectionid":"39141","inspectionDate":"2017-06-27T00:00:00","inspectionType":"Routine Inspection","inCompliance":"Yes","violationsByInspectionidList":[{"violationCode":"3-602.11","violationDescription":"(A)  FOOD PACKAGED in a FOOD ESTABLISHMENT, shall be labeled as specified in LAW. \r\n(B) The name of the FOOD source for each MAJOR FOOD ALLERGEN contained in the FOOD unless the FOOD source is already part of the common or usual name of the respective ingredient. (Pf)\r\n(C)  Bulk FOOD that is available for CONSUMER self-dispensing shall be prominently labeled with the following information in plain view of the CONSUMER:\r\n(1)  the manufacturer's or processor's label that was provided with the  FOOD; or \r\n(2)  A card, sign, or other method of notification that includes the information required by law. \r\n","violationType":"Foundation","itemDescription":"Self-serve bulk food label(s)","subItem":"","problemDescription":"Do not include","subProblem":"List of ingredients","location":"FACILITY","subLocation":"","corrected":"Yes","daysToCorrect":"10.0","correctedDate":"2017-06-27T00:00:00","correctionDescription":"Provide."}]},{"inspectionid":"37503","inspectionDate":"2016-12-06T00:00:00","inspectionType":"Routine Inspection","inCompliance":"Yes","violationsByInspectionidList":[{"violationCode":"4-501.114","violationDescription":"A chemical SANITIZER used in a SANITIZING solution for a manual or\r\nmechanical operation shall meet these limits or as otherwise approved: (P)\r\n\tChlorine        ppm           pH<10             pH<8\r\n\t\t      25              120 F              120 F\r\n\t\t      50              100 F              75 F\r\n\t\t     100              55 F               55 F\r\n                 Iodine           a concentration of between 12.5 and 25 ppm and minimum temp of 75 F and pH of 5 or less or meets manufacturer's specifications. (P)\r\n\r\n                Quats            minimum temperature of 75 F, hardness of 500 ppm or less and meet manufacturers use directions. (P)\r\n","violationType":"Priority","itemDescription":"Chlorine solution concentration","subItem":"","problemDescription":"Below 25 ppm","subProblem":"","location":"3 COMPARTMENT SINK AREA","subLocation":"","corrected":"Yes","daysToCorrect":"10.0","correctedDate":"2016-12-06T00:00:00","correctionDescription":"Provide correct concentration as stated above."}]}]}],"maxInspectionDate":[{"inspectionDate":"2019-05-31T00:00:00"}]}},"pageContext":{"eid":"1275"}}