{"data":{"site":{"pathPrefix":"/restaurant-inspections"},"postgres":{"establishment":[{"establishmentid":"2362","name":"Shirley Nelson's E & S Carryout","address":"13400 W McNichols Rd","zipcode":"48235","owner":"Delora Carter","licenseNumber":"043499","licenseType":"Fixed Establishment","establishmentType":"Food Service Establishment","establishmentStatus":"Open","riskCategory":"High","reviewFrequencyDays":"180.0","coords":"-83.17762,42.41685","geojson":{"id":"2362","type":"Feature","geometry":{"type":"Point","coordinates":[-83.177621995,42.416847509]},"properties":{"name":"Shirley Nelson's E & S Carryout","owner":"Delora Carter","address":"13400 W McNichols Rd","zipcode":"48235","license_type":"Fixed Establishment","risk_category":"High","license_number":"043499","establishmentid":"2362","establishment_type":"Food Service Establishment","establishment_status":"Open","review_frequency_days":"180.0","most_recent_license_date":"4/18/2019"}},"nearbyList":[{"establishmentid":"5332","name":"Sliders LLC","address":"13330 W McNichols Rd","zipcode":"48235"},{"establishmentid":"4253","name":"Golden Bowl Chop Suey","address":"13337 W McNichols Rd","zipcode":"48235"},{"establishmentid":"2361","name":"Kentucky Fried Chicken H730222","address":"13546 W McNichols Rd","zipcode":"48235"},{"establishmentid":"5163","name":"Brown's Kitchen","address":"17150 Schaefer Hwy","zipcode":"48235"},{"establishmentid":"1913","name":"Happy's Pizza #4","address":"16850 Schaefer Hwy","zipcode":"48235"},{"establishmentid":"3582","name":"Lincoln-King Academy","address":"13436 Grove St","zipcode":"48235"},{"establishmentid":"1426","name":"Burger King #5771","address":"13600 W McNichols Rd","zipcode":"48235"},{"establishmentid":"51623089","name":"Adams Young Academy","address":"13130 Grove St","zipcode":"48235"},{"establishmentid":"1895","name":"L. George's Coney Island ","address":"13635 W McNichols Rd","zipcode":"48235"},{"establishmentid":"519","name":"Connie & Barbara Restaurant","address":"13101 W McNichols Rd","zipcode":"48235"}],"inspectionsByEstablishmentidList":[{"inspectionid":"48180","inspectionDate":"2019-06-27T00:00:00","inspectionType":"Routine Inspection","inCompliance":"Yes","violationsByInspectionidList":[{"violationCode":"7-201.11","violationDescription":"POISONOUS OR TOXIC MATERIAL shall be stored so they can not contaminate FOOD, EQUIPMENT, UTENSILS, LINENS, AND SINGLE-SERVICE AND SINGLE-USE ARTICLES by:   \r\n(A) Separating the POISONOUS OR TOXIC MATERIAL by spacing or partitioning; (P) and   \r\n(B) Locating the POISONOUS OR TOXIC MATERIAL in an area that is not above FOOD, EQUIPMENT, UTENSILS, LINENS, AND SINGLE-SERVICE AND SINGLE-USE ARTICLES.  This paragraph does not apply to EQUIPMENT and UTENSIL cleaners and sanitizers that are stored in WAREWASHING areas for availability and convenience if the materials are stored to prevent contamination of FOOD, EQUIPMENT, UTENSILS, LINENS, AND SINGLE-SERVICE and SINGLE-USE ARTICLES. (P)","violationType":"Priority","itemDescription":"Poisonous/toxic material(s)","subItem":"","problemDescription":"Not separated from","subProblem":"","location":"DRY STORAGE AREA","subLocation":"Above the FOOD","corrected":"Yes","daysToCorrect":"10.0","correctedDate":"2019-06-27T00:00:00","correctionDescription":null}]},{"inspectionid":"44310","inspectionDate":"2018-11-28T00:00:00","inspectionType":"Routine Inspection","inCompliance":"Yes","violationsByInspectionidList":[{"violationCode":"7-102.11","violationDescription":"Working containers used for storing POISONOUS OR TOXIC MATERIALS such as cleaners and SANITIZERS taken from bulk supplies shall be clearly and individually identified with the common name of the material. (Pf)\r\n","violationType":"Foundation","itemDescription":"Working containers-toxics","subItem":"cleaner","problemDescription":"Not labeled as to content","subProblem":"","location":"KITCHEN","subLocation":"","corrected":"Yes","daysToCorrect":"10.0","correctedDate":"2018-11-28T00:00:00","correctionDescription":"Label containers with common name."}]},{"inspectionid":"40256","inspectionDate":"2017-10-05T00:00:00","inspectionType":"Routine Inspection","inCompliance":"Yes","violationsByInspectionidList":[]},{"inspectionid":"38394","inspectionDate":"2017-03-29T00:00:00","inspectionType":"Routine Inspection","inCompliance":"Yes","violationsByInspectionidList":[]},{"inspectionid":"36658","inspectionDate":"2016-10-04T00:00:00","inspectionType":"Routine Inspection","inCompliance":"Yes","violationsByInspectionidList":[]}]}],"maxInspectionDate":[{"inspectionDate":"2019-10-31T00:00:00"}]}},"pageContext":{"eid":"2362"}}