{"componentChunkName":"component---src-templates-establishment-page-js","path":"/establishment/51623451","result":{"data":{"site":{"pathPrefix":"/restaurant-inspections"},"postgres":{"establishment":[{"establishmentid":"51623451","name":"Midtown Market LLC/Henry Ford Hospital","address":"1 Ford Place","zipcode":"48202","owner":"Midtown Market LLC","licenseNumber":"262923","licenseType":"Fixed Establishment","establishmentType":"Food Service Establishment","establishmentStatus":"Open","riskCategory":"High","reviewFrequencyDays":"150","coords":"-83.07516,42.36358","geojson":{"id":"51623451","type":"Feature","geometry":{"type":"Point","coordinates":[-83.075158776,42.363580373]},"properties":{"name":"Midtown Market LLC/Henry Ford Hospital","owner":"Midtown Market LLC","address":"1 Ford Place","zipcode":"48202","license_type":"Fixed Establishment","risk_category":"High","license_number":"262923","establishmentid":"51623451","establishment_type":"Food Service Establishment","establishment_status":"Open","review_frequency_days":"150","most_recent_license_date":"15/3/2022"}},"nearbyList":[{"establishmentid":"3062","name":"Variety Vending","address":"One Ford Place","zipcode":"48202"},{"establishmentid":"2843","name":"Sterling Services","address":"One Ford Place","zipcode":"48202"},{"establishmentid":"612","name":"Cafe 1 - Henry Ford Health System","address":"1 Ford Place","zipcode":"48202"},{"establishmentid":"51622960","name":"University Prep Academy HS--Green Bldg.","address":"600 Antoinette St.","zipcode":"48202"},{"establishmentid":"51622962","name":"University Prep Academy HS--Yellow Bldg.","address":"600 Antoinette St.","zipcode":"48202"},{"establishmentid":"4092","name":"University Prep Academy HS--Blue Bldg.","address":"600 Antoinette St.","zipcode":"48202"},{"establishmentid":"51622961","name":"University Prep Academy HS--Purple Bldg.","address":"600  Antoinette St.","zipcode":"48202"},{"establishmentid":"51623046","name":"Pistons Kit (PPC) PlumMrktFoodServiceLLC","address":"6201 Second Ave.","zipcode":"48202"},{"establishmentid":"51623081","name":"Wayne Co Mrkt LLC dba Plum Mrkt (Events)","address":"6201 Second Ave.","zipcode":"48202"},{"establishmentid":"51622990","name":"Plum Mrkt Store(1stFl)/Wayne Co Mrkt LLC","address":"6201  Second Ave.","zipcode":"48202"}],"inspectionsByEstablishmentidList":[{"inspectionid":"59297","inspectionDate":"2022-05-05T00:00:00","inspectionType":"Routine Inspection","inCompliance":"No","violationsByInspectionidList":[{"violationCode":"7-207.11","violationDescription":"(A) Except for medicines that are stored or displayed for retail sale, only those medicines that are necessary for the health of EMPLOYEES shall be allowed in a FOOD ESTABLISHMENT. (Pf)   \n(B) Medicines that are in a FOOD ESTABLISHMENT for the EMPLOYEES' use shall be labeled as specified under § 7-101.11 and located to prevent the contamination of FOOD, EQUIPMENT, UTENSILS, LINENS, and SINGLE-SERVICE and SINGLE-USE ARTICLES. (P)\n","violationType":"Priority","itemDescription":"Medication(s)","subItem":"","problemDescription":"Unnecessarily present in facility","subProblem":"","location":"STORAGE AREA(S)","subLocation":"At the Medicine","corrected":"True","daysToCorrect":"10","correctedDate":"0001-01-01T00:00:00","correctionDescription":null},{"violationCode":"6-301.12","violationDescription":"Each HANDWASHING SINK or group of adjacent HANDWASHING SINKS shall be provided with:\n(A) Individual, disposable towels; (Pf)\n(B) A continuous towel system that supplies the user with a clean towel;(Pf) or \n(C) A heated-air hand drying device.(Pf)\n(D) A hand drying device that employs an air-knife system that delivers high velocity pressurized air at ambient temperatures.(Pf)\n","violationType":"Foundation","itemDescription":"Sanitary hand drying provisions","subItem":"disposable, paper towels","problemDescription":"Not provided","subProblem":"At hand sink","location":"RESTROOM (MEN'S EMPLOYEE)","subLocation":"Missing Paper toweling","corrected":"True","daysToCorrect":"10","correctedDate":"0001-01-01T00:00:00","correctionDescription":"Provide"},{"violationCode":"3-304.12","violationDescription":"During pauses in FOOD preparation or dispensing, UTENSILS shall be stored:\n(A) In the FOOD with their handles above the top of the FOOD and the container;\n(B) In FOOD that is not POTENTIALLY HAZARDOUS with their handles above the      top of the FOOD within containers or EQUIPMENT that can be closed, such as      bins of sugar, flour, or cinnamon;\n(C) On a clean portion of the FOOD preparation table or cooking EQUIPMENT\n(D)  In running water, such as dipper well.\n(E)  In a clean, protected location if the UTENSILS, such as ice scoops, are   used only with a FOOD that is not POTENTIALLY HAZARDOUS; or\n(F)  In a container of water maintained at a temperature of at least 135° F.\n","violationType":"Core","itemDescription":"Dispensing utensil(s)","subItem":"","problemDescription":"Improperly stored","subProblem":"","location":"FOOD SERVICE AREA","subLocation":"At the Ice machine","corrected":"False","daysToCorrect":"30","correctedDate":null,"correctionDescription":null},{"violationCode":"5-205.15","violationDescription":"A PLUMBING SYSTEM shall be:\n(A) Repaired according to LAW; (P) and\n(B) Maintained in good repair.\n","violationType":"Core","itemDescription":"Plumbing system","subItem":"water line(s)","problemDescription":"Not maintained","subProblem":"","location":"REAR PREP AREA","subLocation":"At the Sink (2 compartment)","corrected":"False","daysToCorrect":"10","correctedDate":null,"correctionDescription":null}]}]}],"maxInspectionDate":[{"inspectionDate":"2023-04-13T00:00:00"}]}},"pageContext":{"eid":"51623451"}},"staticQueryHashes":["3649515864","63159454"]}