{"data":{"postgres":{"establishment":[{"establishmentid":"4884","name":"Ford Field- Detroit Lions Tunnel Club","address":"2000 Brush St","zipcode":"48201","owner":"DLI Properties","licenseNumber":"081342","licenseType":"Fixed Establishment","establishmentType":"Food Service Establishment","establishmentStatus":"Open","riskCategory":null,"reviewFrequencyDays":"365.0","coords":"-83.04552,42.33984","geojson":{"id":"4884","type":"Feature","geometry":{"type":"Point","coordinates":[-83.04552239,42.339843494]},"properties":{"name":"Ford Field- Detroit Lions Tunnel Club","owner":"DLI Properties","address":"2000 Brush St","zipcode":"48201","license_type":"Fixed Establishment","risk_category":null,"license_number":"081342","establishmentid":"4884","establishment_type":"Food Service Establishment","establishment_status":"Open","review_frequency_days":"365.0","most_recent_license_date":"4/30/2018"}},"nearbyList":[{"establishmentid":"2048","name":"Elwood Bar & Grill","address":"300 E Adams","zipcode":"48226"},{"establishmentid":"322","name":"Twentieth Century Club, (Gem Theatre)","address":"333 Madison","zipcode":"48226"},{"establishmentid":"1106","name":"Music Hall Center","address":"350 Madison","zipcode":"48226"},{"establishmentid":"355","name":"Detroit Athletic Club","address":"241 Madison Ave","zipcode":"48226"},{"establishmentid":"3925","name":"La Casa De La Habana Detroit","address":"1502 Randolph","zipcode":"48226"},{"establishmentid":"4217","name":"Comerica Park- Tiger Den/Beer Hall","address":"2100 Woodward Ave","zipcode":"48201"},{"establishmentid":"4845","name":"Comerica Park- New Amsterdam 416","address":"2100 Woodward Ave","zipcode":"48201"},{"establishmentid":"4218","name":"Comerica Park- Kitchens Upper/Lower","address":"2100 Woodward Ave","zipcode":"48201"},{"establishmentid":"5076","name":"Comerica Park- The Corner Tap Room","address":"2100 Woodward Ave","zipcode":"48201"},{"establishmentid":"4220","name":"Comerica Park- Champions Club","address":"2100 Woodward Ave ","zipcode":"48201"},{"establishmentid":"4339","name":"Comerica Park- Mobile Venues","address":"2100 Woodward Ave","zipcode":"48201"},{"establishmentid":"4219","name":"Comerica Park- Tiger Club #300","address":"2100 Woodward Ave","zipcode":"48201"},{"establishmentid":"4221","name":"Comerica Park- Press Box Lounge","address":"2100 Woodward Ave","zipcode":"48201"},{"establishmentid":"4224","name":"Comerica Park- Vending Commissaries","address":"2100 Woodward Ave","zipcode":"48201"},{"establishmentid":"4225","name":"Comerica Park- Concession Stands","address":"2100 Woodward Ave","zipcode":"48201"},{"establishmentid":"4222","name":"Comerica Park- Michigan Craft Beer","address":"2100 Woodward Ave","zipcode":"48201"},{"establishmentid":"4223","name":"Comerica Park- Upper deck Lounge Bar","address":"2100 Woodward Ave","zipcode":"48201"},{"establishmentid":"51622520","name":"Comerica Park- Pitchers Pub","address":"2100 Woodward Ave","zipcode":"48226"},{"establishmentid":"4317","name":"Colors","address":"311 E Grand River Ave","zipcode":"48226"},{"establishmentid":"2007","name":"Subway #44796","address":"1401 Beaubien St","zipcode":"48226"}],"inspectionsByEstablishmentidList":[{"inspectionid":"43686","inspectionDate":"2018-10-07T00:00:00","inspectionType":"Routine Inspection","inCompliance":"Yes","violationsByInspectionidList":[{"violationCode":"3-501.19","violationDescription":"If time only, rather than time in conjunction with temperature, is used as the public health control for a working supply of POTENTIALLY HAZARDOUS FOOD (TIME/TEMPERATURE CONTROL FOR SAFETY FOOD)  before cooking, or for READY-TO-EAT, POTENTIALLY HAZARDOUS FOOD (TIME/TEMPERATURE CONTROL FOR SAFETY FOOD)  that is displayed or held for service for immediate consumption:   \r\n(1)   Written procedures are required to be prepared in advance, maintained in the establishment, and made available to the REGULATORY AUTHORITY upon request.(Pf)\r\n(2)   The FOOD shall be marked to indicate the time that is 4 hrs past the point in which food is removed from temperature control, or 6 hrs if the temperature is maintained below 70Â°F. (Pf)\r\n(3)   Food in unmarked containers or in containers that exceed the time limit are to be discarded. (P)\r\n        \r\n","violationType":"Priority","itemDescription":"Time controlled food(s)","subItem":"","problemDescription":"Without time control mark","subProblem":"","location":"KITCHEN","subLocation":"TIME MARKING","corrected":"Yes","daysToCorrect":"10.0","correctedDate":"2018-12-02T00:00:00","correctionDescription":"Provide clear easy to read time marks."}]},{"inspectionid":"40273","inspectionDate":"2017-10-08T00:00:00","inspectionType":"Routine Inspection","inCompliance":"Yes","violationsByInspectionidList":[{"violationCode":"4-501.11","violationDescription":"EQUIPMENT shall be maintained in a state of repair and condition that meets the requirements of the code.\r\n","violationType":"Core","itemDescription":"Equipment","subItem":"","problemDescription":"Broken","subProblem":"","location":"COOLER","subLocation":"","corrected":"Not required","daysToCorrect":"30.0","correctedDate":null,"correctionDescription":"Repair/replace."}]},{"inspectionid":"37106","inspectionDate":"2016-10-23T00:00:00","inspectionType":"Routine Inspection","inCompliance":"Yes","violationsByInspectionidList":[]}]}]}},"pageContext":{"eid":"4884"}}