{"data":{"site":{"pathPrefix":"/restaurant-inspections"},"postgres":{"establishment":[{"establishmentid":"408","name":"Maltese Am Benevolent Society","address":"1832 Michigan Avenue","zipcode":"48216","owner":"Maltese American Benevolent So","licenseNumber":"034164","licenseType":"Fixed Establishment","establishmentType":"Food Service Establishment","establishmentStatus":"Open","riskCategory":null,"reviewFrequencyDays":"530.0","coords":"-83.07115,42.33163","geojson":{"id":"408","type":"Feature","geometry":{"type":"Point","coordinates":[-83.0711494609999,42.3316300970001]},"properties":{"name":"Maltese Am Benevolent Society","owner":"Maltese American Benevolent So","address":"1832 Michigan Avenue","zipcode":"48216","license_type":"Fixed Establishment","risk_category":null,"license_number":"034164","establishmentid":"408","establishment_type":"Food Service Establishment","establishment_status":"Open","review_frequency_days":"530.0","most_recent_license_date":"5/7/2018"}},"nearbyList":[{"establishmentid":"407","name":"Casey's Pub d/b/a The Red Corridor","address":"1830 Michigan Ave","zipcode":"48216"},{"establishmentid":"51622463","name":"Corktown Tavern Inc.","address":"1716 Michigan Ave","zipcode":"48216"},{"establishmentid":"1932","name":"Hernandez Center Head Start","address":"2051 Rosa Parks Blvd, Ste. 1K","zipcode":"48216"},{"establishmentid":"4781","name":"Bucharest Grill","address":"1623 Michigan Ave","zipcode":"48216"},{"establishmentid":"51622820","name":"Lucky Detroit Coffee & Espresso","address":"2000 Michigan","zipcode":"48216"},{"establishmentid":"5394","name":"Ima","address":"2015 Michigan Ave","zipcode":"48216"},{"establishmentid":"4105","name":"Onassis Coney Island","address":"1501 Michigan","zipcode":"48226"},{"establishmentid":"2656","name":"Valley Foods","address":"1980 Bagley","zipcode":"48216"},{"establishmentid":"805","name":"Nancy Whiskey ","address":"2644 Harrison","zipcode":"48216"},{"establishmentid":"4938","name":"UFO Factory","address":"2110 Trumbull St","zipcode":"48207"},{"establishmentid":"284","name":"L J'S Sweetheart bar","address":"2114 Michigan Ave","zipcode":"48216"},{"establishmentid":"500","name":"McShane's","address":"1460 Michigan Ave","zipcode":"48216"},{"establishmentid":"4300","name":"Sugar House","address":"2130 Michigan Ave","zipcode":"48216"},{"establishmentid":"2950","name":"Slows BBQ","address":"2138 Michigan Ave","zipcode":"48216"},{"establishmentid":"1409","name":"Manna Meals","address":"1950 Trumbull","zipcode":"48216"},{"establishmentid":"3745","name":"Mercury Burger Bar","address":"2163 Michigan Ave","zipcode":"48216"},{"establishmentid":"4648","name":"Ottava Via","address":"1400 Michigan Ave","zipcode":"48226"},{"establishmentid":"545","name":"Nemos","address":"1378 Michigan Ave","zipcode":"48226"},{"establishmentid":"51622591","name":"The Farmer's Hand LLC /DBA Folk","address":"1701 Trumbull Ste B","zipcode":"48216"},{"establishmentid":"51622639","name":"Meta Physica Wellness Center","address":"1701 Trumbull Ste 3","zipcode":"48216"}],"inspectionsByEstablishmentidList":[{"inspectionid":"40774","inspectionDate":"2017-11-03T00:00:00","inspectionType":"Routine Inspection","inCompliance":"Yes","violationsByInspectionidList":[{"violationCode":"2-401.11","violationDescription":"(A)    An EMPLOYEE shall eat, drink, or use any form of tobacco only in designated areas where the contamination of exposed FOOD; clean EQUIPMENT, UTENSILS, and LINENS; unwrapped SINGLE-SERVICE and SINGLE-USE ARTICLES; or other items needing protection can not result.\r\n(B)     A FOOD EMPLOYEE may drink from a closed BEVERAGE container if the container is handled to prevent contamination of:\r\n         (1)     The EMPLOYEE'S hands;\r\n         (2)     The container; and\r\n         (3)     Exposed FOOD; clean EQUIPMENT, UTENSILS, and LINENS; and unwrapped SINGLE-SERVICE and SINGLE-USE ARTICLES.\r\n","violationType":"Core","itemDescription":"Employee(s)","subItem":"","problemDescription":"Smoking","subProblem":"","location":"UPPER SERVICE BAR","subLocation":"At the Ash trays","corrected":"Not required","daysToCorrect":"30.0","correctedDate":null,"correctionDescription":null},{"violationCode":"6-501.12","violationDescription":"(A) PHYSICAL FACILITIES shall be cleaned as often as necessary to keep them clean.\r\n(B) Except spill cleanup, cleaning shall be done during periods when the least amount of FOOD is exposed such as after closing. ","violationType":"Core","itemDescription":"Physical facilities/structures","subItem":"walls","problemDescription":"With accumulation of debris","subProblem":"","location":"UPPER KITCHEN","subLocation":"Behind the Chest freezer","corrected":"Not required","daysToCorrect":"30.0","correctedDate":null,"correctionDescription":"Keep clean."}]}]}]}},"pageContext":{"eid":"408"}}