{"componentChunkName":"component---src-templates-establishment-page-js","path":"/establishment/5350","result":{"data":{"site":{"pathPrefix":"/restaurant-inspections"},"postgres":{"establishment":[{"establishmentid":"5350","name":"Detroit Sip, LLC","address":"7420 McNichols W.","zipcode":"48221","owner":"Jevona Watson","licenseNumber":"221034","licenseType":"Fixed Establishment","establishmentType":"Food Service Establishment","establishmentStatus":"Open","riskCategory":"Medium","reviewFrequencyDays":"335","coords":"-83.14574,42.41733","geojson":{"id":"5350","type":"Feature","geometry":{"type":"Point","coordinates":[-83.145736228,42.417329382]},"properties":{"name":"Detroit Sip, LLC","owner":"Jevona Watson","address":"7420 McNichols W.","zipcode":"48221","license_type":"Fixed Establishment","risk_category":"Medium","license_number":"221034","establishmentid":"5350","establishment_type":"Food Service Establishment","establishment_status":"Open","review_frequency_days":"335","most_recent_license_date":"4/18/2022"}},"nearbyList":[{"establishmentid":"5376","name":"TMO's BBQ Pit","address":"7401 McNichols W. ","zipcode":"48221"},{"establishmentid":"3710","name":"Rola-T-Mo's Fry House","address":"7504 McNichols Ave. W. ","zipcode":"48221"},{"establishmentid":"51623261","name":"Detroit Pizza Bar","address":"7316 McNichols W.","zipcode":"48221"},{"establishmentid":"51623541","name":"One of a Kind Market","address":"7120 McNichols","zipcode":"48221"},{"establishmentid":"2470","name":"Daniels Soul Food Deli","address":"17149 Livernois","zipcode":"48221"},{"establishmentid":"3986","name":"Captain Jay's Fish & Chicken #111","address":"17171 Livernois Ave.","zipcode":"48221"},{"establishmentid":"670","name":"Miley & Miley","address":"17171 Livernois Ave.","zipcode":"48221"},{"establishmentid":"1674","name":"Nicky D's Coney Island","address":"16953 Livernois Ave.","zipcode":"48221"},{"establishmentid":"2719","name":"Deano's Sub","address":"16817 Livernois Ave.","zipcode":"48221"},{"establishmentid":"5306","name":"Livernois Ocean Delight Inc","address":"16817 Livernois","zipcode":"48221"}],"inspectionsByEstablishmentidList":[{"inspectionid":"57801","inspectionDate":"2022-03-04T00:00:00","inspectionType":"Routine Inspection","inCompliance":"Yes","violationsByInspectionidList":[]},{"inspectionid":"56039","inspectionDate":"2021-09-15T00:00:00","inspectionType":"Routine Inspection","inCompliance":"Yes","violationsByInspectionidList":[]},{"inspectionid":"56022","inspectionDate":"2020-09-15T00:00:00","inspectionType":"Routine Inspection","inCompliance":"Yes","violationsByInspectionidList":[]},{"inspectionid":"53359","inspectionDate":"2020-08-10T00:00:00","inspectionType":"Routine Inspection","inCompliance":"Yes","violationsByInspectionidList":[]},{"inspectionid":"50690","inspectionDate":"2020-02-05T00:00:00","inspectionType":"Routine Inspection","inCompliance":"Yes","violationsByInspectionidList":[]},{"inspectionid":"44992","inspectionDate":"2019-01-28T00:00:00","inspectionType":"Routine Inspection","inCompliance":"Yes","violationsByInspectionidList":[]},{"inspectionid":"41547","inspectionDate":"2018-02-22T00:00:00","inspectionType":"Routine Inspection","inCompliance":"Yes","violationsByInspectionidList":[]},{"inspectionid":"38884","inspectionDate":"2017-05-30T00:00:00","inspectionType":"Preopening/New","inCompliance":"Yes","violationsByInspectionidList":[{"violationCode":"5-203.14","violationDescription":"A PLUMBING SYSTEM shall be installed to preclude backflow of contaminants into the water supply system at each point of use at the FOOD ESTABLISHMENT by providing an air gap or installing an APPROVED backflow prevention device. (P)\n","violationType":"Priority","itemDescription":"Backflow prevention","subItem":"Air gap","problemDescription":"Not provided","subProblem":null,"location":"FRONT COUNTER/AREA","subLocation":null,"corrected":"True","daysToCorrect":"10","correctedDate":"2017-05-30T00:00:00","correctionDescription":"Provide adequate air gap."},{"violationCode":"6-201.13","violationDescription":"(A) In FOOD ESTABLISHMENTS in which cleaning methods other than water flushing are used for cleaning floors, the floor and wall junctures shall be coved and closed to no larger than one thirty-second inch.\n(B) The floors in FOOD ESTABLISHMENTS in which water flush cleaning methods are used shall be provided with drains and be graded to drain, and the floor and wall junctures shall be coved and SEALED.","violationType":"Core","itemDescription":"Floor(s)","subItem":null,"problemDescription":"Not coved","subProblem":null,"location":"FRONT COUNTER/AREA","subLocation":null,"corrected":"True","daysToCorrect":"30","correctedDate":"2017-05-30T00:00:00","correctionDescription":"Provide / install coved molding."},{"violationCode":"6-201.11","violationDescription":"Except otherwise approved, and except for antislip floor coverings or applications may be used for safety reasons, floors, floor coverings, walls, wall coverings, and ceilings shall be designed, constructed, and installed so they are SMOOTH and EASILY CLEANABLE.\n","violationType":"Core","itemDescription":"wall(s)","subItem":null,"problemDescription":"Not constructed, designed, installed to be","subProblem":null,"location":"FRONT COUNTER/AREA","subLocation":null,"corrected":"True","daysToCorrect":"30","correctedDate":"2017-05-30T00:00:00","correctionDescription":"Repair/replace to be smooth and easily cleanable."}]}]}],"maxInspectionDate":[{"inspectionDate":"2022-07-25T00:00:00"}]}},"pageContext":{"eid":"5350"}},"staticQueryHashes":["3649515864","63159454"]}