{"data":{"site":{"pathPrefix":null},"postgres":{"establishment":[{"establishmentid":"5353","name":"Fresh Land","address":"6148 Georgia","zipcode":"48211","owner":"Omar Almasmari","licenseNumber":"221031","licenseType":"Mobile Food Establishment","establishmentType":"LHD - Mobile Food Establishmen","establishmentStatus":null,"riskCategory":null,"reviewFrequencyDays":"395.0","coords":"-83.03908,42.39283","geojson":{"id":"5353","type":"Feature","geometry":{"type":"Point","coordinates":[-83.0390810979999,42.3928324020001]},"properties":{"name":"Fresh Land","owner":"Omar Almasmari","address":"6148 Georgia","zipcode":"48211","license_type":"Mobile Food Establishment","risk_category":null,"license_number":"221031","establishmentid":"5353","establishment_type":"LHD - Mobile Food Establishmen","establishment_status":null,"review_frequency_days":"395.0","most_recent_license_date":null}},"nearbyList":[{"establishmentid":"4005","name":"M H Soft Serve","address":"4177 Dodge","zipcode":"48211"},{"establishmentid":"5342","name":"Oakland International Academy","address":"6111 Miller St","zipcode":"48211"},{"establishmentid":"4810","name":"U.S.A Ice Cream","address":"4069 Dodge St","zipcode":"48211"},{"establishmentid":"5343","name":"Oakland International Academy","address":"4001 Miller St","zipcode":null},{"establishmentid":"4777","name":"Mr. Primo Softy","address":"8215 Winkelman Street","zipcode":"48211"},{"establishmentid":"5218","name":"S & A Ice Cream","address":"8189 Winkelman St","zipcode":"48211"},{"establishmentid":"5369","name":"Spiderman Ice Cream","address":"5975 Hedge St","zipcode":"48211"},{"establishmentid":"5344","name":"Oakland International Academy","address":"8228 Conant St","zipcode":"48211"},{"establishmentid":"4047","name":"Omar's Soft Serve","address":"3833 Evaline","zipcode":"48212"},{"establishmentid":"4809","name":"Moe's Ice Cream","address":"3833 Evaline","zipcode":"48212"}],"inspectionsByEstablishmentidList":[{"inspectionid":"42121","inspectionDate":"2018-05-09T00:00:00","inspectionType":"Mobile Inspection","inCompliance":"Yes","violationsByInspectionidList":[{"violationCode":"5-302.14","violationDescription":"If provided, a water tank vent shall terminate in a downward direction and shall be covered with: 16 mesh screen or equivalent when the vent is in a protected area or A protective filter when the vent is in an area that is not protected from windblown dirt and debris.\r\n","violationType":"Core","itemDescription":"Mobile water tank vent","subItem":"","problemDescription":"Does not terminate in downward direction","subProblem":"","location":"TRUCK","subLocation":"At the Water Tank Vent","corrected":"Yes","daysToCorrect":"30.0","correctedDate":"2018-05-09T00:00:00","correctionDescription":"Repair/replace to meet requirements above."}]},{"inspectionid":"41142","inspectionDate":"2017-05-30T00:00:00","inspectionType":"Routine Inspection","inCompliance":"Yes","violationsByInspectionidList":[{"violationCode":"4-501.11","violationDescription":"EQUIPMENT shall be maintained in a state of repair and condition that meets the requirements of the code.\r\n","violationType":"Core","itemDescription":"Equipment components","subItem":"","problemDescription":"In poor repair","subProblem":"","location":"MOBILE UNIT","subLocation":"","corrected":"Not required","daysToCorrect":"30.0","correctedDate":null,"correctionDescription":"Repair"}]}]}]}},"pageContext":{"eid":"5353"}}