{"data":{"site":{"pathPrefix":"/restaurant-inspections"},"postgres":{"establishment":[{"establishmentid":"844","name":"Carleton Elementary School","address":"11724  Casino Ave","zipcode":"48224","owner":"Detroit Board of Education","licenseNumber":"034875","licenseType":"Fixed Establishment","establishmentType":"Public School","establishmentStatus":"Open","riskCategory":"Medium","reviewFrequencyDays":"180","coords":"-82.94565,42.42721","geojson":{"id":"844","type":"Feature","geometry":{"type":"Point","coordinates":[-82.945647525,42.427205979]},"properties":{"name":"Carleton Elementary School","owner":"Detroit Board of Education","address":"11724  Casino Ave","zipcode":"48224","license_type":"Fixed Establishment","risk_category":"Medium","license_number":"034875","establishmentid":"844","establishment_type":"Public School","establishment_status":"Open","review_frequency_days":"180","most_recent_license_date":"4/15/2019"}},"nearbyList":[{"establishmentid":"4305","name":"Club Armane","address":"11233 Morang Dr","zipcode":"48224"},{"establishmentid":"1671","name":"Happy's Pizza #3","address":"11025 Morang Dr","zipcode":"48234"},{"establishmentid":"51622809","name":"Morang 1 Coney Island","address":"11001 Morang Dr","zipcode":"48224"},{"establishmentid":"51622719","name":"Toarmina's Pizza","address":"12400 Morang","zipcode":"48224"},{"establishmentid":"2243","name":"Papa's Restaurant and Coney Island","address":"19130 Kelly Rd","zipcode":"48224"},{"establishmentid":"276","name":"Billeo's ","address":"19164 Kelly Road","zipcode":"48224"},{"establishmentid":"3099","name":"Lin Panda","address":"18087 Kelly Rd","zipcode":"48224"},{"establishmentid":"51622593","name":"E & G Food Market","address":"18081 Kelly Rd","zipcode":"48224"},{"establishmentid":"661","name":"Burger King ","address":"18021 Kelly Rd","zipcode":"48224"},{"establishmentid":"841","name":"Denby High School","address":"12800 Kelly Rd","zipcode":"48224"}],"inspectionsByEstablishmentidList":[{"inspectionid":"53227","inspectionDate":"2020-10-28T00:00:00","inspectionType":"Routine Inspection","inCompliance":"Yes","violationsByInspectionidList":[{"violationCode":"6-303.11","violationDescription":"Light of the proper intensity shall be provided as specified.\r\n","violationType":"Core","itemDescription":"Lighting intensity","subItem":"","problemDescription":"Not maintained","subProblem":"","location":"FREEZER","subLocation":"","corrected":"Not required","daysToCorrect":"30","correctedDate":null,"correctionDescription":null}]},{"inspectionid":"50035","inspectionDate":"2019-11-21T00:00:00","inspectionType":"Routine Inspection","inCompliance":"Yes","violationsByInspectionidList":[{"violationCode":"4-302.14","violationDescription":"A test kit or other device that accurately measures the concentration in mg/L of SANITIZING solutions shall be provided. (Pf)\r\n","violationType":"Foundation","itemDescription":"Sanitizer test kit","subItem":"","problemDescription":"Not provided","subProblem":"","location":"KITCHEN","subLocation":"","corrected":"Yes","daysToCorrect":"10","correctedDate":"2019-11-22T00:00:00","correctionDescription":"Provide."}]},{"inspectionid":"48078","inspectionDate":"2019-06-14T00:00:00","inspectionType":"Routine Inspection","inCompliance":"Yes","violationsByInspectionidList":[{"violationCode":"5-202.12","violationDescription":"(A) A handwashing sink shall be equipped to provide water at a temperature of at least 38°C (100°F) through a mixing valve or combination faucet. (Pf)  \r\n(B) A steam mixing valve may not be used at a handwashing sink.  \r\n(C) A self-closing, slow-closing, or metering faucet shall provide a flow of water for at least 15 seconds without the need to reactivate the faucet.   \r\n(D) An automatic handwashing facility shall be installed in accordance with manufacturer's instructions.\r\n","violationType":"Core","itemDescription":null,"subItem":"","problemDescription":null,"subProblem":"","location":null,"subLocation":"","corrected":"Not required","daysToCorrect":"10","correctedDate":null,"correctionDescription":null}]},{"inspectionid":"38867","inspectionDate":"2017-10-31T00:00:00","inspectionType":"Routine Inspection","inCompliance":"Yes","violationsByInspectionidList":[{"violationCode":"4-501.11","violationDescription":"EQUIPMENT shall be maintained in a state of repair and condition that meets the requirements of the code.\r\n","violationType":"Core","itemDescription":"Equipment","subItem":"","problemDescription":"In poor repair","subProblem":"","location":"COOLER","subLocation":"","corrected":"Not required","daysToCorrect":"30","correctedDate":null,"correctionDescription":"Repair"}]},{"inspectionid":"38942","inspectionDate":"2017-04-12T00:00:00","inspectionType":"Routine Inspection","inCompliance":"Yes","violationsByInspectionidList":[{"violationCode":"6-501.112","violationDescription":"Dead or trapped birds, insects, rodents, and other pests shall be removed from control devices and the PREMISES at a frequency that prevents their accumulation,  decomposition, or the attraction of pests.\r\n","violationType":"Core","itemDescription":"Dead/trapped pest(s)","subItem":"","problemDescription":"Not removed from facility","subProblem":"","location":"STORAGE CLOSET","subLocation":"","corrected":"Not required","daysToCorrect":"30","correctedDate":null,"correctionDescription":"Remove from facility/premises."},{"violationCode":"4-501.11","violationDescription":"EQUIPMENT shall be maintained in a state of repair and condition that meets the requirements of the code.\r\n","violationType":"Core","itemDescription":"Equipment","subItem":"","problemDescription":"In poor repair","subProblem":"","location":"COOLER","subLocation":"","corrected":"Not required","daysToCorrect":"30","correctedDate":null,"correctionDescription":null}]}]}],"maxInspectionDate":[{"inspectionDate":"2020-10-30T00:00:00"}]}},"pageContext":{"eid":"844"}}