{"data":{"site":{"pathPrefix":"/restaurant-inspections"},"postgres":{"establishment":[{"establishmentid":"51622845","name":"Flamzs","address":"16369 E Warren Ave","zipcode":"48224","owner":"Billy Owens","licenseNumber":"ps091018","licenseType":"Fixed Establishment","establishmentType":"Food Service Establishment","establishmentStatus":"Plan Review","riskCategory":null,"reviewFrequencyDays":"90.0","coords":"-82.93848,42.40319","geojson":{"id":"51622845","type":"Feature","geometry":{"type":"Point","coordinates":[-82.938480819,42.403190165]},"properties":{"name":"Flamzs","owner":"Billy Owens","address":"16369 E Warren Ave","zipcode":"48224","license_type":"Fixed Establishment","risk_category":null,"license_number":"ps091018","establishmentid":"51622845","establishment_type":"Food Service Establishment","establishment_status":"Plan Review","review_frequency_days":"90.0","most_recent_license_date":null}},"nearbyList":[{"establishmentid":"51622692","name":"J's Wings-N-Things","address":"12250 E Outer Drive","zipcode":"48224"},{"establishmentid":"2861","name":"Jeanie's Lounge","address":"16200 E Warren Ave","zipcode":"48224"},{"establishmentid":"51622685","name":"House of BBQ","address":"16619 E Warren Ave","zipcode":"48224"},{"establishmentid":"2466","name":"Pizza Hut #26290","address":"16835 E Warren Ave","zipcode":"48224"},{"establishmentid":"418","name":"East English Village Bar & Grill","address":"16915 E Warren Ave","zipcode":"48224"},{"establishmentid":"51622879","name":"Chef Mel's Hotdogs","address":"5782 Kensington Ave","zipcode":"48224"},{"establishmentid":"51622784","name":"York Sussex Partners","address":"17017 E Warren Ave","zipcode":"48224"},{"establishmentid":"5172","name":"Danny's Diner","address":"17017 E Warren","zipcode":"48224"},{"establishmentid":"51623094","name":"Sunday Cakes & Plates","address":"5953 Courville St","zipcode":"48224"},{"establishmentid":"51622709","name":"Wing Snob Detroit","address":"17101 E Warren Ave","zipcode":"48224"}],"inspectionsByEstablishmentidList":[{"inspectionid":"47954","inspectionDate":"2019-06-03T00:00:00","inspectionType":"Routine Inspection","inCompliance":"No","violationsByInspectionidList":[{"violationCode":"4-302.14","violationDescription":"A test kit or other device that accurately measures the concentration in mg/L of SANITIZING solutions shall be provided. (Pf)\r\n","violationType":"Foundation","itemDescription":"Sanitizer test kit","subItem":"","problemDescription":"Not provided","subProblem":"","location":"ESTABLISHMENT","subLocation":"At the Three compartment sink","corrected":"No","daysToCorrect":"10","correctedDate":null,"correctionDescription":null},{"violationCode":"5-205.11","violationDescription":"(A) A HANDWASHING SINK shall be maintained so that it is accessible at all times for EMPLOYEE use and used for no other purpose. (Pf)\r\n(B)  An automatic handwashing facility shall be used in accordance with manufacturer's instructions. (Pf)\r\n","violationType":"Foundation","itemDescription":"Handwashing sink(s)","subItem":"","problemDescription":"Not easily accessible","subProblem":"Items stored In","location":"WAREWASHING AREA","subLocation":"At the Handsink","corrected":"Yes","daysToCorrect":"10","correctedDate":"2019-06-03T00:00:00","correctionDescription":null},{"violationCode":"6-301.12","violationDescription":"Each HANDWASHING SINK or group of adjacent HANDWASHING SINKS shall be provided with:\r\n(A) Individual, disposable towels; (Pf)\r\n(B) A continuous towel system that supplies the user with a clean towel;(Pf) or \r\n(C) A heated-air hand drying device.(Pf)\r\n(D) A hand drying device that employs an air-knife system that delivers high velocity pressurized air at ambient temperatures.(Pf)\r\n","violationType":"Foundation","itemDescription":"Sanitary hand drying provisions","subItem":"disposable, paper towels","problemDescription":"Not provided","subProblem":"At hand sink","location":"ESTABLISHMENT","subLocation":"Missing Paper toweling","corrected":"Yes","daysToCorrect":"10","correctedDate":"2019-06-03T00:00:00","correctionDescription":null},{"violationCode":"6-501.114","violationDescription":"The PREMISES shall be free of items that are unnecessary to the operation or maintenance of the establishment such as EQUIPMENT that is nonfunctional, no longer used and free of litter.\r\n","violationType":"Core","itemDescription":"Unnecessary item(s)","subItem":"","problemDescription":"Not removed from facility","subProblem":"","location":"STORAGE ROOM","subLocation":"At the UNNECESSARY ITEMS","corrected":"Not required","daysToCorrect":"30","correctedDate":null,"correctionDescription":null},{"violationCode":"6-501.113","violationDescription":"Maintenance tools such as brooms, mops, vacuum cleaners, and similar items shall be:\r\n(A) Stored so they do not contaminate FOOD, EQUIPMENT, UTENSILS, LINENS, and SINGLE-SERVICE and SINGLE-USE ARTICLES; and\r\n(B) Stored in an orderly manner that facilitates cleaning the area used for storing the maintenance tools.\r\n","violationType":"Core","itemDescription":"Maintenance tool storage","subItem":"mops","problemDescription":"Unorganized","subProblem":"","location":"MOP SINK AREA","subLocation":"","corrected":"Not required","daysToCorrect":"30","correctedDate":null,"correctionDescription":null}]}]}],"maxInspectionDate":[{"inspectionDate":"2020-05-29T00:00:00"}]}},"pageContext":{"eid":"51622845"}}