{"data":{"site":{"pathPrefix":null},"postgres":{"establishment":[{"establishmentid":"1870","name":"Belle Isle Pizza (fka) Garalino's Pizza","address":"7869 E Jefferson Ave","zipcode":"48214","owner":"leor Barak","licenseNumber":"082026","licenseType":"Fixed Establishment","establishmentType":"Food Service Establishment","establishmentStatus":"Open","riskCategory":null,"reviewFrequencyDays":"365.0","coords":"-82.99579,42.35109","geojson":{"id":"1870","type":"Feature","geometry":{"type":"Point","coordinates":[-82.9957936439999,42.35109171]},"properties":{"name":"Belle Isle Pizza (fka) Garalino's Pizza","owner":"leor Barak","address":"7869 E Jefferson Ave","zipcode":"48214","license_type":"Fixed Establishment","risk_category":null,"license_number":"082026","establishmentid":"1870","establishment_type":"Food Service Establishment","establishment_status":"Open","review_frequency_days":"365.0","most_recent_license_date":"5/4/2018"}},"nearbyList":[{"establishmentid":"1091","name":"River Towers Apartments","address":"7800 E Jefferson Ave","zipcode":"48214"},{"establishmentid":"4984","name":"Four Seasons Catering LLC","address":"8000 E Jefferson","zipcode":"48214"},{"establishmentid":"4953","name":"The Red Hook, Detroit, LLC","address":"8025 Agnes St","zipcode":"48214"},{"establishmentid":"4765","name":"Detroit Vegan Soul, LLC","address":"8029 Agnes St","zipcode":"48214"},{"establishmentid":"4817","name":"Craft Work","address":"8047 Agnes St","zipcode":"48214"},{"establishmentid":"51622473","name":"Yum Village Food Truck Works Detroit","address":"1415 Parker #867 ","zipcode":"48214"},{"establishmentid":"2497","name":"8330 on the River","address":"8330 E Jefferson Ave","zipcode":"48214"},{"establishmentid":"1336","name":"Indian Village Tennis Club","address":"1502 Parker Ave","zipcode":"48214"},{"establishmentid":"2593","name":"Moses Field School","address":"1100 Sheridan","zipcode":"48214"},{"establishmentid":"5054","name":"Belle Isle Krispy Crunchy Chicken","address":"7255 E Jefferson Ave","zipcode":"48214"}],"inspectionsByEstablishmentidList":[{"inspectionid":"43058","inspectionDate":"2018-08-02T00:00:00","inspectionType":"Routine Inspection","inCompliance":"Yes","violationsByInspectionidList":[{"violationCode":"6-501.12","violationDescription":"(A) PHYSICAL FACILITIES shall be cleaned as often as necessary to keep them clean.\r\n(B) Except spill cleanup, cleaning shall be done during periods when the least amount of FOOD is exposed such as after closing. ","violationType":"Core","itemDescription":"Physical facilities/structures","subItem":"floors","problemDescription":"With accumulation of debris","subProblem":"","location":"STORAGE ROOM","subLocation":"On the floor Debris","corrected":"Not required","daysToCorrect":"30.0","correctedDate":null,"correctionDescription":"Keep clean."}]},{"inspectionid":"39254","inspectionDate":"2017-07-18T00:00:00","inspectionType":"Routine Inspection","inCompliance":"Yes","violationsByInspectionidList":[{"violationCode":"4-602.13","violationDescription":"NonFOOD-CONTACT SURFACES of EQUIPMENT shall be cleaned at a frequency necessary to preclude accumulation of soil residues.\r\n","violationType":"Core","itemDescription":"Nonfood contact surface(s)","subItem":"","problemDescription":"With accumulation of debris","subProblem":"","location":"KITCHEN","subLocation":"at the rear of Exhaust fan","corrected":"Not required","daysToCorrect":"30.0","correctedDate":null,"correctionDescription":"Keep clean."},{"violationCode":"6-501.12","violationDescription":"(A) PHYSICAL FACILITIES shall be cleaned as often as necessary to keep them clean.\r\n(B) Except spill cleanup, cleaning shall be done during periods when the least amount of FOOD is exposed such as after closing. ","violationType":"Core","itemDescription":"Physical facilities/structures","subItem":"floors","problemDescription":"Not clean","subProblem":"","location":"RESTROOM (EMPLOYEE)","subLocation":"On the Floor","corrected":"Not required","daysToCorrect":"30.0","correctedDate":null,"correctionDescription":"Clean"}]}]}]}},"pageContext":{"eid":"1870"}}