{"data":{"site":{"pathPrefix":null},"postgres":{"establishment":[{"establishmentid":"51622530","name":"Little Caesars Arena- Dough Room","address":"2645 Woodward Avenue","zipcode":"48201","owner":"Detroit District Sportservice","licenseNumber":"220976","licenseType":"Fixed Establishment","establishmentType":"Food Service Establishment","establishmentStatus":"Open","riskCategory":"High","reviewFrequencyDays":"180.0","coords":"-83.05481,42.34195","geojson":{"id":"51622530","type":"Feature","geometry":{"type":"Point","coordinates":[-83.054812494,42.341946353]},"properties":{"name":"Little Caesars Arena- Dough Room","owner":"Detroit District Sportservice","address":"2645 Woodward Avenue","zipcode":"48201","license_type":"Fixed Establishment","risk_category":"High","license_number":"220976","establishmentid":"51622530","establishment_type":"Food Service Establishment","establishment_status":"Open","review_frequency_days":"180.0","most_recent_license_date":"4/25/2018"}},"nearbyList":[{"establishmentid":"51622547","name":"Little Caesars Arena- Legends Club","address":"2645 Woodward Avenue","zipcode":"48201"},{"establishmentid":"51622509","name":"Little Caesars Arena Kid Rock Made in De","address":"2645 Woodward Avenue","zipcode":"48201"},{"establishmentid":"51622538","name":"Little Caesars Arena- Detroit House","address":"2645 Woodward Avenue","zipcode":"48201"},{"establishmentid":"51622542","name":"Little Caesars Arena- Gondola Pantries","address":"2645 Woodward Avenue","zipcode":"48201"},{"establishmentid":"51622528","name":"Little Caesars Arena- Club Level Concess","address":"2645 Woodward Avenue","zipcode":"48201"},{"establishmentid":"51622526","name":"Little Caesars Arena- District Market","address":"2645 Woodward Avenue","zipcode":"48201"},{"establishmentid":"51622543","name":"Little Caesars Arena- Alumni Club","address":"2645 Woodward Avenue","zipcode":"48201"},{"establishmentid":"51622545","name":"Little Caesars Arena- Central Suite Kitc","address":"2645 Woodward Avenue","zipcode":"48201"},{"establishmentid":"51622529","name":"Little Caesars Arena- East Club","address":"2645 Woodward Avenue","zipcode":"48201"},{"establishmentid":"51622537","name":"Little Caesars Arena-Main Concourse Conc","address":"2645 Woodward Avenue","zipcode":"48201"}],"inspectionsByEstablishmentidList":[{"inspectionid":"44501","inspectionDate":"2018-12-14T00:00:00","inspectionType":"Routine Inspection","inCompliance":"Yes","violationsByInspectionidList":[]},{"inspectionid":"42360","inspectionDate":"2018-05-20T00:00:00","inspectionType":"Routine Inspection","inCompliance":"Yes","violationsByInspectionidList":[{"violationCode":"4-202.16","violationDescription":"NonFOOD-CONTACT SURFACES shall be free of unnecessary ledges, projections, and crevices, and designed and constructed to allow easy cleaning and to facilitate maintenance.\r\n","violationType":"Core","itemDescription":"Nonfood contact surface(s)","subItem":"","problemDescription":"Not easily cleanable","subProblem":"","location":"EQUIPMENT","subLocation":"","corrected":"Not required","daysToCorrect":"30.0","correctedDate":null,"correctionDescription":"Repair/replace to be easily cleanable."},{"violationCode":"5-205.15","violationDescription":"A PLUMBING SYSTEM shall be:\r\n(A) Repaired according to LAW; (P) and\r\n(B) Maintained in good repair.\r\n","violationType":"Core","itemDescription":"Plumbing system","subItem":"drain line(s)","problemDescription":"Not maintained","subProblem":"","location":"3 COMPARTMENT SINK AREA","subLocation":"","corrected":"Not required","daysToCorrect":"10.0","correctedDate":null,"correctionDescription":"Maintain in good repair"}]},{"inspectionid":"40671","inspectionDate":"2017-10-13T00:00:00","inspectionType":"Routine Inspection","inCompliance":"Yes","violationsByInspectionidList":[{"violationCode":"5-205.11","violationDescription":"(A) A HANDWASHING SINK shall be maintained so that it is accessible at all times for EMPLOYEE use and used for no other purpose. (Pf)\r\n(B)  An automatic handwashing facility shall be used in accordance with manufacturer's instructions. (Pf)\r\n","violationType":"Foundation","itemDescription":"Handwashing sink(s)","subItem":"","problemDescription":"Not easily accessible","subProblem":"Items stored In front of","location":"HANDSINK(S)","subLocation":"","corrected":"Yes","daysToCorrect":"10.0","correctedDate":"2017-10-13T00:00:00","correctionDescription":"Remove items from handsink.  Do not store items at handsink."},{"violationCode":"4-302.14","violationDescription":"A test kit or other device that accurately measures the concentration in mg/L of SANITIZING solutions shall be provided. (Pf)\r\n","violationType":"Foundation","itemDescription":"Sanitizer test kit","subItem":"quaternary ammonia","problemDescription":"Not provided","subProblem":"","location":"3 COMPARTMENT SINK AREA","subLocation":"","corrected":"Yes","daysToCorrect":"10.0","correctedDate":"2017-10-13T00:00:00","correctionDescription":"Provide."}]}]}]}},"pageContext":{"eid":"51622530"}}