{"data":{"site":{"pathPrefix":"/restaurant-inspections"},"postgres":{"establishment":[{"establishmentid":"3988","name":"Precise Home Health Care Services, LLC","address":"18940 Schaefer Hwy","zipcode":"48235","owner":"David Walker","licenseNumber":"062771","licenseType":"Fixed Establishment","establishmentType":"Food Service Establishment","establishmentStatus":"Open","riskCategory":null,"reviewFrequencyDays":"365.0","coords":"-83.18016,42.42991","geojson":{"id":"3988","type":"Feature","geometry":{"type":"Point","coordinates":[-83.180161728,42.429906949]},"properties":{"name":"Precise Home Health Care Services, LLC","owner":"David Walker","address":"18940 Schaefer Hwy","zipcode":"48235","license_type":"Fixed Establishment","risk_category":null,"license_number":"062771","establishmentid":"3988","establishment_type":"Food Service Establishment","establishment_status":"Open","review_frequency_days":"365.0","most_recent_license_date":"4/16/2019"}},"nearbyList":[{"establishmentid":"4761","name":"David Ellis Academy Kindergarten","address":"18962 Schaefer Hwy","zipcode":"48235"},{"establishmentid":"3558","name":"David Ellis Academy","address":"18977 Schaefer Hwy","zipcode":"48235"},{"establishmentid":"5309","name":"Louisiana Creole Gumbo","address":"13505 W Seven Mile Rd Ste A","zipcode":"48235"},{"establishmentid":"280","name":"New China One","address":"13611 W Seven Mile Rd","zipcode":"48235"},{"establishmentid":"5179","name":"Original T & J Coney Island","address":"13600 W Seven Mile Rd","zipcode":"48235"},{"establishmentid":"3786","name":"Hartford Memorial Baptist Church","address":"18700 James Couzens Hwy","zipcode":"48235"},{"establishmentid":"1352","name":"McDonald's #7025","address":"14204 W Seven Mile Rd","zipcode":"48235"},{"establishmentid":"2666","name":"Kentucky Fried Chicken","address":"14201 W Seven Mile Rd","zipcode":"48235"},{"establishmentid":"4622","name":"Subway 51089","address":"19100 James Couzens Fwy","zipcode":"48235"},{"establishmentid":"669","name":"Lotus Gardens","address":"12832 W Seven Mile Rd","zipcode":"48235"}],"inspectionsByEstablishmentidList":[{"inspectionid":"43405","inspectionDate":"2018-08-28T00:00:00","inspectionType":"Routine Inspection","inCompliance":"Yes","violationsByInspectionidList":[]},{"inspectionid":"39263","inspectionDate":"2017-07-18T00:00:00","inspectionType":"Routine Inspection","inCompliance":"Yes","violationsByInspectionidList":[{"violationCode":"MFL289.2129","violationDescription":"Sec. 2129. (1) All food establishments shall employ a minimum of 1 managerial employee as a food safety manager, who must be an individual who is currently certified under a personnel certification program accredited by the American National Standards Institute, utilizing the Conference for Food Protection standards:\r\n(2) Beginning January 14, 2017 and every 5 years thereafter, a certified  food safety manager who supervises the operations of a food service establishment shall have completed a food safety training program\r\ncontaining an allergen awareness  component that has been approved by  the department. A food service establishment shall retain records on the  site of the food service establishment documenting compliance of its  certified food safety managers with this subsection. ","violationType":"Core","itemDescription":"Person-in-charge","subItem":"","problemDescription":"Missing","subProblem":"","location":"PERSON IN CHARGE","subLocation":"","corrected":"Not required","daysToCorrect":"30.0","correctedDate":null,"correctionDescription":"Provide."}]},{"inspectionid":"39330","inspectionDate":"2017-07-11T00:00:00","inspectionType":"Routine Inspection","inCompliance":"Yes","violationsByInspectionidList":[{"violationCode":"8-402.20","violationDescription":"If a PERSON denies access to the REGULATORY AUTHORITY, the REGULATORY AUTHORITY shall:\r\n(A) Inform the PERSON that:\r\n(1) The PERMIT HOLDER is required to allow access to the REGULATORY AUTHORITY as specified under § 8-402.11 of this Code,\r\n(2) Access is a condition of the acceptance and retention of a FOOD ESTABLISHMENT PERMIT to operate as specified under ¶ 8-304.11(F), and\r\n(3) If access is denied, an order issued by the appropriate authority allowing access, hereinafter referred to as an inspection order, may be obtained\r\naccording to LAW; and\r\n(B) Make a final request for access.","violationType":"Core","itemDescription":"Retail food service establishment","subItem":"","problemDescription":"Interfering with the duties of the health officer","subProblem":"Refusing entry for inspection","location":"PERSON IN CHARGE","subLocation":"","corrected":"Not required","daysToCorrect":"30.0","correctedDate":null,"correctionDescription":"Interfering with the duties of the health officer is grounds for license suspension."}]}]}],"maxInspectionDate":[{"inspectionDate":"2019-05-31T00:00:00"}]}},"pageContext":{"eid":"3988"}}