{"componentChunkName":"component---src-templates-establishment-page-js","path":"/establishment/51623135","result":{"data":{"site":{"pathPrefix":"/restaurant-inspections"},"postgres":{"establishment":[{"establishmentid":"51623135","name":"Jamaica Mi Hungry","address":"13240 Santa Rosa Dr.","zipcode":"48238","owner":"Richard Marzouca","licenseNumber":"249311","licenseType":"Special Transitory Food Unit","establishmentType":"LHD - Special Transitory Food","establishmentStatus":"Open","riskCategory":null,"reviewFrequencyDays":"180","coords":"-83.14141,42.38607","geojson":{"id":"51623135","type":"Feature","geometry":{"type":"Point","coordinates":[-83.141406777,42.386067993]},"properties":{"name":"Jamaica Mi Hungry","owner":"Richard Marzouca","address":"13240 Santa Rosa Dr.","zipcode":"48238","license_type":"Special Transitory Food Unit","risk_category":null,"license_number":"249311","establishmentid":"51623135","establishment_type":"LHD - Special Transitory Food","establishment_status":"Open","review_frequency_days":"180","most_recent_license_date":"4/27/2022"}},"nearbyList":[{"establishmentid":"51623701","name":"RJ'Z BBQ & Catering","address":"13325 Livernois","zipcode":"48238"},{"establishmentid":"3426","name":"Manhattan Fish & Chicken","address":"13325  Livernois Ave.","zipcode":"48238"},{"establishmentid":"51623471","name":"7 Day's Delights ","address":"13550 Stoepel ","zipcode":"48238"},{"establishmentid":"4716","name":"Gowdy's Fishery","address":"12863 Livernois","zipcode":null},{"establishmentid":"51623346","name":"Ms. Monica's Carryout","address":"12863 Livernois","zipcode":"48238"},{"establishmentid":"4169","name":"Lynn's Fish & Chicken","address":"12863 Livernois Ave.","zipcode":"48238"},{"establishmentid":"1063","name":"L. A. Coney Island","address":"13550 Livernois Ave.","zipcode":"48238"},{"establishmentid":"51622562","name":"City Wings Express","address":"13730 Livernois Avenue","zipcode":"48238"},{"establishmentid":"3221","name":"Chester Fried Chicken","address":"4340 Davison Ave. E.","zipcode":"48212"},{"establishmentid":"603","name":"Subway #26843","address":"12626 Livernois Ave.","zipcode":"48238"}],"inspectionsByEstablishmentidList":[{"inspectionid":"50330","inspectionDate":"2020-01-13T00:00:00","inspectionType":"Preopening/New","inCompliance":"Yes","violationsByInspectionidList":[{"violationCode":"5-202.12","violationDescription":"(A) A handwashing sink shall be equipped to provide water at a temperature of at least 38°C (100°F) through a mixing valve or combination faucet. (Pf)  \n(B) A steam mixing valve may not be used at a handwashing sink.  \n(C) A self-closing, slow-closing, or metering faucet shall provide a flow of water for at least 15 seconds without the need to reactivate the faucet.   \n(D) An automatic handwashing facility shall be installed in accordance with manufacturer's instructions.\n","violationType":"Priority","itemDescription":"Handwashing facility","subItem":null,"problemDescription":"Lack of hot water","subProblem":null,"location":"HANDSINK(S)","subLocation":null,"corrected":"True","daysToCorrect":"10","correctedDate":"2020-02-12T00:00:00","correctionDescription":null},{"violationCode":"4-501.19","violationDescription":"The temperature of the wash solution in manual WAREWASHING EQUIPMENT shall be maintained at not less than 110 F or the temperature specified on the cleaning agent manufacturer's label instructions. (Pf)\n","violationType":"Foundation","itemDescription":"Manual warewash wash solution","subItem":null,"problemDescription":"Below 110 degrees F","subProblem":null,"location":"THREE COMPARTMENT SINK","subLocation":null,"corrected":"True","daysToCorrect":"10","correctedDate":"2020-02-12T00:00:00","correctionDescription":null}]}]}],"maxInspectionDate":[{"inspectionDate":"2022-07-25T00:00:00"}]}},"pageContext":{"eid":"51623135"}},"staticQueryHashes":["3649515864","63159454"]}