{"data":{"postgres":{"establishment":[{"establishmentid":"51622794","name":"Spread Deli","address":"4215 Cass Ave","zipcode":"48201","owner":"Tersion Yatooma","licenseNumber":"230530","licenseType":"Fixed Establishment","establishmentType":"Food Service Establishment","establishmentStatus":"Open","riskCategory":"Medium","reviewFrequencyDays":"365.0","coords":"-83.06370,42.35066","geojson":{"id":"51622794","type":"Feature","geometry":{"type":"Point","coordinates":[-83.063696815,42.3506572850001]},"properties":{"name":"Spread Deli","owner":"Tersion Yatooma","address":"4215 Cass Ave","zipcode":"48201","license_type":"Fixed Establishment","risk_category":"Medium","license_number":"230530","establishmentid":"51622794","establishment_type":"Food Service Establishment","establishment_status":"Open","review_frequency_days":"365.0","most_recent_license_date":"10/26/2018"}},"nearbyList":[{"establishmentid":"5380","name":"Alley Taco","address":"418 Willis St","zipcode":"48201"},{"establishmentid":"51622811","name":"Avalon International Breads","address":"422 W Willis St","zipcode":"48201"},{"establishmentid":"5056","name":"Treat Dreams","address":"4160 Cass Ave","zipcode":"48201"},{"establishmentid":"5386","name":"Detroit Royale with Cheese","address":"4163 Cass Ave","zipcode":"48201"},{"establishmentid":"51622641","name":"Fresh 101 Superfood Cafe","address":"4240 Cass Ave Ste. 100","zipcode":"48201"},{"establishmentid":"4608","name":"Go! Sy Thai","address":"4240 Cass Ave","zipcode":"48201"},{"establishmentid":"51622479","name":"Tou & Mai","address":"4240 Cass Ste 102","zipcode":"48201"},{"establishmentid":"4646","name":"La Feria Spanish Tapas","address":"4130 Cass Ave","zipcode":"48201"},{"establishmentid":"5042","name":"Slows On The Go Mobile Kitchen","address":"4107 Cass Ave","zipcode":"48201"},{"establishmentid":"4152","name":"Slows To Go","address":"4107 Cass Ave","zipcode":"48201"},{"establishmentid":"4941","name":"Jolly Pumpkin Pizzeria","address":"441 W Canfield St","zipcode":"48201"},{"establishmentid":"4919","name":"Shinola Coffee Bar","address":"441 W Canfield St","zipcode":"48202"},{"establishmentid":"718","name":"Mario's","address":"4222 Second Ave","zipcode":"48201"},{"establishmentid":"1337","name":"Old Miami Bar","address":"3930 Cass Ave","zipcode":"48201"},{"establishmentid":"5126","name":"Will Leather Goods Coffee Shop","address":"4120 Second Ave","zipcode":"48201"},{"establishmentid":"4657","name":"Traffic Jam-Snug/Bakery","address":"511 W Canfield St","zipcode":"48201"},{"establishmentid":"235","name":"Traffic Jam-Snug","address":"4268 Second Ave","zipcode":"48201"},{"establishmentid":"4658","name":"Traffic Jam-Snug/Brewery","address":"4268 Second Ave","zipcode":"48201"},{"establishmentid":"51622629","name":"Le Petit Zinc ","address":"70 W Alexanderine St","zipcode":"48201"},{"establishmentid":"5276","name":"2941 Street Foods of Midtown","address":"4219 Woodward Ave","zipcode":"48201"}],"inspectionsByEstablishmentidList":[{"inspectionid":"44643","inspectionDate":"2018-11-27T00:00:00","inspectionType":"Routine Inspection","inCompliance":"No","violationsByInspectionidList":[{"violationCode":"3-101.11","violationDescription":"FOOD shall be safe, unADULTERATED and honestly presented. (P)\r\n","violationType":"Priority","itemDescription":"Food","subItem":"","problemDescription":"Not safe","subProblem":"","location":"FACILITY","subLocation":"","corrected":"Yes","daysToCorrect":"10.0","correctedDate":"2018-11-27T00:00:00","correctionDescription":"Discard."},{"violationCode":"5-103.11","violationDescription":"(A) The water source and system shall be of sufficient capacity to meet the peak water demands of the FOOD ESTABLISHMENT. (Pf)\r\n(B) Hot water generation and distribution systems shall be sufficient to meet the peak hot water demands throughout the FOOD ESTABLISHMENT. (Pf)\r\n","violationType":"Foundation","itemDescription":"Water source and system","subItem":"","problemDescription":"Insufficient to meet demands","subProblem":"","location":"RESTROOM (UNISEX)","subLocation":"","corrected":"No","daysToCorrect":"10.0","correctedDate":null,"correctionDescription":"Provide sufficient water pressure to meet demand of use."}]},{"inspectionid":"44031","inspectionDate":"2018-10-30T00:00:00","inspectionType":"Plan Review/Pre-Open","inCompliance":"Yes","violationsByInspectionidList":[{"violationCode":"5-103.11","violationDescription":"(A) The water source and system shall be of sufficient capacity to meet the peak water demands of the FOOD ESTABLISHMENT. (Pf)\r\n(B) Hot water generation and distribution systems shall be sufficient to meet the peak hot water demands throughout the FOOD ESTABLISHMENT. (Pf)\r\n","violationType":"Foundation","itemDescription":"Hot water supply","subItem":"","problemDescription":"Insufficient to meet demands","subProblem":"","location":"DISHWASHING AREA","subLocation":"At the Three compartment sink","corrected":"Yes","daysToCorrect":"10.0","correctedDate":"2018-11-02T00:00:00","correctionDescription":"Provide sufficient supply if hot water such as a larger or additional hot water heater."},{"violationCode":"6-201.17","violationDescription":"(A) Except as otherwise allowed by law, attachments to walls and ceilings such as light fixtures, mechanical room ventilation system components, vent covers, wall mounted fans, decorative items, and other attachments shall be EASILY CLEANABLE.\r\n(B) In a CONSUMER area, wall and ceiling surfaces and decorative items and attachments that are provided for ambiance need not meet this requirement if they are kept clean.\r\n","violationType":"Core","itemDescription":"Wall attachment(s)","subItem":"ventilation system components","problemDescription":"Not easily cleanable","subProblem":"","location":"SERVICE AREA","subLocation":"At the Ceiling (s)","corrected":"Yes","daysToCorrect":"30.0","correctedDate":"2018-11-02T00:00:00","correctionDescription":"Repair/replace to be easily cleanable."},{"violationCode":"5-501.16","violationDescription":"(A) An inside storage room and area and outside storage area and enclosure, and receptacles shall be of sufficient capacity to hold REFUSE, recyclables, and returnables that accumulate.   \r\n(B) A receptacle shall be provided in each area of the FOOD ESTABLISHMENT or PREMISES where REFUSE is generated or commonly discarded, or where recyclables or returnables are placed.   \r\n(C) If disposable towels are used at handwashing lavatories, a waste receptacle shall be located at each lavatory or group of adjacent lavatories.\r\n","violationType":"Core","itemDescription":null,"subItem":"","problemDescription":null,"subProblem":"","location":"SERVICE AREA","subLocation":"","corrected":"Yes","daysToCorrect":"30.0","correctedDate":"2018-11-02T00:00:00","correctionDescription":null},{"violationCode":"6-201.16","violationDescription":"(A) Wall and ceiling covering materials shall be attached so that they are EASILY CLEANABLE.\r\n(B) Except in areas used only for dry storage, concrete, porous blocks, or bricks used for indoor wall construction shall be finished and SEALED to provide a SMOOTH, nonabsorbent, EASILY CLEANABLE surface.\r\n","violationType":"Core","itemDescription":"Wall/ceiling covering(s)","subItem":"","problemDescription":"Not attached","subProblem":"","location":"DISHWASHING AREA","subLocation":"Near the Handsink","corrected":"Yes","daysToCorrect":"30.0","correctedDate":"2018-11-02T00:00:00","correctionDescription":"Securely attach to wall/ceiling."},{"violationCode":"4-501.11","violationDescription":"EQUIPMENT shall be maintained in a state of repair and condition that meets the requirements of the code.\r\n","violationType":"Core","itemDescription":"Equipment","subItem":"","problemDescription":null,"subProblem":"","location":"SERVICE AREA","subLocation":"At the Cooler (display)","corrected":"Yes","daysToCorrect":"30.0","correctedDate":"2018-11-02T00:00:00","correctionDescription":null}]}]}]}},"pageContext":{"eid":"51622794"}}