{"data":{"site":{"pathPrefix":"/restaurant-inspections"},"postgres":{"establishment":[{"establishmentid":"5084","name":"Word In Action Christian Center","address":"19780 Meyers","zipcode":"48227","owner":"Word In Action Christain C.","licenseNumber":"200047","licenseType":"Fixed Establishment","establishmentType":"Food Service Establishment","establishmentStatus":"Open","riskCategory":"Medium","reviewFrequencyDays":"365.0","coords":"-83.17041,42.43765","geojson":{"id":"5084","type":"Feature","geometry":{"type":"Point","coordinates":[-83.170406729,42.4376532420001]},"properties":{"name":"Word In Action Christian Center","owner":"Word In Action Christain C.","address":"19780 Meyers","zipcode":"48227","license_type":"Fixed Establishment","risk_category":"Medium","license_number":"200047","establishmentid":"5084","establishment_type":"Food Service Establishment","establishment_status":"Open","review_frequency_days":"365.0","most_recent_license_date":"4/27/2018"}},"nearbyList":[{"establishmentid":"912","name":"International Preparatory Academy","address":"4201 W Outer Dr","zipcode":"48238"},{"establishmentid":"723","name":"Motor City Soul Food","address":"12700 W Seven Mile Rd","zipcode":"48235"},{"establishmentid":"669","name":"Lotus Gardens","address":"12832 W Seven Mile Rd","zipcode":"48235"},{"establishmentid":"5280","name":"Capital Hook Fish & Chicken Inc","address":"10600 W Seven Mile Rd","zipcode":"48221"},{"establishmentid":"5403","name":"Detroit Shawarma/Spice Giant","address":"12729 W Seven Mile Rd","zipcode":"48235"},{"establishmentid":"4098","name":"Checkers #3310","address":"10711 W Seven Mile Rd","zipcode":"48221"},{"establishmentid":"825","name":"Bates Academy","address":"19701 Wyoming Ave","zipcode":"48221"},{"establishmentid":"588","name":"Hot Tamales","address":"13109 W Eight Mile Rd","zipcode":"48235"},{"establishmentid":"3879","name":"Franks Anatra","address":"18700 Meyers","zipcode":"48221"},{"establishmentid":"1869","name":"Little Caesar's Pizza #24","address":"10200 W Seven Mile Rd","zipcode":"48221"}],"inspectionsByEstablishmentidList":[{"inspectionid":"44792","inspectionDate":"2019-01-09T00:00:00","inspectionType":"Routine Inspection","inCompliance":"Yes","violationsByInspectionidList":[{"violationCode":"MFL289.2129","violationDescription":"Sec. 2129. (1) All of the following food establishments shall employ a minimum of 1 managerial employee who is currently certified under a personnel certification program accredited by the American national standards institute, utilizing the conference for food protection standards:  (a) A food service establishment that is not any of the following:    (i) Operating under a temporary food service establishment license.  (ii) A vending machine location.     (b) An extended retail food establishment.  (c) Operated within a retail grocery.  (2) An individual certified under subsection (1) shall be recognized with full faith and credit by the state and all local units of government throughout the state.  (3) The department may promulgate rules to do all of the following:  (a) Develop requirements for retail food establishments to follow when employing certified food safety managers or personnel.  (b) Set a reasonable date for compliance with the requirements under subdivision (a) taking into consideration existing local personnel certification requirements.  (c) Establish certification fees necessary to implement, maintain, and track certified individuals directly or by contract. The department may annually adjust the schedule of fees to provide that the fee charged is sufficient to cover the cost of the certification tracking program.  (d) Implement and enforce the requirements described in subdivision (a).    (4) The certification program developed by the American national standards institute, as it exists on April 1, 2008 , is incorporated by reference. The department may adopt updates to the certification program accreditation standards in subsection (1) by rule.     (5) This section does not prohibit any local legislative body from implementing a food handler program, an employee health certification program, or a manager certification program, if it is not in conflict with this section.","violationType":"Core","itemDescription":"Person-in-charge","subItem":"","problemDescription":null,"subProblem":"","location":"FACILITY","subLocation":"","corrected":"Not required","daysToCorrect":"30.0","correctedDate":null,"correctionDescription":null},{"violationCode":"5-501.17","violationDescription":"A toilet room used by females shall be provided with a covered receptacle for sanitary napkins.\r\n","violationType":"Core","itemDescription":"Covered waste receptacle(s)","subItem":"","problemDescription":"Not provided","subProblem":"","location":"RESTROOM (UNISEX)","subLocation":"","corrected":"Not required","daysToCorrect":"30.0","correctedDate":null,"correctionDescription":"Provide."}]},{"inspectionid":"40594","inspectionDate":"2017-10-26T00:00:00","inspectionType":"Routine Inspection","inCompliance":"Yes","violationsByInspectionidList":[]},{"inspectionid":"36916","inspectionDate":"2016-10-27T00:00:00","inspectionType":"Routine Inspection","inCompliance":"Yes","violationsByInspectionidList":[]}]}],"maxInspectionDate":[{"inspectionDate":"2019-01-31T00:00:00"}]}},"pageContext":{"eid":"5084"}}