{"data":{"site":{"pathPrefix":"/restaurant-inspections"},"postgres":{"establishment":[{"establishmentid":"51623027","name":"The Aretha Franklin-Concession","address":"2600 Atwater St","zipcode":"48207","owner":"The Right Productions, Inc.","licenseNumber":"237712","licenseType":"Fixed Establishment","establishmentType":"Food Service Establishment","establishmentStatus":"Seasonal","riskCategory":"Medium","reviewFrequencyDays":"365","coords":"-83.02096,42.33508","geojson":{"id":"51623027","type":"Feature","geometry":{"type":"Point","coordinates":[-83.02096049,42.335076186]},"properties":{"name":"The Aretha Franklin-Concession","owner":"The Right Productions, Inc.","address":"2600 Atwater St","zipcode":"48207","license_type":"Fixed Establishment","risk_category":"Medium","license_number":"237712","establishmentid":"51623027","establishment_type":"Food Service Establishment","establishment_status":"Seasonal","review_frequency_days":"365","most_recent_license_date":"5/26/2020"}},"nearbyList":[{"establishmentid":"2620","name":"The Aretha Franklin Amphiteatre","address":"2600 Atwater St","zipcode":"48207"},{"establishmentid":"51623028","name":"The Aretha Franklin-Bars","address":"2600 Atwater St","zipcode":"48207"},{"establishmentid":"4100","name":"University Prep Science & Math High ","address":"2664 Franklin St","zipcode":"48226"},{"establishmentid":"5143","name":"Atwater Brewery","address":"237 Joseph Campau St","zipcode":"48207"},{"establishmentid":"1247","name":"Andrew's on the Corner","address":"201 Joseph Campau Ave","zipcode":"48207"},{"establishmentid":"3974","name":"River Place Bar & Grill","address":"225 Joseph Campau","zipcode":"48201"},{"establishmentid":"5206","name":"Bucharest Grill","address":"2684 E Jefferson Ave","zipcode":"48207"},{"establishmentid":"456","name":"Lucky Dragon","address":"2664 E Jefferson Ave","zipcode":"48207"},{"establishmentid":"3425","name":"They Say/Dunco Holding LLC","address":"267 Joseph Campau Ave","zipcode":"48207"},{"establishmentid":"1450","name":"Rattlesnake Club","address":"300 River Place","zipcode":"48207"}],"inspectionsByEstablishmentidList":[{"inspectionid":"48244","inspectionDate":"2019-06-26T00:00:00","inspectionType":"Routine Inspection","inCompliance":"Yes","violationsByInspectionidList":[{"violationCode":"4-501.11","violationDescription":"EQUIPMENT shall be maintained in a state of repair and condition that meets the requirements of the code.\r\n","violationType":"Core","itemDescription":"Equipment","subItem":"","problemDescription":"In poor repair","subProblem":"","location":"BAR-B-Q-WORLD","subLocation":"At the Freezer(s)","corrected":"Not required","daysToCorrect":"30","correctedDate":null,"correctionDescription":null},{"violationCode":"4-501.11","violationDescription":"EQUIPMENT shall be maintained in a state of repair and condition that meets the requirements of the code.\r\n","violationType":"Core","itemDescription":"Equipment components","subItem":"","problemDescription":"In poor repair","subProblem":"Broken","location":"BAR-B-Q-WORLD","subLocation":"At the Grease extraction filters","corrected":"Not required","daysToCorrect":"30","correctedDate":null,"correctionDescription":null},{"violationCode":"3-305.11","violationDescription":"FOOD shall be protected from contamination by storing the FOOD:\r\n(1)     In a clean, dry location;\r\n(2)     Where it is not exposed to splash, dust, or other contamination; and\r\n(3)     At least 15 cm (6 inches) above the floor, unless otherwise approved.\r\n","violationType":"Core","itemDescription":"Food item(s) in storage","subItem":"","problemDescription":"Stored on floor or less than 6 inches above floor","subProblem":"","location":"LOWER LEVEL","subLocation":"At the Storage room","corrected":"Not required","daysToCorrect":"30","correctedDate":null,"correctionDescription":null},{"violationCode":"4-202.18","violationDescription":"Filters or other grease extracting EQUIPMENT shall be designed to be readily removable for cleaning and replacement if not designed to be cleaned in place.\r\n","violationType":"Core","itemDescription":"Ventilation hood filter(s)","subItem":"","problemDescription":null,"subProblem":"","location":"MAIN CONCESSIONS #1","subLocation":"Missing Grease extraction filters","corrected":"Not required","daysToCorrect":"30","correctedDate":null,"correctionDescription":null},{"violationCode":"4-903.11","violationDescription":"Cleaned EQUIPMENT and UTENSILS, laundered LINENS, and SINGLE-SERVICE and SINGLE-USE ARTICLES shall be stored in an approved manner and location.\r\n","violationType":"Core","itemDescription":"Single-service/single-use article(s)","subItem":"","problemDescription":"Stored with food-contact portion exposed","subProblem":"","location":"MAIN CONCESSIONS #1","subLocation":"At the Single service items","corrected":"Not required","daysToCorrect":"30","correctedDate":null,"correctionDescription":null}]}]}],"maxInspectionDate":[{"inspectionDate":"2020-05-29T00:00:00"}]}},"pageContext":{"eid":"51623027"}}