{"componentChunkName":"component---src-templates-establishment-page-js","path":"/establishment/51623401","result":{"data":{"site":{"pathPrefix":"/restaurant-inspections"},"postgres":{"establishment":[{"establishmentid":"51623401","name":"South West Thai","address":"1945 Sharon","zipcode":"48209","owner":"Edgar Nigoche","licenseNumber":"255112","licenseType":"Special Transitory Food Unit","establishmentType":"LHD - Special Transitory Food","establishmentStatus":"Plan Review","riskCategory":null,"reviewFrequencyDays":null,"coords":"-83.13422,42.30649","geojson":{"id":"51623401","type":"Feature","geometry":{"type":"Point","coordinates":[-83.134219267,42.30649043]},"properties":{"name":"South West Thai","owner":"Edgar Nigoche","address":"1945 Sharon","zipcode":"48209","license_type":"Special Transitory Food Unit","risk_category":null,"license_number":"255112","establishmentid":"51623401","establishment_type":"LHD - Special Transitory Food","establishment_status":"Plan Review","review_frequency_days":null,"most_recent_license_date":"2/8/2021"}},"nearbyList":[{"establishmentid":"51623434","name":"El Mayab Cocina Yucateca LLC","address":"8845 Mason Place","zipcode":"48209"},{"establishmentid":"3237","name":"Domino's Pizza #1090","address":"8928 Vernor St. W.","zipcode":"48209"},{"establishmentid":"51623876","name":"A & S Fish & Chicken LLC ","address":"8928 W. Vernor ","zipcode":"48209"},{"establishmentid":"51623276","name":"Taco Naco","address":"9040 Vernor","zipcode":"48209"},{"establishmentid":"4571","name":"WAY Academy Southwest Campus","address":"8701 W.Vernor","zipcode":"48209"},{"establishmentid":"1356","name":"SW Det Lodge #1870 Loo Moose","address":"2034 Lawndale","zipcode":"48209"},{"establishmentid":"2596","name":"Character First Cafe","address":"8626 Vernor W.","zipcode":"48209"},{"establishmentid":"3640","name":"Inferno Rotisseria & Chargrill","address":"8626  Vernor St. W.","zipcode":"48209"},{"establishmentid":"5302","name":"Estos Garage","address":"9227 Mason Place","zipcode":"48209"},{"establishmentid":"5037","name":"La Nena's Sabor De Mami","address":"8600 Venor Hwy. W.","zipcode":"48209"}],"inspectionsByEstablishmentidList":[{"inspectionid":"55573","inspectionDate":"2021-08-12T00:00:00","inspectionType":"Preopening/New","inCompliance":"No","violationsByInspectionidList":[{"violationCode":"6-201.11","violationDescription":"Except otherwise approved, and except for antislip floor coverings or applications may be used for safety reasons, floors, floor coverings, walls, wall coverings, and ceilings shall be designed, constructed, and installed so they are SMOOTH and EASILY CLEANABLE.\n","violationType":"Core","itemDescription":"wall(s)","subItem":"","problemDescription":"Not constructed, designed, installed to be","subProblem":"","location":"THROUGHOUT FACILITY","subLocation":"The Wall(s)","corrected":"False","daysToCorrect":"30","correctedDate":null,"correctionDescription":"Repair/replace to be smooth and easily cleanable."},{"violationCode":"5-205.15","violationDescription":"A PLUMBING SYSTEM shall be:\n(A) Repaired according to LAW; (P) and\n(B) Maintained in good repair.\n","violationType":"Core","itemDescription":"Plumbing system","subItem":"drain line(s)","problemDescription":"Not maintained","subProblem":"","location":"THREE COMPARTMENT SINK","subLocation":"","corrected":"False","daysToCorrect":"10","correctedDate":null,"correctionDescription":"Maintain in good repair"}]}]}],"maxInspectionDate":[{"inspectionDate":"2023-04-13T00:00:00"}]}},"pageContext":{"eid":"51623401"}},"staticQueryHashes":["3649515864","63159454"]}