{"data":{"site":{"pathPrefix":"/restaurant-inspections"},"postgres":{"establishment":[{"establishmentid":"4938","name":"UFO Factory","address":"2110 Trumbull St","zipcode":"48207","owner":"Aliccia Bolling-Fisher","licenseNumber":"081268","licenseType":"Fixed Establishment","establishmentType":"Food Service Establishment","establishmentStatus":"Plan Review","riskCategory":"Medium","reviewFrequencyDays":"365","coords":"-83.06698,42.33217","geojson":{"id":"4938","type":"Feature","geometry":{"type":"Point","coordinates":[-83.066979454,42.332168716]},"properties":{"name":"UFO Factory","owner":"Aliccia Bolling-Fisher","address":"2110 Trumbull St","zipcode":"48207","license_type":"Fixed Establishment","risk_category":"Medium","license_number":"081268","establishmentid":"4938","establishment_type":"Food Service Establishment","establishment_status":"Plan Review","review_frequency_days":"365","most_recent_license_date":"4/28/2019"}},"nearbyList":[{"establishmentid":"51622941","name":"Michigan & Trumbull","address":"1441 W Elizabeth St","zipcode":"48216"},{"establishmentid":"500","name":"McShane's","address":"1460 Michigan Ave","zipcode":"48216"},{"establishmentid":"4105","name":"Onassis Coney Island","address":"1501 Michigan Ave","zipcode":"48226"},{"establishmentid":"4648","name":"Ottava Via","address":"1400 Michigan Ave","zipcode":"48226"},{"establishmentid":"1409","name":"Manna Meals","address":"1950 Trumbull Ave","zipcode":"48216"},{"establishmentid":"545","name":"Nemos","address":"1378 Michigan Ave","zipcode":"48226"},{"establishmentid":"4781","name":"Bucharest Grill","address":"1623 Michigan Ave","zipcode":"48216"},{"establishmentid":"51622639","name":"Meta Physica Wellness Center","address":"1701 Trumbull Ste 3","zipcode":"48216"},{"establishmentid":"51623053","name":"Mink","address":"1701 Trumbull Ste D","zipcode":"48216"},{"establishmentid":"51622591","name":"The Farmer's Hand LLC /DBA Folk","address":"1701 Trumbull Ste B","zipcode":"48216"}],"inspectionsByEstablishmentidList":[{"inspectionid":"49431","inspectionDate":"2019-10-10T00:00:00","inspectionType":"Routine Inspection","inCompliance":"Yes","violationsByInspectionidList":[{"violationCode":"7-201.11","violationDescription":"POISONOUS OR TOXIC MATERIAL shall be stored so they can not contaminate FOOD, EQUIPMENT, UTENSILS, LINENS, AND SINGLE-SERVICE AND SINGLE-USE ARTICLES by:   \r\n(A) Separating the POISONOUS OR TOXIC MATERIAL by spacing or partitioning; (P) and   \r\n(B) Locating the POISONOUS OR TOXIC MATERIAL in an area that is not above FOOD, EQUIPMENT, UTENSILS, LINENS, AND SINGLE-SERVICE AND SINGLE-USE ARTICLES.  This paragraph does not apply to EQUIPMENT and UTENSIL cleaners and sanitizers that are stored in WAREWASHING areas for availability and convenience if the materials are stored to prevent contamination of FOOD, EQUIPMENT, UTENSILS, LINENS, AND SINGLE-SERVICE and SINGLE-USE ARTICLES. (P)","violationType":"Priority","itemDescription":"Poisonous/toxic material(s)","subItem":"","problemDescription":"Not separated from","subProblem":"Food","location":"BAR","subLocation":"Under the Popcorn machine","corrected":"Yes","daysToCorrect":"10","correctedDate":"2019-10-10T00:00:00","correctionDescription":null},{"violationCode":"6-303.11","violationDescription":"Light of the proper intensity shall be provided as specified.\r\n","violationType":"Core","itemDescription":"Lighting intensity","subItem":"at work levels","problemDescription":"Not maintained","subProblem":"","location":"KITCHEN","subLocation":"At the Lights","corrected":"Not required","daysToCorrect":"30","correctedDate":null,"correctionDescription":null}]},{"inspectionid":"44231","inspectionDate":"2018-10-15T00:00:00","inspectionType":"Routine Inspection","inCompliance":"No","violationsByInspectionidList":[{"violationCode":"4-302.14","violationDescription":"A test kit or other device that accurately measures the concentration in mg/L of SANITIZING solutions shall be provided. (Pf)\r\n","violationType":"Foundation","itemDescription":"Sanitizer test kit","subItem":"","problemDescription":"Not provided","subProblem":"","location":"FACILITY","subLocation":"","corrected":"No","daysToCorrect":"10","correctedDate":null,"correctionDescription":"Provide."}]},{"inspectionid":"39168","inspectionDate":"2017-07-07T00:00:00","inspectionType":"Routine Inspection","inCompliance":"Yes","violationsByInspectionidList":[{"violationCode":"3-305.11","violationDescription":"FOOD shall be protected from contamination by storing the FOOD:\r\n(1)     In a clean, dry location;\r\n(2)     Where it is not exposed to splash, dust, or other contamination; and\r\n(3)     At least 15 cm (6 inches) above the floor, unless otherwise approved.\r\n","violationType":"Core","itemDescription":"Food item(s) in storage","subItem":"","problemDescription":"Stored on floor or less than 6 inches above floor","subProblem":"","location":"BAR","subLocation":"Under the Bar","corrected":"Yes","daysToCorrect":"30","correctedDate":"2017-07-07T00:00:00","correctionDescription":"Store at least 6 inches above the floor."}]}]}],"maxInspectionDate":[{"inspectionDate":"2020-05-29T00:00:00"}]}},"pageContext":{"eid":"4938"}}