{"data":{"site":{"pathPrefix":"/restaurant-inspections"},"postgres":{"establishment":[{"establishmentid":"51622765","name":"Belle Isles Bites","address":"1 Inselruhe Ave","zipcode":"48207","owner":"Sam's Family Concessions","licenseNumber":"229226","licenseType":"Fixed Establishment","establishmentType":"Food Service Establishment","establishmentStatus":"Seasonal","riskCategory":null,"reviewFrequencyDays":"90.0","coords":"-82.98421,42.33547","geojson":{"id":"51622765","type":"Feature","geometry":{"type":"Point","coordinates":[-82.9842115929999,42.3354745820001]},"properties":{"name":"Belle Isles Bites","owner":"Sam's Family Concessions","address":"1 Inselruhe Ave","zipcode":"48207","license_type":"Fixed Establishment","risk_category":null,"license_number":"229226","establishmentid":"51622765","establishment_type":"Food Service Establishment","establishment_status":"Seasonal","review_frequency_days":"90.0","most_recent_license_date":"5/23/2018"}},"nearbyList":[{"establishmentid":"1258","name":"Belle Isle Casino","address":"1 Casino Way","zipcode":"48207"},{"establishmentid":"2497","name":"8330 on the River","address":"8330 E Jefferson Ave","zipcode":"48214"},{"establishmentid":"4984","name":"Four Seasons Catering LLC","address":"8000 E Jefferson","zipcode":"48214"},{"establishmentid":"1091","name":"River Towers Apartments","address":"7800 E Jefferson Ave","zipcode":"48214"},{"establishmentid":"51622626","name":"The Whittier Tower Bar","address":"415 Burns Drive","zipcode":"48217"},{"establishmentid":"51622516","name":"The In Les Place","address":"415 Burns St","zipcode":"48214"},{"establishmentid":"1870","name":"Belle Isle Pizza (fka) Garalino's Pizza","address":"7869 E Jefferson Ave","zipcode":"48214"},{"establishmentid":"51622587","name":"The River House Chicken & Waffles","address":"8900 E Jefferson","zipcode":"48214"},{"establishmentid":"5054","name":"Belle Isle Krispy Crunchy Chicken","address":"7255 E Jefferson Ave","zipcode":"48214"},{"establishmentid":"2242","name":"Tim Hortons","address":"7201 E Jefferson Ave","zipcode":"48214"}],"inspectionsByEstablishmentidList":[{"inspectionid":"42333","inspectionDate":"2018-05-25T00:00:00","inspectionType":"Routine Inspection","inCompliance":"Yes","violationsByInspectionidList":[{"violationCode":"4-302.12","violationDescription":"(A) FOOD TEMPERATURE MEASURING DEVICES shall be provided and readily accessible for use in ensuring attainment and maintenance of FOOD temperatures as specified under Chapter 3. (Pf)   \r\n(B) A TEMPERATURE MEASURING DEVICE with a suitable small-diameter probe that is designed to measure the temperature of thin masses shall be provided and readily accessible to accurately measure the temperature in thin FOODS such as MEAT patties and FISH filets. (Pf)\r\n","violationType":"Foundation","itemDescription":"Food thermometer(s)","subItem":"probe","problemDescription":"Not provided","subProblem":"","location":"KITCHEN","subLocation":"No Digital Thermometer","corrected":"Yes","daysToCorrect":"10.0","correctedDate":"2018-05-27T00:00:00","correctionDescription":"Provide as required"},{"violationCode":"6-303.11","violationDescription":"Light of the proper intensity shall be provided as specified.\r\n","violationType":"Core","itemDescription":"Lighting intensity","subItem":"at work levels","problemDescription":"Not maintained","subProblem":"","location":"KITCHEN","subLocation":"Missing Light bulb(s)","corrected":"Not required","daysToCorrect":"30.0","correctedDate":null,"correctionDescription":"Maintain in good repair"},{"violationCode":"6-202.11","violationDescription":"Except as otherwise approved, light bulbs shall be shielded, coated, or otherwise shatter-resistant in areas where there is exposed FOOD; clean EQUIPMENT, UTENSILS, and LINENS; or unwrapped SINGLE-SERVICE and SINGLE-USE ARTICLES.\r\n","violationType":"Core","itemDescription":"Light shielding","subItem":"","problemDescription":"Not provided","subProblem":"In prep area","location":"KITCHEN","subLocation":"Missing Light Shield(s)","corrected":"Yes","daysToCorrect":"30.0","correctedDate":"2018-05-27T00:00:00","correctionDescription":"Provide adequate light shields and end caps or shatter-proof bulbs."},{"violationCode":"6-501.12","violationDescription":"(A) PHYSICAL FACILITIES shall be cleaned as often as necessary to keep them clean.\r\n(B) Except spill cleanup, cleaning shall be done during periods when the least amount of FOOD is exposed such as after closing. ","violationType":"Core","itemDescription":"Physical facilities/structures","subItem":"walls","problemDescription":"Soiled","subProblem":"","location":"KITCHEN","subLocation":"At customer seat booths Wall (North)","corrected":"Not required","daysToCorrect":"30.0","correctedDate":null,"correctionDescription":"Keep clean."}]}]}],"maxInspectionDate":[{"inspectionDate":"2019-03-31T00:00:00"}]}},"pageContext":{"eid":"51622765"}}