{"data":{"site":{"pathPrefix":"/restaurant-inspections"},"postgres":{"establishment":[{"establishmentid":"2019","name":"Papa's Pizza","address":"14308 Gratiot Ave","zipcode":"48205","owner":"Naiel Almaki","licenseNumber":"061968","licenseType":"Fixed Establishment","establishmentType":"Food Service Establishment","establishmentStatus":"Open","riskCategory":null,"reviewFrequencyDays":"180.0","coords":"-82.97749,42.43526","geojson":{"id":"2019","type":"Feature","geometry":{"type":"Point","coordinates":[-82.9774907569999,42.435264126]},"properties":{"name":"Papa's Pizza","owner":"Naiel Almaki","address":"14308 Gratiot Ave","zipcode":"48205","license_type":"Fixed Establishment","risk_category":null,"license_number":"061968","establishmentid":"2019","establishment_type":"Food Service Establishment","establishment_status":"Open","review_frequency_days":"180.0","most_recent_license_date":null}},"nearbyList":[{"establishmentid":"51623093","name":"Daily Catch Fish, Chicken & Shrimp","address":"14308 Gratiot Ave","zipcode":"48205"},{"establishmentid":"5389","name":"Daily Catch Fish & Chicken","address":"14308 Gratiot Ave","zipcode":"48205"},{"establishmentid":"3787","name":"V I P Koney Island","address":"14300 Gratiot Ave","zipcode":"48205"},{"establishmentid":"1176","name":"Church's Fried Chicken #974","address":"14260 Gratiot Ave","zipcode":"48205"},{"establishmentid":"1290","name":"McDonald's Restaurant","address":"14271 Gratiot Ave","zipcode":"48205"},{"establishmentid":"2049","name":"Popeye's Chicken & Biscuits","address":"14180 Gratiot Ave","zipcode":"48205"},{"establishmentid":"4822","name":"Captain Jay's Fish & Chicken #107","address":"14205 Gratiot Ave","zipcode":"48205"},{"establishmentid":"5166","name":"Detroit Blues Cafe","address":"14493 Gratiot Ave","zipcode":"48205"},{"establishmentid":"1083","name":"Chan's  Chinese Restaurant","address":"14537 Gratiot Ave","zipcode":"48205"},{"establishmentid":"308","name":"Capers","address":"14726 Gratiot Ave","zipcode":"48205"}],"inspectionsByEstablishmentidList":[{"inspectionid":"49887","inspectionDate":"2019-10-28T00:00:00","inspectionType":"Routine Inspection","inCompliance":"Yes","violationsByInspectionidList":[{"violationCode":"6-501.12","violationDescription":"(A) PHYSICAL FACILITIES shall be cleaned as often as necessary to keep them clean.\r\n(B) Except spill cleanup, cleaning shall be done during periods when the least amount of FOOD is exposed such as after closing. ","violationType":"Core","itemDescription":"Physical facilities/structures","subItem":"","problemDescription":"Not clean","subProblem":"","location":"FLOOR","subLocation":"","corrected":"Not required","daysToCorrect":"30.0","correctedDate":null,"correctionDescription":null},{"violationCode":"4-602.13","violationDescription":"NonFOOD-CONTACT SURFACES of EQUIPMENT shall be cleaned at a frequency necessary to preclude accumulation of soil residues.\r\n","violationType":"Core","itemDescription":"Nonfood contact surface(s)","subItem":"","problemDescription":"Soiled","subProblem":"","location":"COOLER","subLocation":"","corrected":"Not required","daysToCorrect":"30.0","correctedDate":null,"correctionDescription":null}]},{"inspectionid":"49904","inspectionDate":"2019-03-26T00:00:00","inspectionType":"Routine Inspection","inCompliance":"Yes","violationsByInspectionidList":[{"violationCode":"5-205.11","violationDescription":"(A) A HANDWASHING SINK shall be maintained so that it is accessible at all times for EMPLOYEE use and used for no other purpose. (Pf)\r\n(B)  An automatic handwashing facility shall be used in accordance with manufacturer's instructions. (Pf)\r\n","violationType":"Foundation","itemDescription":"Handwashing sink(s)","subItem":"","problemDescription":"Used for culinary purposes","subProblem":"","location":"HANDSINK(S)","subLocation":"","corrected":"Yes","daysToCorrect":"10.0","correctedDate":"2019-03-26T00:00:00","correctionDescription":null},{"violationCode":"4-602.13","violationDescription":"NonFOOD-CONTACT SURFACES of EQUIPMENT shall be cleaned at a frequency necessary to preclude accumulation of soil residues.\r\n","violationType":"Core","itemDescription":"Nonfood contact surface(s)","subItem":"","problemDescription":"Soiled","subProblem":"","location":"COOLER","subLocation":"","corrected":"Not required","daysToCorrect":"30.0","correctedDate":null,"correctionDescription":null}]}]}],"maxInspectionDate":[{"inspectionDate":"2019-10-31T00:00:00"}]}},"pageContext":{"eid":"2019"}}