{"componentChunkName":"component---src-templates-establishment-page-js","path":"/establishment/51623427","result":{"data":{"site":{"pathPrefix":"/restaurant-inspections"},"postgres":{"establishment":[{"establishmentid":"51623427","name":"Ford Field- Beer/Bar Portables","address":"2000 Brush","zipcode":"48201","owner":"Levy Premium Food Service LP","licenseNumber":"070453","licenseType":"Fixed Establishment","establishmentType":"Food Service Establishment","establishmentStatus":"Open","riskCategory":null,"reviewFrequencyDays":"150","coords":"-83.04562,42.33984","geojson":{"id":"51623427","type":"Feature","geometry":{"type":"Point","coordinates":[-83.045622135,42.339842961]},"properties":{"name":"Ford Field- Beer/Bar Portables","owner":"Levy Premium Food Service LP","address":"2000 Brush","zipcode":"48201","license_type":"Fixed Establishment","risk_category":null,"license_number":"070453","establishmentid":"51623427","establishment_type":"Food Service Establishment","establishment_status":"Open","review_frequency_days":"150","most_recent_license_date":"29/4/2022"}},"nearbyList":[{"establishmentid":"4259","name":"Ford Field- Third Floor Concessions","address":"2000 Brush","zipcode":"48226"},{"establishmentid":"4260","name":"Ford Field- Employee Lounge","address":"2000 Brush","zipcode":"48226"},{"establishmentid":"4257","name":"Ford Field- First Floor Concessions","address":"2000 Brush","zipcode":"48226"},{"establishmentid":"4258","name":"Ford Field- Second Floor Concessions","address":"2000 Brush","zipcode":"48226"},{"establishmentid":"4255","name":"Ford Field- Levy Rest. (Main Kitchen)","address":"2000 Brush","zipcode":"48226"},{"establishmentid":"2290","name":"Ford Field","address":"2000 Brush","zipcode":"48226"},{"establishmentid":"2335","name":"Ah! Moore' Cafe","address":"2000 Brush Ste 200","zipcode":"48226"},{"establishmentid":"3900","name":"Gateway Deli","address":"2000 Brush","zipcode":"48207"},{"establishmentid":"4256","name":"Ford Field- Corner Lounge","address":"2000 Brush","zipcode":"48226"},{"establishmentid":"4261","name":"Ford Field- Food Portables","address":"2000 Brush","zipcode":"48226"}],"inspectionsByEstablishmentidList":[{"inspectionid":"56048","inspectionDate":"2021-09-26T00:00:00","inspectionType":"Routine Inspection","inCompliance":"Yes","violationsByInspectionidList":[{"violationCode":"3-307.11","violationDescription":"FOOD shall be protected from contamination that may result from a factor or source not specified under Subparts 3-301 - 3-306.\n","violationType":"Core","itemDescription":"Food","subItem":"","problemDescription":"Not protected","subProblem":"From contamination","location":"ESTABLISHMENT","subLocation":"At the Sanitizer bucket","corrected":"False","daysToCorrect":"30","correctedDate":null,"correctionDescription":null},{"violationCode":"3-305.11","violationDescription":"FOOD shall be protected from contamination by storing the FOOD:\n(1)     In a clean, dry location;\n(2)     Where it is not exposed to splash, dust, or other contamination; and\n(3)     At least 15 cm (6 inches) above the floor, unless otherwise approved.\n","violationType":"Core","itemDescription":"Food item(s) in storage","subItem":"","problemDescription":"Stored on floor or less than 6 inches above floor","subProblem":"","location":"ESTABLISHMENT","subLocation":"","corrected":"True","daysToCorrect":"30","correctedDate":"0001-01-01T00:00:00","correctionDescription":null}]},{"inspectionid":"56050","inspectionDate":"2021-09-24T00:00:00","inspectionType":"Routine Inspection","inCompliance":"Yes","violationsByInspectionidList":[]}]}],"maxInspectionDate":[{"inspectionDate":"2023-04-13T00:00:00"}]}},"pageContext":{"eid":"51623427"}},"staticQueryHashes":["3649515864","63159454"]}