{"componentChunkName":"component---src-templates-establishment-page-js","path":"/establishment/51623170","result":{"data":{"site":{"pathPrefix":"/restaurant-inspections"},"postgres":{"establishment":[{"establishmentid":"51623170","name":"Pack Yo Lunch","address":"17350 Livernois Rd","zipcode":"48221","owner":"Daneka Anthony","licenseNumber":"VT112219","licenseType":"Fixed Establishment","establishmentType":"Food Service Establishment","establishmentStatus":null,"riskCategory":null,"reviewFrequencyDays":null,"coords":"-83.14062,42.41977","geojson":{"id":"51623170","type":"Feature","geometry":{"type":"Point","coordinates":[-83.140616017,42.419773666]},"properties":{"name":"Pack Yo Lunch","owner":"Daneka Anthony","address":"17350 Livernois Rd","zipcode":"48221","license_type":"Fixed Establishment","risk_category":null,"license_number":"VT112219","establishmentid":"51623170","establishment_type":"Food Service Establishment","establishment_status":null,"review_frequency_days":null,"most_recent_license_date":null}},"nearbyList":[{"establishmentid":"224","name":"U Got Beef With Me","address":"17310 Livernois","zipcode":"48238"},{"establishmentid":"2325","name":"Mama Kim's Upbeat Soul Food","address":"17310 Livernois","zipcode":"48221"},{"establishmentid":"4903","name":"Babyback's Open Pit","address":"17310 Livernois Ave.","zipcode":"48221"},{"establishmentid":"2802","name":"DeDe's Famous Chicken & Waffles","address":"17310 Livernois","zipcode":"48221"},{"establishmentid":"1528","name":"Little Caesar's Pizza #167","address":"17200 Livernois Ave.","zipcode":"48221"},{"establishmentid":"1517","name":"Domino's Pizza #1176","address":"17520 Livernois","zipcode":"48221"},{"establishmentid":"5083","name":"Slappin Bones Bar-B-Q Chicken & Fish","address":"17521 Livernois Ave.","zipcode":"48221"},{"establishmentid":"5190","name":"D and D Cuisine LLC","address":"17521 Livernois Ave.","zipcode":"48221"},{"establishmentid":"331","name":"Gregg's Pizza BBQ","address":"17160 Livernois Ave.","zipcode":"48221"},{"establishmentid":"3986","name":"Captain Jay's Fish & Chicken #111","address":"17171 Livernois Ave.","zipcode":"48221"}],"inspectionsByEstablishmentidList":[{"inspectionid":"49949","inspectionDate":"2019-11-22T00:00:00","inspectionType":"Unlicensed Establish","inCompliance":"No","violationsByInspectionidList":[{"violationCode":"MFL289.4101","violationDescription":"Food establishment license;  scope.*  Sec. 4101. (1) Except as provided in section 4105, a person shall not operate a food  establishment unless licensed by the department as a food establishment.","violationType":"Priority","itemDescription":null,"subItem":"","problemDescription":null,"subProblem":"","location":"FACILITY","subLocation":"","corrected":"False","daysToCorrect":"10","correctedDate":null,"correctionDescription":"A Person in Charge is required to be present during all hours of operation."},{"violationCode":"MFL289.4101","violationDescription":"Food establishment license;  scope.*  Sec. 4101. (1) Except as provided in section 4105, a person shall not operate a food  establishment unless licensed by the department as a food establishment.","violationType":"Priority","itemDescription":null,"subItem":"","problemDescription":null,"subProblem":"","location":"","subLocation":"","corrected":"False","daysToCorrect":"10","correctedDate":null,"correctionDescription":null},{"violationCode":"8-301.11","violationDescription":"A PERSON may not operate a FOOD ESTABLISHMENT without a valid PERMIT to operate issued by the REGULATORY AUTHORITY.","violationType":"Foundation","itemDescription":"Retail food service establishment","subItem":"","problemDescription":"Does not cease operations due to","subProblem":"","location":"FACILITY","subLocation":"Above the ACCESS","corrected":"False","daysToCorrect":"10","correctedDate":null,"correctionDescription":"Cease operations immediately and take corrective measures prior to contacting health dept. to receive approval to reopen."}]}]}],"maxInspectionDate":[{"inspectionDate":"2023-04-13T00:00:00"}]}},"pageContext":{"eid":"51623170"}},"staticQueryHashes":["3649515864","63159454"]}