{"data":{"site":{"pathPrefix":"/restaurant-inspections"},"postgres":{"establishment":[{"establishmentid":"413","name":"Charlie's Bar","address":"1503 Springwells Ave","zipcode":"48209","owner":"KUNKLE, HOPE D.","licenseNumber":"054785","licenseType":"Fixed Establishment","establishmentType":"Food Service Establishment","establishmentStatus":"Open","riskCategory":null,"reviewFrequencyDays":"365.0","coords":"-83.12354,42.30599","geojson":{"id":"413","type":"Feature","geometry":{"type":"Point","coordinates":[-83.123540476,42.305992974]},"properties":{"name":"Charlie's Bar","owner":"KUNKLE, HOPE D.","address":"1503 Springwells Ave","zipcode":"48209","license_type":"Fixed Establishment","risk_category":null,"license_number":"054785","establishmentid":"413","establishment_type":"Food Service Establishment","establishment_status":"Open","review_frequency_days":"365.0","most_recent_license_date":"4/26/2016"}},"nearbyList":[{"establishmentid":"51622563","name":"La Pasada","address":"1601 Springwells St","zipcode":"48209"},{"establishmentid":"1353","name":"Vince's Italian Rest & Pizzeria","address":"1341 Springwells Ave","zipcode":"48209"},{"establishmentid":"2224","name":"El Asador","address":"1312 Springwells Ave","zipcode":"48209"},{"establishmentid":"3812","name":"Tacos El Caballo","address":"8084 Rathbone St","zipcode":"48209"},{"establishmentid":"4050","name":"My Spot","address":"1801 Springwells","zipcode":"48209"},{"establishmentid":"51622803","name":"La Posada","address":"1930 Springwells St","zipcode":"48209"},{"establishmentid":"1184","name":"McDonald's #5251","address":"1101 Springwells Ave","zipcode":"48209"},{"establishmentid":"4241","name":"Tacos El Toro #3","address":"8191 Chamberlain St","zipcode":"48209"},{"establishmentid":"768","name":"Family Treat","address":"2010 Springwells Ave","zipcode":"48209"},{"establishmentid":"3926","name":"Taqueria Camino Real","address":"1100 Central","zipcode":"48209"}],"inspectionsByEstablishmentidList":[{"inspectionid":"42694","inspectionDate":"2018-06-21T00:00:00","inspectionType":"Routine Inspection","inCompliance":"Yes","violationsByInspectionidList":[{"violationCode":"5-205.11","violationDescription":"(A) A HANDWASHING SINK shall be maintained so that it is accessible at all times for EMPLOYEE use and used for no other purpose. (Pf)\r\n(B)  An automatic handwashing facility shall be used in accordance with manufacturer's instructions. (Pf)\r\n","violationType":"Foundation","itemDescription":"Handwashing sink(s)","subItem":"","problemDescription":"Not easily accessible","subProblem":"Items stored In","location":"HANDSINK(S)","subLocation":"Above the","corrected":"Yes","daysToCorrect":"10.0","correctedDate":"2018-06-21T00:00:00","correctionDescription":"Remove items from handsink.  Do not store items at handsink."},{"violationCode":"3-304.14","violationDescription":"(A)  Cloths that are in use for wiping FOOD spills on TABLEWARE shall be maintained dry and used for no other purpose. \r\n(B)  Cloths in-use for wiping counters and equipment shall be held between uses in   a chemical sanitizer solution, and laundered daily.\r\n(C)  Cloths in-use for wiping surfaces in contact with raw animal FOODS shall be      kept separate from cloths used for other purposes.\r\n(D)  Dry wiping cloths and the chemical sanitizing solutions shall be free of FOOD    debris or visible soil.\r\n(E)  Containers of chemical sanitizing solutions shall be stored off the floor and         used in a manner that prevents contamination of FOOD, EQUIPMENT, UTENSILS, LINENS, SINGLE-SERVICE, or SINGLE-USE ARTICLES.\r\n(E)  SINGLE-USE disposable sanitizer wipes shall be used in accordance lable               instructions.\r\n","violationType":"Core","itemDescription":"Wiping cloth(s)","subItem":"","problemDescription":"Not completely submerged in sanitizing solution","subProblem":"","location":"WIPING CLOTHS","subLocation":"Above the","corrected":"Yes","daysToCorrect":"30.0","correctedDate":"2018-06-21T00:00:00","correctionDescription":"Submerge wiping cloths in sanitizer between use"}]},{"inspectionid":"38802","inspectionDate":"2017-05-17T00:00:00","inspectionType":"Routine Inspection","inCompliance":"Yes","violationsByInspectionidList":[{"violationCode":"5-205.11","violationDescription":"(A) A HANDWASHING SINK shall be maintained so that it is accessible at all times for EMPLOYEE use and used for no other purpose. (Pf)\r\n(B)  An automatic handwashing facility shall be used in accordance with manufacturer's instructions. (Pf)\r\n","violationType":"Foundation","itemDescription":null,"subItem":"","problemDescription":null,"subProblem":"","location":"KITCHEN","subLocation":"","corrected":"Yes","daysToCorrect":"10.0","correctedDate":"2017-05-17T00:00:00","correctionDescription":null}]}]}],"maxInspectionDate":[{"inspectionDate":"2019-01-31T00:00:00"}]}},"pageContext":{"eid":"413"}}