{"data":{"site":{"pathPrefix":"/restaurant-inspections"},"postgres":{"establishment":[{"establishmentid":"5158","name":"Red Pepper Foods","address":"4800 Woodward Ave","zipcode":"48201","owner":"Carolyn Simon","licenseNumber":"082714","licenseType":"Fixed Establishment","establishmentType":"Food Service Establishment","establishmentStatus":"Open","riskCategory":"Medium","reviewFrequencyDays":"365","coords":"-83.06331,42.35645","geojson":{"id":"5158","type":"Feature","geometry":{"type":"Point","coordinates":[-83.063314634,42.35644539]},"properties":{"name":"Red Pepper Foods","owner":"Carolyn Simon","address":"4800 Woodward Ave","zipcode":"48201","license_type":"Fixed Establishment","risk_category":"Medium","license_number":"082714","establishmentid":"5158","establishment_type":"Food Service Establishment","establishment_status":"Open","review_frequency_days":"365","most_recent_license_date":"4/29/2019"}},"nearbyList":[{"establishmentid":"1718","name":"Cathedral Church of St. Paul","address":"4800 Woodward Ave","zipcode":"48201"},{"establishmentid":"1628","name":"Hannan Center","address":"4750 Woodward Ave","zipcode":"48201"},{"establishmentid":"5086","name":"Operation ABLE of Michigan- Det Training","address":"4750 Woodward Ave","zipcode":"48201"},{"establishmentid":"2444","name":"Association of Chinese Americans","address":"4750 Woodward Ave","zipcode":"48201"},{"establishmentid":"4861","name":"Ms. Ruth Catering","address":"4750 Woodward Ave","zipcode":"48201"},{"establishmentid":"4388","name":"The Potato Place","address":"107 W Warren Ave","zipcode":"48201-34"},{"establishmentid":"51623111","name":"The Epicurus Resturant","address":"111 W Warren Ave","zipcode":"48201"},{"establishmentid":"2411","name":"Epicurus Place","address":"111 W Warren Ave","zipcode":"48201"},{"establishmentid":"1161","name":"Olympic Grill","address":"119 W Warren Ave","zipcode":"48201"},{"establishmentid":"4943","name":"Checkers Restaurant","address":"4662 Woodward Ave","zipcode":"48201"}],"inspectionsByEstablishmentidList":[{"inspectionid":"50450","inspectionDate":"2020-01-17T00:00:00","inspectionType":"Routine Inspection","inCompliance":"Yes","violationsByInspectionidList":[{"violationCode":"4-501.110","violationDescription":"(A) The temperature of the wash solution in spray type warewashers that use hot water to SANITIZERS may not be less than:     \r\n(1) For a stationary rack, single temperature machine, 74°C (165°F);(Pf)   \r\n(2) For a stationary rack, dual temperature machine, 66°C (150°F); (Pf)   \r\n(3) For a single tank, conveyor, dual temperature machine, 71°C (160°F);(Pf) or\r\n(4) For a multitank, conveyor, multitemperature machine, 66°C (150°F).(Pf)  \r\n(B) The temperature of the wash solution in spray-type warewashers that use chemicals to SANITIZE may not be less than 49°C (120°F). (Pf)","violationType":"Foundation","itemDescription":"Dish machine wash solution temperature","subItem":"","problemDescription":"Less than 160 degrees F","subProblem":"For hot water sanitizing machine Single tank, conveyor, dual temperature","location":"KITCHEN","subLocation":"Dishwasher (high temperature)","corrected":"Yes","daysToCorrect":"10","correctedDate":"2020-02-24T00:00:00","correctionDescription":null}]},{"inspectionid":"45401","inspectionDate":"2019-01-25T00:00:00","inspectionType":"Routine Inspection","inCompliance":"Yes","violationsByInspectionidList":[{"violationCode":"3-501.15","violationDescription":"(A) Cooling shall be accomplished in accordance with the time and temperature criteria specified under § 3-501.14 by using one or more of the following methods based on the type of FOOD being cooled:  \r\n   (1) Placing the FOOD in shallow pans; (Pf)\r\n   (2) Separating the FOOD into smaller or thinner portions; (Pf)\r\n   (3) Using rapid cooling EQUIPMENT; (Pf)\r\n   (4) Stirring the FOOD in a container placed in an ice water bath; (Pf)\r\n   (5) Using containers that facilitate heat transfer; (Pf)\r\n   (6) Adding ice as an ingredient; (Pf) or\r\n   (7) Other effective methods. (Pf)  \r\n(B) When placed in cooling or cold holding EQUIPMENT, FOOD containers in which FOOD is being cooled shall be:  \r\n   (1) Arranged in the EQUIPMENT to provide maximum heat transfer through the       container walls; and\r\n   (2) Loosely covered, or uncovered if protected from overhead contamination as          specified under Subparagraph 3-305.11(A)(2), during the cooling period to facilitate    heat transfer from the surface of the FOOD.","violationType":"Foundation","itemDescription":"Food item(s) cooled","subItem":"","problemDescription":"Improperly","subProblem":"In large container","location":"KITCHEN","subLocation":"","corrected":"Yes","daysToCorrect":"10","correctedDate":"2019-01-25T00:00:00","correctionDescription":"Utilize long, shallow pans."}]}]}],"maxInspectionDate":[{"inspectionDate":"2020-10-30T00:00:00"}]}},"pageContext":{"eid":"5158"}}