{"componentChunkName":"component---src-templates-establishment-page-js","path":"/establishment/5227","result":{"data":{"site":{"pathPrefix":"/restaurant-inspections"},"postgres":{"establishment":[{"establishmentid":"5227","name":"Al Namer Fish & Seafood #2 LLC","address":"12332 Warren E.","zipcode":"48215","owner":"","licenseNumber":"103134","licenseType":"Fixed Establishment","establishmentType":"Food Service Establishment","establishmentStatus":"Open","riskCategory":"High","reviewFrequencyDays":"150","coords":"-82.97383,42.38965","geojson":{"id":"5227","type":"Feature","geometry":{"type":"Point","coordinates":[-82.973833377,42.389653664]},"properties":{"name":"Al Namer Fish & Seafood #2 LLC","owner":"","address":"12332 Warren E.","zipcode":"48215","license_type":"Fixed Establishment","risk_category":"High","license_number":"103134","establishmentid":"5227","establishment_type":"Food Service Establishment","establishment_status":"Open","review_frequency_days":"150","most_recent_license_date":null}},"nearbyList":[{"establishmentid":"1796","name":"Popeye's #930","address":"12218 Warren Ave. E.","zipcode":"48215"},{"establishmentid":"2267","name":"Keepin' It Simple","address":"12248 Warren Ave. E.","zipcode":"48213"},{"establishmentid":"3662","name":"Captain J Fish & Chicken #105","address":"12248 Warren Ave. E.","zipcode":"48215"},{"establishmentid":"5244","name":"Captain J Fish and Chicken #105","address":"12248 Warren E.","zipcode":"48215"},{"establishmentid":"2766","name":"Wendy's ","address":"4749 Conner","zipcode":"48215"},{"establishmentid":"5240","name":"Red Sea Food Inc.","address":"12500 Warren E.","zipcode":"48215"},{"establishmentid":"3438","name":"Filterfresh","address":"4703 Conner","zipcode":null},{"establishmentid":"3412","name":"Number 1 Chinese Restaurant","address":"11918 Warren Ave. E.","zipcode":"48214"},{"establishmentid":"1196","name":"Church's Fried Chicken #975","address":"11965 Warren Ave. E.","zipcode":"48214"},{"establishmentid":"4472","name":"Eastside Soulfood","address":"12700 Warren E.","zipcode":"48215"}],"inspectionsByEstablishmentidList":[{"inspectionid":"54366","inspectionDate":"2021-03-02T00:00:00","inspectionType":"COVID19 Complaint","inCompliance":"Yes","violationsByInspectionidList":[]},{"inspectionid":"41504","inspectionDate":"2018-02-15T00:00:00","inspectionType":"Complaint","inCompliance":"Yes","violationsByInspectionidList":[]},{"inspectionid":"36459","inspectionDate":"2016-09-15T00:00:00","inspectionType":"Routine Inspection","inCompliance":"Yes","violationsByInspectionidList":[{"violationCode":"5-205.11","violationDescription":"(A) A HANDWASHING SINK shall be maintained so that it is accessible at all times for EMPLOYEE use and used for no other purpose. (Pf)\n(B)  An automatic handwashing facility shall be used in accordance with manufacturer's instructions. (Pf)\n","violationType":"Foundation","itemDescription":"Handwashing sink(s)","subItem":"","problemDescription":"Not easily accessible","subProblem":"Items stored In front of","location":"FOOD PREP.","subLocation":"At the Handsink","corrected":"True","daysToCorrect":"10","correctedDate":"0001-01-01T00:00:00","correctionDescription":"Remove items from handsink.  Do not store items at handsink."},{"violationCode":"4-903.11","violationDescription":"Cleaned EQUIPMENT and UTENSILS, laundered LINENS, and SINGLE-SERVICE and SINGLE-USE ARTICLES shall be stored in an approved manner and location.\n","violationType":"Core","itemDescription":"Single-service/single-use article(s)","subItem":"","problemDescription":"Stored on floor or less than 6 inches above floor","subProblem":"","location":"FOOD STORAGE","subLocation":"On the floor Single service items","corrected":"True","daysToCorrect":"30","correctedDate":"0001-01-01T00:00:00","correctionDescription":"Store at least 6 inches above the floor."},{"violationCode":"6-202.14","violationDescription":"Except as otherwise allowed, a toilet room located on the PREMISES shall be completely enclosed and provided with a tight-fitting and self-closing door. \n","violationType":"Core","itemDescription":null,"subItem":"","problemDescription":null,"subProblem":"","location":"FOOD PREP.","subLocation":"","corrected":"True","daysToCorrect":"30","correctedDate":"0001-01-01T00:00:00","correctionDescription":null}]}]}],"maxInspectionDate":[{"inspectionDate":"2023-04-13T00:00:00"}]}},"pageContext":{"eid":"5227"}},"staticQueryHashes":["3649515864","63159454"]}