{"data":{"site":{"pathPrefix":"/restaurant-inspections"},"postgres":{"establishment":[{"establishmentid":"1628","name":"Hannan Center","address":"4750 Woodward Ave","zipcode":"48201","owner":"Hannan Center","licenseNumber":"078720","licenseType":"Fixed Establishment","establishmentType":"Food Service Establishment","establishmentStatus":"Open","riskCategory":"Medium","reviewFrequencyDays":"365.0","coords":"-83.06307,42.35568","geojson":{"id":"1628","type":"Feature","geometry":{"type":"Point","coordinates":[-83.063072156,42.355679609]},"properties":{"name":"Hannan Center","owner":"Hannan Center","address":"4750 Woodward Ave","zipcode":"48201","license_type":"Fixed Establishment","risk_category":"Medium","license_number":"078720","establishmentid":"1628","establishment_type":"Food Service Establishment","establishment_status":"Open","review_frequency_days":"365.0","most_recent_license_date":"5/7/2018"}},"nearbyList":[{"establishmentid":"5086","name":"Operation ABLE of Michigan- Det Training","address":"4750 Woodward Ave","zipcode":"48201"},{"establishmentid":"2444","name":"Association of Chinese Americans","address":"4750 Woodward Ave","zipcode":"48201"},{"establishmentid":"4861","name":"Ms. Ruth Catering","address":"4750 Woodward Ave","zipcode":"48201"},{"establishmentid":"5158","name":"Red Pepper Foods","address":"4800 Woodward Ave","zipcode":"48201"},{"establishmentid":"1718","name":"Cathedral Church of St. Paul","address":"4800 Woodward Ave","zipcode":"48201"},{"establishmentid":"4943","name":"Checkers Restaurant","address":"4662 Woodward Ave","zipcode":"48201"},{"establishmentid":"4388","name":"The Potato Place","address":"107 W Warren Ave","zipcode":"48201-34"},{"establishmentid":"2411","name":"Epicurus Place","address":"111 W Warren Ave","zipcode":"48201"},{"establishmentid":"1161","name":"Olympic Grill","address":"119 W Warren Ave","zipcode":"48201"},{"establishmentid":"5305","name":"Firehouse Subs","address":"4501 Woodward, Ste 103","zipcode":"48201"}],"inspectionsByEstablishmentidList":[{"inspectionid":"44669","inspectionDate":"2018-11-06T00:00:00","inspectionType":"Routine Inspection","inCompliance":"No","violationsByInspectionidList":[{"violationCode":"4-501.112","violationDescription":"In a mechanical operation, the temperature of the fresh hot water SANITIZING rinse as it enters the manifold may not be more than 194 F, or less than 165 F for stationary rack machines or 180 F for all other machines to assure proper sanitizing of utensils. (Pf)\r\n","violationType":"Foundation","itemDescription":"Dish machine final rinse temperature","subItem":"","problemDescription":"Less than 180 degrees F","subProblem":"","location":"DISH MACHINE","subLocation":"","corrected":"No","daysToCorrect":"10.0","correctedDate":null,"correctionDescription":"Repair to provide temperature stated above."},{"violationCode":"5-103.11","violationDescription":"(A) The water source and system shall be of sufficient capacity to meet the peak water demands of the FOOD ESTABLISHMENT. (Pf)\r\n(B) Hot water generation and distribution systems shall be sufficient to meet the peak hot water demands throughout the FOOD ESTABLISHMENT. (Pf)\r\n","violationType":"Foundation","itemDescription":"Hot water supply","subItem":"","problemDescription":"Insufficient to meet demands","subProblem":"","location":"THROUGHOUT FACILITY","subLocation":"","corrected":"No","daysToCorrect":"10.0","correctedDate":null,"correctionDescription":"Provide sufficient supply if hot water such as a larger or additional hot water heater."},{"violationCode":"4-501.11","violationDescription":"EQUIPMENT shall be maintained in a state of repair and condition that meets the requirements of the code.\r\n","violationType":"Core","itemDescription":"Equipment","subItem":"","problemDescription":"In poor repair","subProblem":"","location":"KITCHEN","subLocation":"Sink (3-compartment/basins)","corrected":"Not required","daysToCorrect":"30.0","correctedDate":null,"correctionDescription":null},{"violationCode":"6-501.11","violationDescription":"PHYSICAL FACILITIES shall be maintained in good repair.\r\n","violationType":"Core","itemDescription":"Physical facilities","subItem":"","problemDescription":"In poor repair","subProblem":"","location":"KITCHEN","subLocation":"Dishwasher area","corrected":"Not required","daysToCorrect":"30.0","correctedDate":null,"correctionDescription":null}]},{"inspectionid":"38532","inspectionDate":"2017-04-19T00:00:00","inspectionType":"Routine Inspection","inCompliance":"Yes","violationsByInspectionidList":[{"violationCode":"6-501.12","violationDescription":"(A) PHYSICAL FACILITIES shall be cleaned as often as necessary to keep them clean.\r\n(B) Except spill cleanup, cleaning shall be done during periods when the least amount of FOOD is exposed such as after closing. ","violationType":"Core","itemDescription":"Physical facilities/structures","subItem":"","problemDescription":"Soiled","subProblem":"","location":"KITCHEN","subLocation":"Grease trap","corrected":"Not required","daysToCorrect":"30.0","correctedDate":null,"correctionDescription":"Clean."}]}]}],"maxInspectionDate":[{"inspectionDate":"2019-03-31T00:00:00"}]}},"pageContext":{"eid":"1628"}}