{"data":{"site":{"pathPrefix":null},"postgres":{"establishment":[{"establishmentid":"913","name":"Davison Elementary","address":"2800 E Davison Ave","zipcode":"48212","owner":"Detroit Board of Education","licenseNumber":"034947","licenseType":"Fixed Establishment","establishmentType":"Public School","establishmentStatus":"Open","riskCategory":null,"reviewFrequencyDays":"210.0","coords":"-83.06953,42.41186","geojson":{"id":"913","type":"Feature","geometry":{"type":"Point","coordinates":[-83.0695257679999,42.411859324]},"properties":{"name":"Davison Elementary","owner":"Detroit Board of Education","address":"2800 E Davison Ave","zipcode":"48212","license_type":"Fixed Establishment","risk_category":null,"license_number":"034947","establishmentid":"913","establishment_type":"Public School","establishment_status":"Open","review_frequency_days":"210.0","most_recent_license_date":"5/14/2015"}},"nearbyList":[{"establishmentid":"914","name":"Davison Elementary Annex","address":"13210 Maine St","zipcode":"48238"},{"establishmentid":"4402","name":"Bridge Academy West","address":"3105 Carpenter St","zipcode":"48212"},{"establishmentid":"749","name":"Buddy's Rendezvous Pizza","address":"17125 Conant","zipcode":"48212"},{"establishmentid":"464","name":"JoAnn's Bar-B-Q","address":"3139 Jerome ","zipcode":"48212"},{"establishmentid":"577","name":"Man Dees Lounge","address":"17132 Conant","zipcode":"48234"},{"establishmentid":"51622459","name":"Dearborn Dairy LLC","address":"17351 Conant ","zipcode":"48212"},{"establishmentid":"4949","name":"Frontier International Academy","address":"13200 Conant St","zipcode":"48212"},{"establishmentid":"4115","name":"Al Baraka Restaurant","address":"3611 Carpenter St","zipcode":"48212"},{"establishmentid":"51622666","name":"New Al Baraka Restaurant LLC","address":"3611 Carpenter St Ste 1","zipcode":"48212"},{"establishmentid":"4016","name":"Mr. Soft Serve","address":"11613 Lumpkin Street","zipcode":"48212"}],"inspectionsByEstablishmentidList":[{"inspectionid":"43954","inspectionDate":"2018-10-29T00:00:00","inspectionType":"Routine Inspection","inCompliance":"Yes","violationsByInspectionidList":[{"violationCode":"4-501.11","violationDescription":"EQUIPMENT shall be maintained in a state of repair and condition that meets the requirements of the code.\r\n","violationType":"Core","itemDescription":"Equipment","subItem":"","problemDescription":"In poor repair","subProblem":"","location":"KITCHEN","subLocation":"","corrected":"Not required","daysToCorrect":"30.0","correctedDate":null,"correctionDescription":null}]},{"inspectionid":"42188","inspectionDate":"2018-05-02T00:00:00","inspectionType":"Routine Inspection","inCompliance":"Yes","violationsByInspectionidList":[{"violationCode":"4-501.11","violationDescription":"EQUIPMENT shall be maintained in a state of repair and condition that meets the requirements of the code.\r\n","violationType":"Core","itemDescription":"Equipment","subItem":"","problemDescription":"In poor repair","subProblem":"","location":"KITCHEN","subLocation":"","corrected":"Not required","daysToCorrect":"30.0","correctedDate":null,"correctionDescription":null}]},{"inspectionid":"40715","inspectionDate":"2017-11-03T00:00:00","inspectionType":"Routine Inspection","inCompliance":"Yes","violationsByInspectionidList":[]},{"inspectionid":"38745","inspectionDate":"2017-05-22T00:00:00","inspectionType":"Routine Inspection","inCompliance":"Yes","violationsByInspectionidList":[{"violationCode":"6-501.111","violationDescription":"The presence of insects, rodents, and other pests shall be controlled to minimize their presence on the PREMISES.  by:\r\n(A) Routinely inspecting incoming shipments of FOOD and supplies; \r\n(B) Routinely inspecting the PREMISES for evidence of pests;\r\n(C) Using methods, if pests are found, such as trapping devices or other means of pest control as specified.(Pf) \r\n(D) Eliminating harborage conditions. \r\n","violationType":"Core","itemDescription":"Harborage conditions","subItem":"of premises for evidence of pests","problemDescription":"Not eliminated","subProblem":"","location":"DRY STORAGE AREA","subLocation":"","corrected":"Not required","daysToCorrect":"10.0","correctedDate":null,"correctionDescription":"Clean."},{"violationCode":"4-501.11","violationDescription":"EQUIPMENT shall be maintained in a state of repair and condition that meets the requirements of the code.\r\n","violationType":"Core","itemDescription":"Equipment","subItem":"","problemDescription":"In poor repair","subProblem":"","location":"KITCHEN","subLocation":"","corrected":"Not required","daysToCorrect":"30.0","correctedDate":null,"correctionDescription":null}]},{"inspectionid":"37124","inspectionDate":"2016-11-16T00:00:00","inspectionType":"Routine Inspection","inCompliance":"Yes","violationsByInspectionidList":[{"violationCode":"4-501.11","violationDescription":"EQUIPMENT shall be maintained in a state of repair and condition that meets the requirements of the code.\r\n","violationType":"Core","itemDescription":"Equipment","subItem":"","problemDescription":"In poor repair","subProblem":"","location":"FREEZER","subLocation":"","corrected":"Not required","daysToCorrect":"30.0","correctedDate":null,"correctionDescription":null}]}]}]}},"pageContext":{"eid":"913"}}