{"data":{"site":{"pathPrefix":"/restaurant-inspections"},"postgres":{"establishment":[{"establishmentid":"3776","name":"Motor City Casino - Radio Bar","address":"2901 Grand River Ave","zipcode":"48201","owner":"Detroit Entertainment LLC","licenseNumber":"062169","licenseType":"Fixed Establishment","establishmentType":"Food Service Establishment","establishmentStatus":"Open","riskCategory":null,"reviewFrequencyDays":"365.0","coords":"-83.06763,42.33944","geojson":{"id":"3776","type":"Feature","geometry":{"type":"Point","coordinates":[-83.067633488,42.3394391140001]},"properties":{"name":"Motor City Casino - Radio Bar","owner":"Detroit Entertainment LLC","address":"2901 Grand River Ave","zipcode":"48201","license_type":"Fixed Establishment","risk_category":null,"license_number":"062169","establishmentid":"3776","establishment_type":"Food Service Establishment","establishment_status":"Open","review_frequency_days":"365.0","most_recent_license_date":"4/13/2018"}},"nearbyList":[{"establishmentid":"4776","name":"Motor City Casino - First Floor Service ","address":"2901 Grand River Ave ","zipcode":"48201"},{"establishmentid":"4847","name":"Motor City Casino - Food/Beverage Cart","address":"2901 Grand River Ave","zipcode":"48201"},{"establishmentid":"4659","name":"Motor City Casino- Expansion Service Bar","address":"2901 Grand River Ave","zipcode":"48201"},{"establishmentid":"3769","name":"Motor City Casino - Assembly Line Buffet","address":"2901 Grand River Ave","zipcode":"48201"},{"establishmentid":"3779","name":"Motor City Casino - Chromatics Bar","address":"2901 Grand River Ave","zipcode":"48201"},{"establishmentid":"3770","name":"Motor City Casino - Associates Dining Rm","address":"2901 Grand River Ave","zipcode":"48201"},{"establishmentid":"4114","name":"Motor City Casino - Concierge Lounge","address":"2901 Grand River Ave","zipcode":"48201"},{"establishmentid":"3725","name":"Motor City Casino- Club Amnesia","address":"2901 Grand River Ave","zipcode":"48201"},{"establishmentid":"3782","name":"Motor City Casino- 2nd flr service bar","address":"2901 Grand River Ave","zipcode":"48201"},{"establishmentid":"5027","name":"Motor City Casino - Food Truck","address":"2901 Grand River Ave","zipcode":"48201"}],"inspectionsByEstablishmentidList":[{"inspectionid":"43069","inspectionDate":"2018-06-05T00:00:00","inspectionType":"Routine Inspection","inCompliance":"Yes","violationsByInspectionidList":[]},{"inspectionid":"39177","inspectionDate":"2017-04-28T00:00:00","inspectionType":"Routine Inspection","inCompliance":"Yes","violationsByInspectionidList":[{"violationCode":"6-301.12","violationDescription":"Each HANDWASHING SINK or group of adjacent HANDWASHING SINKS shall be provided with:\r\n(A) Individual, disposable towels; (Pf)\r\n(B) A continuous towel system that supplies the user with a clean towel;(Pf) or \r\n(C) A heated-air hand drying device.(Pf)\r\n(D) A hand drying device that employs an air-knife system that delivers high velocity pressurized air at ambient temperatures.(Pf)\r\n","violationType":"Foundation","itemDescription":"Sanitary hand drying provisions","subItem":"disposable, paper towels","problemDescription":"Not provided","subProblem":"At hand sink","location":"BAR (MAIN)","subLocation":"","corrected":"Yes","daysToCorrect":"10.0","correctedDate":"2017-04-28T00:00:00","correctionDescription":"Provide"},{"violationCode":"3-305.11","violationDescription":"FOOD shall be protected from contamination by storing the FOOD:\r\n(1)     In a clean, dry location;\r\n(2)     Where it is not exposed to splash, dust, or other contamination; and\r\n(3)     At least 15 cm (6 inches) above the floor, unless otherwise approved.\r\n","violationType":"Core","itemDescription":"Food item(s) in storage","subItem":"","problemDescription":"Exposed to dust, splash, or other contaminates","subProblem":"Not covered","location":"ICE BIN","subLocation":"","corrected":"Yes","daysToCorrect":"30.0","correctedDate":"2017-05-10T00:00:00","correctionDescription":"Store in a protective manner."},{"violationCode":"6-301.14","violationDescription":"A sign or poster that notifies FOOD EMPLOYEES to wash their hands shall be provided at all HANDWASHING SINKS used by FOOD EMPLOYEES and shall be clearly visible to FOOD EMPLOYEES.\r\n","violationType":"Core","itemDescription":"Handwashing signage","subItem":"","problemDescription":"Not provided","subProblem":"At hand sink","location":"HANDSINK(S)","subLocation":"","corrected":"Yes","daysToCorrect":"30.0","correctedDate":"2017-05-10T00:00:00","correctionDescription":"Provide"},{"violationCode":"6-403.11","violationDescription":"(A) Areas designated for EMPLOYEES to eat, drink, and use tobacco shall be located so that FOOD, EQUIPMENT, LINENS, and SINGLE-SERVICE and SINGLE-USE ARTICLES are protected from contamination.\r\n(B) Lockers or other suitable facilities shall be located in a designated room or area where contamination of FOOD, EQUIPMENT, UTENSILS, LINENS, and SINGLE-SERVICE and SINGLE-USE ARTICLES can not occur.\r\n","violationType":"Core","itemDescription":"Locker(s)/employee storage area(s)","subItem":"","problemDescription":"Contaminates","subProblem":"Single use","location":"BAR (SERVICE)","subLocation":"","corrected":"Yes","daysToCorrect":"30.0","correctedDate":"2017-05-10T00:00:00","correctionDescription":"Relocate to a designated area that does not contaminate items or surfaces."},{"violationCode":"4-602.13","violationDescription":"NonFOOD-CONTACT SURFACES of EQUIPMENT shall be cleaned at a frequency necessary to preclude accumulation of soil residues.\r\n","violationType":"Core","itemDescription":"Nonfood contact surface(s)","subItem":"","problemDescription":"Soiled","subProblem":"","location":"FACILITY","subLocation":"","corrected":"Yes","daysToCorrect":"30.0","correctedDate":"2017-05-10T00:00:00","correctionDescription":"Clean."}]}]}],"maxInspectionDate":[{"inspectionDate":"2019-01-31T00:00:00"}]}},"pageContext":{"eid":"3776"}}