{"data":{"site":{"pathPrefix":"/restaurant-inspections"},"postgres":{"establishment":[{"establishmentid":"51622901","name":"Madcap Coffee Company","address":"1413 Farmer Street","zipcode":"48226","owner":"Madcap East Ventures LLC","licenseNumber":"236363","licenseType":"Fixed Establishment","establishmentType":"Food Service Establishment","establishmentStatus":"Open","riskCategory":"High","reviewFrequencyDays":"365","coords":"-83.04822,42.33470","geojson":{"id":"51622901","type":"Feature","geometry":{"type":"Point","coordinates":[-83.048220811,42.334696245]},"properties":{"name":"Madcap Coffee Company","owner":"Madcap East Ventures LLC","address":"1413 Farmer Street","zipcode":"48226","license_type":"Fixed Establishment","risk_category":"High","license_number":"236363","establishmentid":"51622901","establishment_type":"Food Service Establishment","establishment_status":"Open","review_frequency_days":"365","most_recent_license_date":"4/10/2020"}},"nearbyList":[{"establishmentid":"51622886","name":"Shinola Hotel- Evening Bar","address":"1400 Woodward Ave","zipcode":"48226"},{"establishmentid":"51622882","name":"Penny Red's","address":"1400 Woodward Ave","zipcode":"48226"},{"establishmentid":"51622881","name":"Shinola Hotel- San Morello","address":"1400 Woodward Ave","zipcode":"48226"},{"establishmentid":"51622787","name":"The Brakeman","address":"1400 Woodward Ave","zipcode":"48226"},{"establishmentid":"51622702","name":"Shinola Hotel- WW Basement Kitchen","address":"1400 Woodward Ave","zipcode":"48226"},{"establishmentid":"51622703","name":"Shinola Hotel-Birdie Room","address":"1400 Woodward Ave","zipcode":"48226"},{"establishmentid":"51622701","name":"Shinola Hotel- Banquet Kitchen","address":"1400 Woodward Ave","zipcode":"48226"},{"establishmentid":"51623052","name":"Olin","address":"23 E Grand River Ave","zipcode":"48226"},{"establishmentid":"4957","name":"Cornerstone Barrel House","address":"1456 Woodward Ave","zipcode":"48226"},{"establishmentid":"51622578","name":"Lover's Only","address":"34 W Grand River Ave","zipcode":"48226"}],"inspectionsByEstablishmentidList":[{"inspectionid":"50885","inspectionDate":"2020-02-21T00:00:00","inspectionType":"Routine Inspection","inCompliance":"Yes","violationsByInspectionidList":[{"violationCode":"MFL289.4119","violationDescription":"Sec. 4119. (1) Except as otherwise provided in subsection (2), a person licensed as a food establishment under this chapter shall keep a copy of the current license or temporary license furnished by the department posted and exposed in a conspicuous place for public inspection. A conspicuous place is the principal place where food business is transacted.  (2) In the case of vending machines, the name and address and telephone number of the current vending machine location operator shall be conspicuously displayed on each vending machine.","violationType":"Core","itemDescription":"Food Service License","subItem":"","problemDescription":"Not displayed","subProblem":"","location":"ESTABLISHMENT","subLocation":"","corrected":"Not required","daysToCorrect":"30","correctedDate":null,"correctionDescription":null}]},{"inspectionid":"45605","inspectionDate":"2019-03-19T00:00:00","inspectionType":"Preopening/New","inCompliance":"Yes","violationsByInspectionidList":[{"violationCode":"6-201.11","violationDescription":"Except otherwise approved, and except for antislip floor coverings or applications may be used for safety reasons, floors, floor coverings, walls, wall coverings, and ceilings shall be designed, constructed, and installed so they are SMOOTH and EASILY CLEANABLE.\r\n","violationType":"Core","itemDescription":"wall(s)","subItem":"","problemDescription":"Not constructed, designed, installed to be","subProblem":"Easily cleanable","location":"MOP SINK AREA","subLocation":"","corrected":"Not required","daysToCorrect":"30","correctedDate":null,"correctionDescription":null},{"violationCode":"5-205.15","violationDescription":"A PLUMBING SYSTEM shall be:\r\n(A) Repaired according to LAW; (P) and\r\n(B) Maintained in good repair.\r\n","violationType":"Core","itemDescription":"Plumbing system","subItem":"drain line(s)","problemDescription":"Not maintained","subProblem":"","location":"THREE COMPARTMENT SINK","subLocation":"","corrected":"Not required","daysToCorrect":"10","correctedDate":null,"correctionDescription":null},{"violationCode":"4-402.11","violationDescription":"EQUIPMENT that is fixed because it is not EASILY MOVABLE shall be installed so that it is spaced to allow access for cleaning along the sides, behind, and above the EQUIPMENT or sealed as required,  COUNTER-MOUNTED EQUIPMENT that is not EASILY MOVABLE shall be installed to allow cleaning of the EQUIPMENT and areas underneath and around the EQUIPMENT .\r\n","violationType":"Core","itemDescription":"Fixed equipment","subItem":"","problemDescription":"Not sealed to adjoining","subProblem":"Wall(s)","location":"THREE COMPARTMENT SINK","subLocation":"","corrected":"Not required","daysToCorrect":"30","correctedDate":null,"correctionDescription":null}]}]}],"maxInspectionDate":[{"inspectionDate":"2020-10-30T00:00:00"}]}},"pageContext":{"eid":"51622901"}}