{"data":{"site":{"pathPrefix":"/restaurant-inspections"},"postgres":{"establishment":[{"establishmentid":"4841","name":"Subway #36794","address":"2101 Conner Ave","zipcode":"48215","owner":"NM Food Service","licenseNumber":"081156","licenseType":"Fixed Establishment","establishmentType":"Food Service Establishment","establishmentStatus":"Open","riskCategory":null,"reviewFrequencyDays":"365.0","coords":"-82.96713,42.37318","geojson":{"id":"4841","type":"Feature","geometry":{"type":"Point","coordinates":[-82.967125105,42.373183123]},"properties":{"name":"Subway #36794","owner":"NM Food Service","address":"2101 Conner Ave","zipcode":"48215","license_type":"Fixed Establishment","risk_category":null,"license_number":"081156","establishmentid":"4841","establishment_type":"Food Service Establishment","establishment_status":"Open","review_frequency_days":"365.0","most_recent_license_date":"4/29/2019"}},"nearbyList":[{"establishmentid":"5191","name":"UAW Local 7","address":"2600 Conner Ave","zipcode":"48215"},{"establishmentid":"3893","name":"Northeast Guidance Center","address":"2900 Conner","zipcode":"48215"},{"establishmentid":"4440","name":"Jimmie's Lounge","address":"12625 Kercheval","zipcode":"48215"},{"establishmentid":"3317","name":"Detroit Enterprise Academy","address":"11224 Kercheval","zipcode":"48214"},{"establishmentid":"5139","name":"Historic Eastlake Baptist Church","address":"12440 E Jefferson Ave","zipcode":"48215"},{"establishmentid":"3331","name":"Legends Grill","address":"11123 E Jefferson Ave","zipcode":"48214"},{"establishmentid":"1391","name":"Joseph's Coney Island","address":"12500 E Jefferson Ave","zipcode":"48215"},{"establishmentid":"51622576","name":"Ginger Berry LLC","address":"12626 E Jefferson Avenue","zipcode":"48215"},{"establishmentid":"3751","name":"Manhattan Fish and Chicken","address":"3800 Conner St","zipcode":"48215"},{"establishmentid":"2646","name":"McDonald's #25135","address":"3975 Conner Ave","zipcode":"48215"}],"inspectionsByEstablishmentidList":[{"inspectionid":"42530","inspectionDate":"2018-06-13T00:00:00","inspectionType":"Routine Inspection","inCompliance":"Yes","violationsByInspectionidList":[{"violationCode":"4-903.11","violationDescription":"Cleaned EQUIPMENT and UTENSILS, laundered LINENS, and SINGLE-SERVICE and SINGLE-USE ARTICLES shall be stored in an approved manner and location.\r\n","violationType":"Core","itemDescription":"Single-service/single-use article(s)","subItem":"","problemDescription":"Stored on floor or less than 6 inches above floor","subProblem":"","location":"REAR STORAGE AREA","subLocation":"On the floor Single service items","corrected":"Not required","daysToCorrect":"30.0","correctedDate":null,"correctionDescription":"Store at least 6 inches above the floor."},{"violationCode":"5-205.15","violationDescription":"A PLUMBING SYSTEM shall be:\r\n(A) Repaired according to LAW; (P) and\r\n(B) Maintained in good repair.\r\n","violationType":"Core","itemDescription":"Plumbing system","subItem":"water line(s)","problemDescription":"Not maintained","subProblem":"","location":"FRONT LINE","subLocation":"At the Handsink","corrected":"Not required","daysToCorrect":"10.0","correctedDate":null,"correctionDescription":"Maintain in good repair"}]},{"inspectionid":"38656","inspectionDate":"2017-05-08T00:00:00","inspectionType":"Routine Inspection","inCompliance":"Yes","violationsByInspectionidList":[{"violationCode":"6-501.12","violationDescription":"(A) PHYSICAL FACILITIES shall be cleaned as often as necessary to keep them clean.\r\n(B) Except spill cleanup, cleaning shall be done during periods when the least amount of FOOD is exposed such as after closing. ","violationType":"Core","itemDescription":"Physical facilities/structures","subItem":"floors","problemDescription":"With accumulation of debris","subProblem":"","location":"BEVERAGE AREA","subLocation":"Under the Beverage Dispenser","corrected":"Not required","daysToCorrect":"30.0","correctedDate":null,"correctionDescription":"Keep clean."},{"violationCode":"4-602.13","violationDescription":"NonFOOD-CONTACT SURFACES of EQUIPMENT shall be cleaned at a frequency necessary to preclude accumulation of soil residues.\r\n","violationType":"Core","itemDescription":"Nonfood contact surface(s)","subItem":"","problemDescription":"With accumulation of debris","subProblem":"","location":"BEVERAGE AREA","subLocation":"On top of the Beverage Dispenser","corrected":"Not required","daysToCorrect":"30.0","correctedDate":null,"correctionDescription":"Keep clean."},{"violationCode":"6-301.20","violationDescription":"A HANDWASHING SINK or group of adjacent HANDWASHING SINKS that is provided with disposable towels shall be provided with a waste receptacle.\r\n","violationType":"Core","itemDescription":"Waste receptacle(s)","subItem":"trash can","problemDescription":"Not provided","subProblem":"At hand sink","location":"REAR AREA","subLocation":"At the Handsink","corrected":"Not required","daysToCorrect":"30.0","correctedDate":null,"correctionDescription":"Provide"},{"violationCode":"5-501.17","violationDescription":"A toilet room used by females shall be provided with a covered receptacle for sanitary napkins.\r\n","violationType":"Core","itemDescription":"Covered waste receptacle(s)","subItem":"","problemDescription":"Not provided","subProblem":"","location":"RESTROOM (EMPLOYEE)","subLocation":"Missing Covered waste container","corrected":"Not required","daysToCorrect":"30.0","correctedDate":null,"correctionDescription":"Provide as required"}]}]}],"maxInspectionDate":[{"inspectionDate":"2019-04-30T00:00:00"}]}},"pageContext":{"eid":"4841"}}