{"data":{"postgres":{"establishment":[{"establishmentid":"3798","name":"Subway ","address":"8200 W Outer Dr","zipcode":"48235","owner":"NM Foodservice","licenseNumber":"218113","licenseType":"Fixed Establishment","establishmentType":"Food Service Establishment","establishmentStatus":"Open","riskCategory":"Medium","reviewFrequencyDays":"365.0","coords":"-83.22335,42.42146","geojson":{"id":"3798","type":"Feature","geometry":{"type":"Point","coordinates":[-83.2233458549999,42.4214555900001]},"properties":{"name":"Subway ","owner":"NM Foodservice","address":"8200 W Outer Dr","zipcode":"48235","license_type":"Fixed Establishment","risk_category":"Medium","license_number":"218113","establishmentid":"3798","establishment_type":"Food Service Establishment","establishment_status":"Open","review_frequency_days":"365.0","most_recent_license_date":"7/5/2017"}},"nearbyList":[{"establishmentid":"2366","name":"Old Redford Academy Prep. High School","address":"8001 W Outer Dr","zipcode":"48235"},{"establishmentid":"4924","name":"Cornerstone Health & Tech High School","address":"17351 Southfield Rd","zipcode":"48235"},{"establishmentid":"5178","name":"Great Lakes Burger Bar","address":"18200 W McNichols","zipcode":"48219"},{"establishmentid":"51622610","name":"Island Spice Caribbean Food Restaurant","address":"18200 W McNichols Rd","zipcode":"48219"},{"establishmentid":"2464","name":"Subway #24532","address":"7950 W Outer Dr","zipcode":"48235"},{"establishmentid":"5238","name":"Mr. C Fish Market Inc.","address":"18203 W McNichols","zipcode":"48219"},{"establishmentid":"4959","name":"Cheng's Garden","address":"18205 W McNichols Rd","zipcode":"48219"},{"establishmentid":"4455","name":"Just a Bit Eclectic","address":"19015 W McNichols Rd","zipcode":"48219"},{"establishmentid":"51622856","name":"T.A. Krispy Chicken","address":"18525 W Seven Mile Rd","zipcode":"48219"},{"establishmentid":"51622494","name":"Saxony Lounge","address":"18300 W Seven Mile Rd","zipcode":"48219"},{"establishmentid":"4168","name":"Star Lite Bar & Grill","address":"18300 W Seven Mile Rd","zipcode":"48219"},{"establishmentid":"1305","name":"Teenie's Deli Inc.","address":"18244 W Seven Mile Rd","zipcode":"48219"},{"establishmentid":"2603","name":"Emerson Annex","address":"19500 Curtis Ave","zipcode":"48219"},{"establishmentid":"1267","name":"Church's Fried Chicken #991","address":"18138 W Seven Mile Rd","zipcode":"48219"},{"establishmentid":"5015","name":"Mr. B's Soul Food Truck #1","address":"17600 W McNichols","zipcode":"48235"},{"establishmentid":"5016","name":"Mr. B's Soul Food Truck #2","address":"17600 W McNichols","zipcode":"48235"},{"establishmentid":"4442","name":"Mr. B's Soul Food","address":"17600 W McNichols Rd","zipcode":"48235"},{"establishmentid":"907","name":"Emerson K-8 School","address":"18240 Huntington Ave","zipcode":"48219"},{"establishmentid":"51622600","name":"Mr. Corn Beef","address":"17819 W Seven Mile Rd","zipcode":"48235"},{"establishmentid":"5355","name":"Los Chapos Restaurante Mexicano","address":"17805 W Seven Mile Rd","zipcode":"48235"}],"inspectionsByEstablishmentidList":[{"inspectionid":"42728","inspectionDate":"2018-06-26T00:00:00","inspectionType":"Routine Inspection","inCompliance":"Yes","violationsByInspectionidList":[{"violationCode":"3-501.18","violationDescription":"A FOOD specified in ¶ 3-501.17(A) or (B) shall be discarded if it:  \r\n    (1) Exceeds the temperature and time combination specified in ¶ 3-501.17(A),              except time that the product is frozen; (P)\r\n    (2) Is in a container or PACKAGE that does not bear a date or day; (P) or\r\n    (3) Is appropriately marked with a date or day that exceeds a temperature and              time combination as specified in ¶ 3-501.17(A). (P)  \r\n\r\n","violationType":"Priority","itemDescription":"Ready to eat, potentially hazardous food(s)","subItem":"","problemDescription":"Beyond consume by date","subProblem":"","location":"WALK-IN COOLER","subLocation":"","corrected":"Yes","daysToCorrect":"10.0","correctedDate":"2018-06-26T00:00:00","correctionDescription":"Discard."},{"violationCode":"6-301.12","violationDescription":"Each HANDWASHING SINK or group of adjacent HANDWASHING SINKS shall be provided with:\r\n(A) Individual, disposable towels; (Pf)\r\n(B) A continuous towel system that supplies the user with a clean towel;(Pf) or \r\n(C) A heated-air hand drying device.(Pf)\r\n(D) A hand drying device that employs an air-knife system that delivers high velocity pressurized air at ambient temperatures.(Pf)\r\n","violationType":"Foundation","itemDescription":"Sanitary hand drying provisions","subItem":"disposable, paper towels","problemDescription":"Not provided","subProblem":"At hand sink","location":"HANDSINK(S)","subLocation":"","corrected":"Yes","daysToCorrect":"10.0","correctedDate":"2018-06-26T00:00:00","correctionDescription":"Provide"},{"violationCode":"3-305.11","violationDescription":"FOOD shall be protected from contamination by storing the FOOD:\r\n(1)     In a clean, dry location;\r\n(2)     Where it is not exposed to splash, dust, or other contamination; and\r\n(3)     At least 15 cm (6 inches) above the floor, unless otherwise approved.\r\n","violationType":"Core","itemDescription":"Food item(s) in storage","subItem":"","problemDescription":"Stored on floor or less than 6 inches above floor","subProblem":"","location":"WALK-IN FREEZER","subLocation":"","corrected":"Not required","daysToCorrect":"30.0","correctedDate":null,"correctionDescription":"Store at least 6 inches above the floor."}]},{"inspectionid":"39127","inspectionDate":"2017-06-27T00:00:00","inspectionType":"Routine Inspection","inCompliance":"Yes","violationsByInspectionidList":[{"violationCode":"5-205.11","violationDescription":"(A) A HANDWASHING SINK shall be maintained so that it is accessible at all times for EMPLOYEE use and used for no other purpose. (Pf)\r\n(B)  An automatic handwashing facility shall be used in accordance with manufacturer's instructions. (Pf)\r\n","violationType":"Foundation","itemDescription":null,"subItem":"","problemDescription":null,"subProblem":"","location":"HANDSINK(S)","subLocation":"","corrected":"Yes","daysToCorrect":"10.0","correctedDate":"2017-06-27T00:00:00","correctionDescription":null}]}]}]}},"pageContext":{"eid":"3798"}}