{"data":{"site":{"pathPrefix":"/restaurant-inspections"},"postgres":{"establishment":[{"establishmentid":"4148","name":"College for Creative Studies- Tim Horton","address":"485 W Milwaukee Ave","zipcode":"48202","owner":"Sodexo Management Inc.","licenseNumber":"202845","licenseType":"Fixed Establishment","establishmentType":"Food Service Establishment","establishmentStatus":"Open","riskCategory":"Medium","reviewFrequencyDays":"365.0","coords":"-83.07514,42.36775","geojson":{"id":"4148","type":"Feature","geometry":{"type":"Point","coordinates":[-83.075137831,42.3677520750001]},"properties":{"name":"College for Creative Studies- Tim Horton","owner":"Sodexo Management Inc.","address":"485 W Milwaukee Ave","zipcode":"48202","license_type":"Fixed Establishment","risk_category":"Medium","license_number":"202845","establishmentid":"4148","establishment_type":"Food Service Establishment","establishment_status":"Open","review_frequency_days":"365.0","most_recent_license_date":"4/30/2018"}},"nearbyList":[{"establishmentid":"3627","name":"The Coffee Shop & Deli","address":"3044 W Grand Blvd., Ste. 1429","zipcode":"48202"},{"establishmentid":"1712","name":"JCE Acquisitions, LLC  DBA Subway ","address":"3044 W Grand Blvd","zipcode":"48202"},{"establishmentid":"51622872","name":"Runabout Cafe","address":"3044 W Grand Blvd","zipcode":"48202"},{"establishmentid":"662","name":"Northern Lights Lounge","address":"660 W Baltimore St","zipcode":"48202"},{"establishmentid":"4170","name":"New Center Park","address":"2998 W Grand Blvd","zipcode":"48202"},{"establishmentid":"51622570","name":"Avalon Cafe and Biscuit Bar","address":"2990 W Grand Blvd","zipcode":"48202"},{"establishmentid":"4878","name":"Cafe Con Leche - Nord","address":"2990 W Grand Blvd","zipcode":"48202"},{"establishmentid":"2165","name":"New Center Eatery","address":"3100 W Grand Blvd","zipcode":"48202"},{"establishmentid":"2241","name":"La Musique/Hotel St. Regis","address":"3071 W Grand Blvd","zipcode":"48202"},{"establishmentid":"51622711","name":"St. Regis Operating LLC","address":"3071 W Grand Blvd","zipcode":"48236"},{"establishmentid":"2076","name":"The Coney Man","address":"3031 W Grand Blvd. ","zipcode":"48202"},{"establishmentid":"1535","name":"Detroit Donuts","address":"3031 W Grand Blvd","zipcode":"48202"},{"establishmentid":"2287","name":"Lunchtime Neo LLC","address":"3031 W Grand Blvd. Suite 201","zipcode":"48202"},{"establishmentid":"2616","name":"New Center-Rice Bowl","address":"3031 W Grand Blvd., Suite 230","zipcode":"48202"},{"establishmentid":"4748","name":"New Center Grill","address":"3031 W Grand Blvd., Suite 202","zipcode":"48202"},{"establishmentid":"1683","name":"Coffee Master","address":"3031 W Grand Blvd. #206","zipcode":"48202"},{"establishmentid":"1722","name":"New Center Gourmet","address":"3031 W Grand Blvd. Ste 134","zipcode":"48202"},{"establishmentid":"4119","name":"Motown Coney Island","address":"6501 Woodward Ave","zipcode":"48202"},{"establishmentid":"3793","name":"University Preparatory Academy Elem","address":"435 Amsterdam","zipcode":"48202"},{"establishmentid":"5413","name":"Franklin Wright Settlement Inc.","address":"7375 Woodward Ave","zipcode":"48202"}],"inspectionsByEstablishmentidList":[{"inspectionid":"40837","inspectionDate":"2017-11-02T00:00:00","inspectionType":"Routine Inspection","inCompliance":"Yes","violationsByInspectionidList":[{"violationCode":"6-501.18","violationDescription":"PLUMBING FIXTURES such as HANDWASHING SINKS, toilets, and urinals shall be cleaned as often as necessary to keep them clean. \r\n","violationType":"Core","itemDescription":"Handwashing facility","subItem":"","problemDescription":"Soiled","subProblem":"","location":"HANDSINK(S)","subLocation":"Throughout","corrected":"Not required","daysToCorrect":"30.0","correctedDate":null,"correctionDescription":"Clean."},{"violationCode":"6-501.12","violationDescription":"(A) PHYSICAL FACILITIES shall be cleaned as often as necessary to keep them clean.\r\n(B) Except spill cleanup, cleaning shall be done during periods when the least amount of FOOD is exposed such as after closing. ","violationType":"Core","itemDescription":"Physical facilities/structures","subItem":"","problemDescription":"With accumulation of debris","subProblem":"","location":"THROUGHOUT FACILITY","subLocation":"","corrected":"Not required","daysToCorrect":"30.0","correctedDate":null,"correctionDescription":"Keep clean."},{"violationCode":"4-501.11","violationDescription":"EQUIPMENT shall be maintained in a state of repair and condition that meets the requirements of the code.\r\n","violationType":"Core","itemDescription":"Equipment","subItem":"","problemDescription":"Broken","subProblem":"","location":"COOLERS THROUGHOUT","subLocation":"","corrected":"Not required","daysToCorrect":"30.0","correctedDate":null,"correctionDescription":"Repair/replace."},{"violationCode":"4-501.11","violationDescription":"EQUIPMENT shall be maintained in a state of repair and condition that meets the requirements of the code.\r\n","violationType":"Core","itemDescription":"Equipment","subItem":"","problemDescription":"Broken","subProblem":"","location":"FREEZER","subLocation":"Food container(s)","corrected":"Not required","daysToCorrect":"30.0","correctedDate":null,"correctionDescription":"Repair/replace."},{"violationCode":"4-602.13","violationDescription":"NonFOOD-CONTACT SURFACES of EQUIPMENT shall be cleaned at a frequency necessary to preclude accumulation of soil residues.\r\n","violationType":"Core","itemDescription":"Nonfood contact surface(s)","subItem":"","problemDescription":"Soiled","subProblem":"","location":"THROUGHOUT FACILITY","subLocation":"Equipment","corrected":"Not required","daysToCorrect":"30.0","correctedDate":null,"correctionDescription":"Clean."}]},{"inspectionid":"37326","inspectionDate":"2016-11-29T00:00:00","inspectionType":"Routine Inspection","inCompliance":"Yes","violationsByInspectionidList":[]}]}]}},"pageContext":{"eid":"4148"}}