{"data":{"site":{"pathPrefix":"/restaurant-inspections"},"postgres":{"establishment":[{"establishmentid":"465","name":"Firewater Bar & Grill","address":"16801 Harper Ave","zipcode":"48224","owner":"Kenny Bradley","licenseNumber":"080865","licenseType":"Fixed Establishment","establishmentType":"Food Service Establishment","establishmentStatus":"Temporarily Closed","riskCategory":"Medium","reviewFrequencyDays":"180","coords":"-82.93940,42.41493","geojson":{"id":"465","type":"Feature","geometry":{"type":"Point","coordinates":[-82.939403916,42.414926393]},"properties":{"name":"Firewater Bar & Grill","owner":"Kenny Bradley","address":"16801 Harper Ave","zipcode":"48224","license_type":"Fixed Establishment","risk_category":"Medium","license_number":"080865","establishmentid":"465","establishment_type":"Food Service Establishment","establishment_status":"Temporarily Closed","review_frequency_days":"180","most_recent_license_date":"4/25/2016"}},"nearbyList":[{"establishmentid":"2162","name":"White Castle #59","address":"16737 Harper Ave ","zipcode":"48224"},{"establishmentid":"4366","name":"Sweetwater Express (Harper)","address":"16849 Harper Ave","zipcode":"48224"},{"establishmentid":"3738","name":"Popeye's Chicken & Biscuits","address":"16701 Harper Ave","zipcode":"48205"},{"establishmentid":"705","name":"First Place Lounge","address":"16921 Harper Ave","zipcode":"48224"},{"establishmentid":"2265","name":"Louie's Ham & Corn Beef","address":"16661 Harper Ave","zipcode":"48224"},{"establishmentid":"1295","name":"McDonald's #5459 ","address":"16950 Harper Ave","zipcode":"48224"},{"establishmentid":"1797","name":"Wendy's Old Fashioned Hamburgers","address":"17010 Harper Ave","zipcode":"48226"},{"establishmentid":"5243","name":"Vergotes Poultry & Fish Inc.","address":"16523 Harper","zipcode":"48224"},{"establishmentid":"4936","name":"Checker's #3426","address":"16511 Harper Rd","zipcode":"48224"},{"establishmentid":"3571","name":"Papa's Pizza ","address":"17137 Harper Ave","zipcode":"48224"}],"inspectionsByEstablishmentidList":[{"inspectionid":"38390","inspectionDate":"2017-03-29T00:00:00","inspectionType":"Routine Inspection","inCompliance":"Yes","violationsByInspectionidList":[{"violationCode":"3-307.11","violationDescription":"FOOD shall be protected from contamination that may result from a factor or source not specified under Subparts 3-301 - 3-306.\r\n","violationType":"Core","itemDescription":"Food","subItem":"","problemDescription":"Adulterated/contaminated","subProblem":"","location":"KITCHEN","subLocation":"","corrected":"Yes","daysToCorrect":"30","correctedDate":"2017-03-29T00:00:00","correctionDescription":"Discard."},{"violationCode":"MFL289.2129","violationDescription":"Sec. 2129. (1) All food establishments shall employ a minimum of 1 managerial employee as a food safety manager, who must be an individual who is currently certified under a personnel certification program accredited by the American National Standards Institute, utilizing the Conference for Food Protection standards:\r\n(2) Beginning January 14, 2017 and every 5 years thereafter, a certified  food safety manager who supervises the operations of a food service establishment shall have completed a food safety training program\r\ncontaining an allergen awareness  component that has been approved by  the department. A food service establishment shall retain records on the  site of the food service establishment documenting compliance of its  certified food safety managers with this subsection. ","violationType":"Core","itemDescription":"Person-in-charge","subItem":"","problemDescription":"Missing","subProblem":"","location":"PERSON IN CHARGE","subLocation":"","corrected":"Not required","daysToCorrect":"30","correctedDate":null,"correctionDescription":"Provide."},{"violationCode":"4-601.11","violationDescription":"(A) EQUIPMENT FOOD-CONTACT SURFACES and UTENSILS shall be clean to sight and touch. (Pf)\r\n(B) The FOOD-CONTACT SURFACES of cooking EQUIPMENT and pans shall be kept free of encrusted grease deposits and other soil accumulations. \r\n(C) NonFOOD-CONTACT SURFACES of EQUIPMENT shall be kept free of an accumulation of dust, dirt, FOOD residue, and other debris. \r\n","violationType":"Core","itemDescription":"Non-food contact surface(s)","subItem":"","problemDescription":"Soiled","subProblem":"","location":"KITCHEN","subLocation":"","corrected":"Not required","daysToCorrect":"10","correctedDate":null,"correctionDescription":"Clean."}]},{"inspectionid":"36756","inspectionDate":"2016-09-22T00:00:00","inspectionType":"Routine Inspection","inCompliance":"Yes","violationsByInspectionidList":[{"violationCode":"4-602.13","violationDescription":"NonFOOD-CONTACT SURFACES of EQUIPMENT shall be cleaned at a frequency necessary to preclude accumulation of soil residues.\r\n","violationType":"Core","itemDescription":"Nonfood contact surface(s)","subItem":"","problemDescription":"Soiled","subProblem":"","location":"KITCHEN","subLocation":"","corrected":"Not required","daysToCorrect":"30","correctedDate":null,"correctionDescription":"Keep clean."}]}]}],"maxInspectionDate":[{"inspectionDate":"2020-05-29T00:00:00"}]}},"pageContext":{"eid":"465"}}