{"data":{"site":{"pathPrefix":"/restaurant-inspections"},"postgres":{"establishment":[{"establishmentid":"4656","name":"Detroit Edison Public School Academy","address":"3403 St Aubin","zipcode":"48207","owner":"Detroit Edison Public School","licenseNumber":"075434","licenseType":"Fixed Establishment","establishmentType":"Non-Public School","establishmentStatus":"Open","riskCategory":"Medium","reviewFrequencyDays":"210.0","coords":"-83.03833,42.35299","geojson":{"id":"4656","type":"Feature","geometry":{"type":"Point","coordinates":[-83.0383304119999,42.3529888730001]},"properties":{"name":"Detroit Edison Public School Academy","owner":"Detroit Edison Public School","address":"3403 St Aubin","zipcode":"48207","license_type":"Fixed Establishment","risk_category":"Medium","license_number":"075434","establishmentid":"4656","establishment_type":"Non-Public School","establishment_status":"Open","review_frequency_days":"210.0","most_recent_license_date":"5/2/2019"}},"nearbyList":[{"establishmentid":"3183","name":"Detroit Edison Public School Academy","address":"1903 Wilkins","zipcode":"48207"},{"establishmentid":"457","name":"Roma Cafe Inc","address":"3401 Riopelle St","zipcode":"48207"},{"establishmentid":"51622579","name":"Amore Da Roma","address":"3401 Riopelle St","zipcode":"48207"},{"establishmentid":"2779","name":"Louie's Ham & Corned Beef","address":"3570 Riopelle St","zipcode":"48207"},{"establishmentid":"1178","name":"Cutters Bar And Grill","address":"2638 Orleans","zipcode":"48207"},{"establishmentid":"51622477","name":"The Eastern","address":"3434 Russell St, Unit 501","zipcode":"48207"},{"establishmentid":"1005","name":"Burger King #1009","address":"2155 Gratiot Ave","zipcode":"48207"},{"establishmentid":"538","name":"Louisiana Creole Gumbo","address":"2051 Gratiot Ave","zipcode":"48207"},{"establishmentid":"51622488","name":"Louisiana Creole Gumbo/Mobile #1","address":"2051 Gratiot Ave","zipcode":"48207"},{"establishmentid":"5048","name":"Eastern Market Coproration Shed #5","address":"2934 Russell St","zipcode":"48207"}],"inspectionsByEstablishmentidList":[{"inspectionid":"44368","inspectionDate":"2018-12-05T00:00:00","inspectionType":"Routine Inspection","inCompliance":"Yes","violationsByInspectionidList":[]},{"inspectionid":"42237","inspectionDate":"2018-05-17T00:00:00","inspectionType":"Routine Inspection","inCompliance":"Yes","violationsByInspectionidList":[]},{"inspectionid":"40640","inspectionDate":"2017-11-02T00:00:00","inspectionType":"Routine Inspection","inCompliance":"Yes","violationsByInspectionidList":[{"violationCode":"4-302.14","violationDescription":"A test kit or other device that accurately measures the concentration in mg/L of SANITIZING solutions shall be provided. (Pf)\r\n","violationType":"Foundation","itemDescription":"Sanitizer test kit","subItem":"chlorine","problemDescription":"Not provided","subProblem":"","location":"SANITIZER","subLocation":"At the Test strips","corrected":"Yes","daysToCorrect":"10.0","correctedDate":"2017-11-06T00:00:00","correctionDescription":"Provide as required"}]},{"inspectionid":"38675","inspectionDate":"2017-05-11T00:00:00","inspectionType":"Routine Inspection","inCompliance":"Yes","violationsByInspectionidList":[]},{"inspectionid":"36722","inspectionDate":"2016-10-11T00:00:00","inspectionType":"Routine Inspection","inCompliance":"Yes","violationsByInspectionidList":[{"violationCode":"3-501.16","violationDescription":"Except during preparation, cooking, or cooling, or when time is used as the public health control POTENTIALLY HAZARDOUS FOOD (TIME/TEMPERATURE CONTROL FOR SAFETY FOOD) shall be maintained:\r\n(A)  135ºF or above, except that roasts properly cooked and cooled may be held              at a temperature of 130ºF; or (P)\r\n(B)   At 41ºF or less (P)\r\n","violationType":"Priority","itemDescription":"Cold food item(s)","subItem":"","problemDescription":"Stored above 41 degrees F","subProblem":"","location":"COOLER","subLocation":"","corrected":"Yes","daysToCorrect":"10.0","correctedDate":"2016-10-11T00:00:00","correctionDescription":"Discard"}]}]}],"maxInspectionDate":[{"inspectionDate":"2019-05-31T00:00:00"}]}},"pageContext":{"eid":"4656"}}