{"data":{"site":{"pathPrefix":"/restaurant-inspections"},"postgres":{"establishment":[{"establishmentid":"51622936","name":"Smith & Co. ","address":"644 Selden St","zipcode":"48201","owner":"NPBC Detroit, LLC","licenseNumber":"241584","licenseType":"Fixed Establishment","establishmentType":"Food Service Establishment","establishmentStatus":"Open","riskCategory":"High","reviewFrequencyDays":"180","coords":"-83.06554,42.34748","geojson":{"id":"51622936","type":"Feature","geometry":{"type":"Point","coordinates":[-83.065544352,42.347480704]},"properties":{"name":"Smith & Co. ","owner":"NPBC Detroit, LLC","address":"644 Selden St","zipcode":"48201","license_type":"Fixed Establishment","risk_category":"High","license_number":"241584","establishmentid":"51622936","establishment_type":"Food Service Establishment","establishment_status":"Open","review_frequency_days":"180","most_recent_license_date":"5/7/2020"}},"nearbyList":[{"establishmentid":"4827","name":"Selden Standard","address":"3921-29 Second Ave","zipcode":"48201"},{"establishmentid":"5372","name":"Foundation Rock Spirits LLC dba Castalia","address":"3980 Second Ave, Unit E","zipcode":"48201"},{"establishmentid":"436","name":"Jumbo's Bar","address":"3736 Third St","zipcode":"48201"},{"establishmentid":"5126","name":"Will Leather Goods Coffee Shop","address":"4120 Second Ave","zipcode":"48201"},{"establishmentid":"2140","name":"Honest John's Bar & Grill","address":"488 Selden St","zipcode":"48201"},{"establishmentid":"5180","name":"Cinema Detroit","address":"4126 Third Ave","zipcode":"48201"},{"establishmentid":"5193","name":"Gus's Fried Chicken","address":"4101 Third Ave","zipcode":"48201"},{"establishmentid":"51622663","name":"SheWolf Pastificio & Bar","address":"438 Selden St","zipcode":"48201"},{"establishmentid":"51623137","name":"Detroit Masala","address":"4154 Third St","zipcode":"48201"},{"establishmentid":"51622458","name":"Willis Show Bar","address":"4156 Third Ave","zipcode":"48201"}],"inspectionsByEstablishmentidList":[{"inspectionid":"48926","inspectionDate":"2019-08-29T00:00:00","inspectionType":"Preopening/New","inCompliance":"Yes","violationsByInspectionidList":[{"violationCode":"4-501.11","violationDescription":"EQUIPMENT shall be maintained in a state of repair and condition that meets the requirements of the code.\r\n","violationType":"Core","itemDescription":"Equipment","subItem":"","problemDescription":"In poor repair","subProblem":"","location":"WARE WASHING AREA","subLocation":"","corrected":"Not required","daysToCorrect":"30","correctedDate":null,"correctionDescription":null},{"violationCode":"4-402.11","violationDescription":"EQUIPMENT that is fixed because it is not EASILY MOVABLE shall be installed so that it is spaced to allow access for cleaning along the sides, behind, and above the EQUIPMENT or sealed as required,  COUNTER-MOUNTED EQUIPMENT that is not EASILY MOVABLE shall be installed to allow cleaning of the EQUIPMENT and areas underneath and around the EQUIPMENT .\r\n","violationType":"Core","itemDescription":"Fixed equipment","subItem":"","problemDescription":"Not spaced to allow access for cleaning","subProblem":"Wall(s)","location":"BAR","subLocation":"","corrected":"Not required","daysToCorrect":"30","correctedDate":null,"correctionDescription":"Provide adequate space for cleaning."},{"violationCode":"6-101.11","violationDescription":"Materials for indoor floor, wall, and ceiling surfaces under conditions of normal use shall be:\r\n(1) SMOOTH, durable, and EASILY CLEANABLE for areas where FOOD ESTABLISHMENT operations are conducted;\r\n(2) Closely woven and EASILY CLEANABLE carpet for carpeted areas; and\r\n(3) Nonabsorbent for areas subject to moisture such as FOOD preparation areas, walk-in refrigerators, WAREWASHING areas, toilet rooms, mobile FOOD ESTABLISHMENT SERVICING AREAS, and areas subject to flushing or spray cleaning methods.\r\n","violationType":"Core","itemDescription":"Floor material(s)","subItem":"for construction","problemDescription":"Not nonabsorbent in areas subject to moisture","subProblem":"Walk-in cooler(s)/freezer(s)","location":"BASEMENT","subLocation":"Beer keg cooler","corrected":"Not required","daysToCorrect":"30","correctedDate":null,"correctionDescription":"Repair/replace to be non-absorbent."}]}]}],"maxInspectionDate":[{"inspectionDate":"2020-05-29T00:00:00"}]}},"pageContext":{"eid":"51622936"}}