{"componentChunkName":"component---src-templates-establishment-page-js","path":"/establishment/51623425","result":{"data":{"site":{"pathPrefix":"/restaurant-inspections"},"postgres":{"establishment":[{"establishmentid":"51623425","name":"Sona's Mobay Restaurant","address":"3426 Joy Rd","zipcode":"48206","owner":"Sophia Mamby-Lincoln","licenseNumber":"255905","licenseType":"Fixed Establishment","establishmentType":"Food Service Establishment","establishmentStatus":"Open","riskCategory":null,"reviewFrequencyDays":"150","coords":"-83.11623,42.37083","geojson":{"id":"51623425","type":"Feature","geometry":{"type":"Point","coordinates":[-83.11622619,42.37083053]},"properties":{"name":"Sona's Mobay Restaurant","owner":"Sophia Mamby-Lincoln","address":"3426 Joy Rd","zipcode":"48206","license_type":"Fixed Establishment","risk_category":null,"license_number":"255905","establishmentid":"51623425","establishment_type":"Food Service Establishment","establishment_status":"Open","review_frequency_days":"150","most_recent_license_date":null}},"nearbyList":[{"establishmentid":"5274","name":"Moma Shirley's Soul Food","address":"3426 Joy","zipcode":"48206"},{"establishmentid":"2787","name":"Mechelle's Pizza","address":"3426 Joy Rd.","zipcode":"48206"},{"establishmentid":"4715","name":"Papa Mia's Pizza","address":"3426 Joy Rd.","zipcode":"48203"},{"establishmentid":"2701","name":"Hook Fish & Chicken","address":"9200 Dexter Ave.","zipcode":"48238"},{"establishmentid":"5235","name":"Hook Fresh Fish & Chicken LLC","address":"9200 Dexter Ave.","zipcode":"48206"},{"establishmentid":"2820","name":"A Eagles Coney Island","address":"9122 Dexter Ave.","zipcode":"48206"},{"establishmentid":"947","name":"Brady Elementary School","address":"2920 Joy Rd.","zipcode":"48206"},{"establishmentid":"2310","name":"Salvation Army - Detroit Temple","address":"3729 Chicago Ave. W.","zipcode":"48206"},{"establishmentid":"984","name":"King Solomon Grand Lodge","address":"9840 Dexter","zipcode":"48206"},{"establishmentid":"1253","name":"Sacred Heart Major Seminary","address":"2701 Chicago Ave. W.","zipcode":"48206"}],"inspectionsByEstablishmentidList":[{"inspectionid":"61542","inspectionDate":"2022-12-07T00:00:00","inspectionType":"Routine Inspection","inCompliance":"Yes","violationsByInspectionidList":[{"violationCode":"6-301.12","violationDescription":"Each HANDWASHING SINK or group of adjacent HANDWASHING SINKS shall be provided with:\n(A) Individual, disposable towels; (Pf)\n(B) A continuous towel system that supplies the user with a clean towel;(Pf) or \n(C) A heated-air hand drying device.(Pf)\n(D) A hand drying device that employs an air-knife system that delivers high velocity pressurized air at ambient temperatures.(Pf)\n","violationType":"Foundation","itemDescription":"Sanitary hand drying provisions","subItem":"","problemDescription":"Not provided","subProblem":"","location":"HANDSINK(S)","subLocation":"","corrected":"True","daysToCorrect":"10","correctedDate":"2022-12-08T00:00:00","correctionDescription":null},{"violationCode":"3-501.17","violationDescription":"(A)  READY-TO-EAT, POTENTIALLY HAZARDOUS FOOD (TIME/TEMPERATURE CONTROL FOR SAFETY FOOD)  prepared and held refrigerated for more than 24 hours in a FOOD ESTABLISHMENT  shall be clearly marked at the time of preparation to indicate the date or day by which the FOOD shall be consumed. (Pf)\n(B)  A container of refrigerated, commercially prepared READY-TO-EAT POTENTIALLY HAZARDOUS FOOD (TIME/TEMPERATURE CONTROL FOR SAFETY FOOD)  shall be clearly marked, at the time the original container is opened in a FOOD ESTABLISHMENT, to indicate the date or day by which the FOOD shall be consumed. (Pf)\n\nA date marking system that does not exceed 7 days, including date of preparation, or opening is to be used. (Pf)\n","violationType":"Foundation","itemDescription":"In house prepared ready-to-eat potentially hazardous  food(s)","subItem":"","problemDescription":"Without date of consumption marking","subProblem":"","location":"COOLER","subLocation":"","corrected":"True","daysToCorrect":"10","correctedDate":"2022-12-08T00:00:00","correctionDescription":null}]},{"inspectionid":"60000","inspectionDate":"2022-08-08T00:00:00","inspectionType":"Closed - Temporary","inCompliance":"Yes","violationsByInspectionidList":[]},{"inspectionid":"56541","inspectionDate":"2021-10-04T00:00:00","inspectionType":"Routine Inspection","inCompliance":"Yes","violationsByInspectionidList":[]}]}],"maxInspectionDate":[{"inspectionDate":"2023-04-25T00:00:00"}]}},"pageContext":{"eid":"51623425"}},"staticQueryHashes":["3649515864","63159454"]}