{"componentChunkName":"component---src-templates-establishment-page-js","path":"/establishment/51622490","result":{"data":{"site":{"pathPrefix":"/restaurant-inspections"},"postgres":{"establishment":[{"establishmentid":"51622490","name":"Foundation Hotel- Chef's Table","address":"250 Larned W.","zipcode":"48226","owner":"250 W Larned MT LLC","licenseNumber":"218011","licenseType":"Fixed Establishment","establishmentType":"Food Service Establishment","establishmentStatus":"Open","riskCategory":"High","reviewFrequencyDays":"150","coords":"-83.04842,42.32832","geojson":{"id":"51622490","type":"Feature","geometry":{"type":"Point","coordinates":[-83.048423885,42.328318619]},"properties":{"name":"Foundation Hotel- Chef's Table","owner":"250 W Larned MT LLC","address":"250 Larned W.","zipcode":"48226","license_type":"Fixed Establishment","risk_category":"High","license_number":"218011","establishmentid":"51622490","establishment_type":"Food Service Establishment","establishment_status":"Open","review_frequency_days":"150","most_recent_license_date":"4/26/2022"}},"nearbyList":[{"establishmentid":"51623054","name":"Detroit Foundation Hotel Butcher Shop","address":"250 Larned W.","zipcode":"48207"},{"establishmentid":"51622489","name":"Foundation Hotel- Employee Dining","address":"250 Larned W.","zipcode":"48226"},{"establishmentid":"5396","name":"Foundation Hotel- Apparatus Room","address":"250 Larned W.","zipcode":"48226"},{"establishmentid":"51622491","name":"Foundation Hotel- Banquet","address":"250 Larned W.","zipcode":"48226"},{"establishmentid":"1921","name":"Envy","address":"234 Larned W.","zipcode":"48226"},{"establishmentid":"51623379","name":"Starbucks","address":"243 Congress W.","zipcode":"48226"},{"establishmentid":"51623659","name":"Aramark - W.P.P.","address":"243 Congress W.","zipcode":"48226"},{"establishmentid":"575","name":"Luxe Cuisine","address":"239 Congress W.","zipcode":"48226"},{"establishmentid":"3513","name":"Blue Star Cafe","address":"239  Congress St. W.","zipcode":"48226"},{"establishmentid":"3649","name":"Rock City Bar & Grill","address":"211 W. Congress","zipcode":"48226"}],"inspectionsByEstablishmentidList":[{"inspectionid":"50109","inspectionDate":"2019-12-10T00:00:00","inspectionType":"Routine Inspection","inCompliance":"Yes","violationsByInspectionidList":[]},{"inspectionid":"47916","inspectionDate":"2019-05-30T00:00:00","inspectionType":"Routine Inspection","inCompliance":"Yes","violationsByInspectionidList":[{"violationCode":"3-304.15","violationDescription":"(A) SINGLE-USE gloves shall be used for one task only and discarded when      damaged, soiled, or when interruptions occur in the operation. (P)\n\n(B) Slash-resistant and cloth gloves shall be used in direct contact only with FOOD that is subsequently cooked. Gloves used with ready-to-eat foods shall be smooth,   durable and non-absorbant.\n","violationType":"Priority","itemDescription":"Single-use glove(s)","subItem":null,"problemDescription":"Soiled","subProblem":null,"location":"EMPLOYEE(S)","subLocation":null,"corrected":"True","daysToCorrect":"10","correctedDate":"2019-05-30T00:00:00","correctionDescription":null}]},{"inspectionid":"44233","inspectionDate":"2018-11-01T00:00:00","inspectionType":"Routine Inspection","inCompliance":"Yes","violationsByInspectionidList":[]},{"inspectionid":"41999","inspectionDate":"2018-04-24T00:00:00","inspectionType":"Routine Inspection","inCompliance":"Yes","violationsByInspectionidList":[]},{"inspectionid":"40145","inspectionDate":"2017-09-29T00:00:00","inspectionType":"Routine Inspection","inCompliance":"Yes","violationsByInspectionidList":[{"violationCode":"4-501.114","violationDescription":"A chemical SANITIZER used in a SANITIZING solution for a manual or\nmechanical operation shall meet these limits or as otherwise approved: (P)\n\tChlorine        ppm           pH<10             pH<8\n\t\t      25              120 F              120 F\n\t\t      50              100 F              75 F\n\t\t     100              55 F               55 F\n                 Iodine           a concentration of between 12.5 and 25 ppm and minimum temp of 75 F and pH of 5 or less or meets manufacturer's specifications. (P)\n\n                Quats            minimum temperature of 75 F, hardness of 500 ppm or less and meet manufacturers use directions. (P)\n","violationType":"Priority","itemDescription":"Quaternary ammonia solution","subItem":null,"problemDescription":"Below 100 ppm","subProblem":null,"location":"SANITIZER BUCKETS","subLocation":null,"corrected":"True","daysToCorrect":"10","correctedDate":"2017-09-29T00:00:00","correctionDescription":"Provide correct concentration as stated above."}]}]}],"maxInspectionDate":[{"inspectionDate":"2022-07-25T00:00:00"}]}},"pageContext":{"eid":"51622490"}},"staticQueryHashes":["3649515864","63159454"]}