{"data":{"postgres":{"establishment":[{"establishmentid":"309","name":"P.P.H. Lounge","address":"11526 Portlance St","zipcode":"48205","owner":"Josephine L. Anderson","licenseNumber":"033995","licenseType":"Fixed Establishment","establishmentType":"Food Service Establishment","establishmentStatus":"Open","riskCategory":"Low","reviewFrequencyDays":"365.0","coords":"-83.00422,42.41959","geojson":{"id":"309","type":"Feature","geometry":{"type":"Point","coordinates":[-83.004216991,42.4195866410001]},"properties":{"name":"P.P.H. Lounge","owner":"Josephine L. Anderson","address":"11526 Portlance St","zipcode":"48205","license_type":"Fixed Establishment","risk_category":"Low","license_number":"033995","establishmentid":"309","establishment_type":"Food Service Establishment","establishment_status":"Open","review_frequency_days":"365.0","most_recent_license_date":"4/28/2015"}},"nearbyList":[{"establishmentid":"3750","name":"Zorba's Coney Island","address":"11701 E McNichols Ave","zipcode":"48205"},{"establishmentid":"5271","name":"S & T Fresh Fish & Seafood 2 Inc.","address":"11395 E McNichols","zipcode":"48234"},{"establishmentid":"3321","name":"Brenda Scott Middle School","address":"18400 Hoover Rd","zipcode":"48214"},{"establishmentid":"951","name":"Turning Point Academy","address":"12300 Linnhurst","zipcode":"48205"},{"establishmentid":"1385","name":"Little Caesar's Pizza #81","address":"12039 Gratiot Ave","zipcode":"48205"},{"establishmentid":"1167","name":"Fleming Elementary","address":"18501 Waltham St","zipcode":"48205"},{"establishmentid":"940","name":"Osborn Senior High School","address":"11600 E Seven Mile Rd","zipcode":"48205"},{"establishmentid":"1311","name":"Long John Silvers #3464","address":"11288 Gratiot Ave","zipcode":"48213"},{"establishmentid":"5411","name":"Royal Fish & Chicken Inc.","address":"11429 E Seven Mile Rd","zipcode":"48234"},{"establishmentid":"5338","name":"R & D One Stop Meals","address":"11811 E Seven Mile Rd","zipcode":"48205"},{"establishmentid":"4772","name":"Me & My Girls Soul Food","address":"11831 E Seven Mile Rd. ","zipcode":"48205"},{"establishmentid":"5003","name":"Coney Connection","address":"10993 Gratiot Ave","zipcode":"48205"},{"establishmentid":"51622640","name":"Rio's Coney Island","address":"10993 Gratiot Ave","zipcode":"48213"},{"establishmentid":"1215","name":"Wendy's Old Fashioned Hamburgers","address":"12550 Gratiot Ave","zipcode":"48205"},{"establishmentid":"51622627","name":"Antonio's Pizzeria & Grill","address":"12740 Gratiot Ave","zipcode":"48205"},{"establishmentid":"2375","name":"New Robert's Coney Island Inc.","address":"12701 E Seven Mile Rd","zipcode":"48205"},{"establishmentid":"4474","name":"Tim Hortons","address":"10533 Gratiot Ave","zipcode":"48213"},{"establishmentid":"380","name":"White Castle #48","address":"10500 Gratiot Ave","zipcode":"48213"},{"establishmentid":"5310","name":"Asian Corned Beef","address":"13240 Gratiot Ave","zipcode":"48205"},{"establishmentid":"1355","name":"Domino's Pizza","address":"13250 Gratiot Ave","zipcode":"48224"}],"inspectionsByEstablishmentidList":[{"inspectionid":"44578","inspectionDate":"2018-12-21T00:00:00","inspectionType":"Routine Inspection","inCompliance":"Yes","violationsByInspectionidList":[{"violationCode":"5-205.15","violationDescription":"A PLUMBING SYSTEM shall be:\r\n(A) Repaired according to LAW; (P) and\r\n(B) Maintained in good repair.\r\n","violationType":"Core","itemDescription":"Plumbing system","subItem":"","problemDescription":"Not maintained","subProblem":"","location":"HANDSINK(S)","subLocation":"","corrected":"Not required","daysToCorrect":"10.0","correctedDate":null,"correctionDescription":"Maintain in good repair"},{"violationCode":"MFL289.2129","violationDescription":"Sec. 2129. (1) All of the following food establishments shall employ a minimum of 1 managerial employee who is currently certified under a personnel certification program accredited by the American national standards institute, utilizing the conference for food protection standards:  (a) A food service establishment that is not any of the following:    (i) Operating under a temporary food service establishment license.  (ii) A vending machine location.     (b) An extended retail food establishment.  (c) Operated within a retail grocery.  (2) An individual certified under subsection (1) shall be recognized with full faith and credit by the state and all local units of government throughout the state.  (3) The department may promulgate rules to do all of the following:  (a) Develop requirements for retail food establishments to follow when employing certified food safety managers or personnel.  (b) Set a reasonable date for compliance with the requirements under subdivision (a) taking into consideration existing local personnel certification requirements.  (c) Establish certification fees necessary to implement, maintain, and track certified individuals directly or by contract. The department may annually adjust the schedule of fees to provide that the fee charged is sufficient to cover the cost of the certification tracking program.  (d) Implement and enforce the requirements described in subdivision (a).    (4) The certification program developed by the American national standards institute, as it exists on April 1, 2008 , is incorporated by reference. The department may adopt updates to the certification program accreditation standards in subsection (1) by rule.     (5) This section does not prohibit any local legislative body from implementing a food handler program, an employee health certification program, or a manager certification program, if it is not in conflict with this section.","violationType":"Core","itemDescription":"Person-in-charge","subItem":"","problemDescription":"Missing","subProblem":"","location":"PERSON IN CHARGE","subLocation":"","corrected":"Not required","daysToCorrect":"30.0","correctedDate":null,"correctionDescription":"Provide manufacture lable "},{"violationCode":"6-501.114","violationDescription":"The PREMISES shall be free of items that are unnecessary to the operation or maintenance of the establishment such as EQUIPMENT that is nonfunctional, no longer used and free of litter.\r\n","violationType":"Core","itemDescription":"Unnecessary item(s)","subItem":"","problemDescription":"Not removed from facility","subProblem":"","location":"BAR","subLocation":"","corrected":"Not required","daysToCorrect":"30.0","correctedDate":null,"correctionDescription":"Remove from facility/premises."}]},{"inspectionid":"39648","inspectionDate":"2017-08-21T00:00:00","inspectionType":"Routine Inspection","inCompliance":"Yes","violationsByInspectionidList":[{"violationCode":"MFL289.2129","violationDescription":"Sec. 2129. (1) All of the following food establishments shall employ a minimum of 1 managerial employee who is currently certified under a personnel certification program accredited by the American national standards institute, utilizing the conference for food protection standards:  (a) A food service establishment that is not any of the following:    (i) Operating under a temporary food service establishment license.  (ii) A vending machine location.     (b) An extended retail food establishment.  (c) Operated within a retail grocery.  (2) An individual certified under subsection (1) shall be recognized with full faith and credit by the state and all local units of government throughout the state.  (3) The department may promulgate rules to do all of the following:  (a) Develop requirements for retail food establishments to follow when employing certified food safety managers or personnel.  (b) Set a reasonable date for compliance with the requirements under subdivision (a) taking into consideration existing local personnel certification requirements.  (c) Establish certification fees necessary to implement, maintain, and track certified individuals directly or by contract. The department may annually adjust the schedule of fees to provide that the fee charged is sufficient to cover the cost of the certification tracking program.  (d) Implement and enforce the requirements described in subdivision (a).    (4) The certification program developed by the American national standards institute, as it exists on April 1, 2008 , is incorporated by reference. The department may adopt updates to the certification program accreditation standards in subsection (1) by rule.     (5) This section does not prohibit any local legislative body from implementing a food handler program, an employee health certification program, or a manager certification program, if it is not in conflict with this section.","violationType":"Core","itemDescription":"Person-in-charge","subItem":"","problemDescription":"Missing","subProblem":"","location":"PERSON IN CHARGE","subLocation":"","corrected":"Not required","daysToCorrect":"30.0","correctedDate":null,"correctionDescription":"Provide manufacture lable "},{"violationCode":"4-204.112","violationDescription":"(A)  In a mechanically refrigerated or hot FOOD storage unit, the sensor of a TEMPERATURE MEASURING DEVICE shall be located to measure the air temperature in the warmest part of a mechanically refrigerated unit and in the coolest part of a hot FOOD storage unit.\r\n(B)  Cold or hot holding EQUIPMENT used for POTENTIALLY HAZARDOUS FOOD shall be designed to include and shall be equipped with at least one integral or permanently affixed TEMPERATURE MEASURING DEVICE that is located to allow easy viewing of the device's temperature display (EXCEPT, heat lamps, cold plates, steam tables, or other equipment where it is not practical).\r\n(C)  TEMPERATURE MEASURING DEVICES shall be designed to be easily readable.\r\n(D)  FOOD TEMPERATURE MEASURING DEVICES and water TEMPERATURE MEASURING DEVICES on WAREWASHING machines shall have a numerical scale, printed record, or digital readout in increments no greater than 1C or 2F in the intended range of use. (Pf)\r\n\r\n","violationType":"Core","itemDescription":"Thermometer(s)","subItem":"","problemDescription":"Not provided","subProblem":"","location":"COOLER","subLocation":"","corrected":"Not required","daysToCorrect":"10.0","correctedDate":null,"correctionDescription":"Provide."}]}]}]}},"pageContext":{"eid":"309"}}