{"data":{"site":{"pathPrefix":"/restaurant-inspections"},"postgres":{"establishment":[{"establishmentid":"51622719","name":"Toarmina's Pizza","address":"12400 Morang","zipcode":"48224","owner":"Trinity Ventures Enterprise","licenseNumber":"224659","licenseType":"Fixed Establishment","establishmentType":"Food Service Establishment","establishmentStatus":"Permanently Closed","riskCategory":"High","reviewFrequencyDays":"180","coords":"-82.95540,42.42866","geojson":{"id":"51622719","type":"Feature","geometry":{"type":"Point","coordinates":[-82.95539701,42.428656213]},"properties":{"name":"Toarmina's Pizza","owner":"Trinity Ventures Enterprise","address":"12400 Morang","zipcode":"48224","license_type":"Fixed Establishment","risk_category":"High","license_number":"224659","establishmentid":"51622719","establishment_type":"Food Service Establishment","establishment_status":"Permanently Closed","review_frequency_days":"180","most_recent_license_date":null}},"nearbyList":[{"establishmentid":"3099","name":"Lin Panda","address":"18087 Kelly Rd","zipcode":"48224"},{"establishmentid":"51622593","name":"E & G Food Market","address":"18081 Kelly Rd","zipcode":"48224"},{"establishmentid":"661","name":"Burger King ","address":"18021 Kelly Rd","zipcode":"48224"},{"establishmentid":"841","name":"Denby High School","address":"12800 Kelly Rd","zipcode":"48224"},{"establishmentid":"2243","name":"Papa's Restaurant and Coney Island","address":"19130 Kelly Rd","zipcode":"48224"},{"establishmentid":"276","name":"Billeo's ","address":"19164 Kelly Road","zipcode":"48224"},{"establishmentid":"4301","name":"Regent Park Scholars Charter Academy","address":"15865  E Seven Mile Rd","zipcode":"48205"},{"establishmentid":"845","name":"Brewer Elementary (K-8)","address":"18025 Brock St","zipcode":"48205"},{"establishmentid":"4888","name":"Chung's","address":"12518 Kelly Rd","zipcode":"48224"},{"establishmentid":"844","name":"Carleton Elementary School","address":"11724  Casino Ave","zipcode":"48224"}],"inspectionsByEstablishmentidList":[{"inspectionid":"41995","inspectionDate":"2018-04-18T00:00:00","inspectionType":"Routine Inspection","inCompliance":"Yes","violationsByInspectionidList":[{"violationCode":"7-204.11","violationDescription":"Chemical SANITIZERS and other chemical antimicrobials applied to FOOD-CONTACT SURFACES shall meet the requirements specified in this code. (P)\r\n","violationType":"Priority","itemDescription":"Sanitizer(s)","subItem":"","problemDescription":"Do not comply with law","subProblem":"","location":"3 COMPARTMENT SINK AREA","subLocation":"","corrected":"Yes","daysToCorrect":"10","correctedDate":"2018-04-18T00:00:00","correctionDescription":"Provide labels that comply with law."}]}]}],"maxInspectionDate":[{"inspectionDate":"2020-05-29T00:00:00"}]}},"pageContext":{"eid":"51622719"}}