{"componentChunkName":"component---src-templates-establishment-page-js","path":"/establishment/51623260","result":{"data":{"site":{"pathPrefix":"/restaurant-inspections"},"postgres":{"establishment":[{"establishmentid":"51623260","name":"Freya and Dragonfly LLC","address":"2929 Grand Blvd. E. ","zipcode":"48202","owner":"Hewitt & Levine Holdings, LLC","licenseNumber":"255111","licenseType":"Fixed Establishment","establishmentType":"Food Service Establishment","establishmentStatus":"Open","riskCategory":"High","reviewFrequencyDays":"150","coords":"-83.06705,42.37220","geojson":{"id":"51623260","type":"Feature","geometry":{"type":"Point","coordinates":[-83.067049039,42.372195745]},"properties":{"name":"Freya and Dragonfly LLC","owner":"Hewitt & Levine Holdings, LLC","address":"2929 Grand Blvd. E. ","zipcode":"48202","license_type":"Fixed Establishment","risk_category":"High","license_number":"255111","establishmentid":"51623260","establishment_type":"Food Service Establishment","establishment_status":"Open","review_frequency_days":"150","most_recent_license_date":"12/4/2022"}},"nearbyList":[{"establishmentid":"51622949","name":"Oak and Reel dba Upfront Hospitality LLC","address":"2921 Grand Blvd E.","zipcode":"48202"},{"establishmentid":"51623450","name":"Reef Kitchens #07 (Fixed Trailer)","address":"2915 Grand Blvd E.","zipcode":"48202"},{"establishmentid":"4723","name":"Shawarma King","address":"2920 Grand Blvd.","zipcode":"48202"},{"establishmentid":"51622696","name":"Kiesling","address":"449 Milwaukee Ave. E.","zipcode":"48202"},{"establishmentid":"51622902","name":"Milwaukee Caffe","address":"447 Milwaukee Ave. E.","zipcode":"48202"},{"establishmentid":"2398","name":"B Georges Coney Island","address":"2898 Grand Blvd. W.","zipcode":"48202"},{"establishmentid":"2313","name":"Mariga's","address":"2894-96 Grand Blvd. W.","zipcode":"48202"},{"establishmentid":"785","name":"Parks Old Style Bar-B-Q ","address":"7444 Beaubien St.","zipcode":"48202"},{"establishmentid":"51623848","name":"Thyme & Honey Cafe and Bodega","address":"2990 Grand Blvd. W.","zipcode":"48202"},{"establishmentid":"5182","name":"Simply Spanish","address":"2990 Grand Blvd. W.","zipcode":"48202"}],"inspectionsByEstablishmentidList":[{"inspectionid":"60776","inspectionDate":"2022-11-15T00:00:00","inspectionType":"Routine Inspection","inCompliance":"No","violationsByInspectionidList":[{"violationCode":"4-601.11","violationDescription":"(A) EQUIPMENT FOOD-CONTACT SURFACES and UTENSILS shall be clean to sight and touch. (Pf)\n(B) The FOOD-CONTACT SURFACES of cooking EQUIPMENT and pans shall be kept free of encrusted grease deposits and other soil accumulations. \n(C) NonFOOD-CONTACT SURFACES of EQUIPMENT shall be kept free of an accumulation of dust, dirt, FOOD residue, and other debris. \n","violationType":"Foundation","itemDescription":"Food-contact surface(s)","subItem":"","problemDescription":null,"subProblem":"","location":"KITCHEN","subLocation":"On the Prep stand","corrected":"False","daysToCorrect":"10","correctedDate":null,"correctionDescription":null},{"violationCode":"4-602.13","violationDescription":"NonFOOD-CONTACT SURFACES of EQUIPMENT shall be cleaned at a frequency necessary to preclude accumulation of soil residues.\n","violationType":"Core","itemDescription":"Nonfood contact surface(s)","subItem":"","problemDescription":"Soiled","subProblem":"","location":"ESTABLISHMENT","subLocation":"Inside the Equipment","corrected":"False","daysToCorrect":"30","correctedDate":null,"correctionDescription":"Keep clean."},{"violationCode":"3-304.12","violationDescription":"During pauses in FOOD preparation or dispensing, UTENSILS shall be stored:\n(A) In the FOOD with their handles above the top of the FOOD and the container;\n(B) In FOOD that is not POTENTIALLY HAZARDOUS with their handles above the      top of the FOOD within containers or EQUIPMENT that can be closed, such as      bins of sugar, flour, or cinnamon;\n(C) On a clean portion of the FOOD preparation table or cooking EQUIPMENT\n(D)  In running water, such as dipper well.\n(E)  In a clean, protected location if the UTENSILS, such as ice scoops, are   used only with a FOOD that is not POTENTIALLY HAZARDOUS; or\n(F)  In a container of water maintained at a temperature of at least 135Â° F.\n","violationType":"Core","itemDescription":"Dispensing utensil(s)","subItem":"","problemDescription":null,"subProblem":"","location":"PREP AREA(S)","subLocation":"Inside the Bulk food containers","corrected":"False","daysToCorrect":"30","correctedDate":null,"correctionDescription":null}]},{"inspectionid":"55353","inspectionDate":"2021-07-22T00:00:00","inspectionType":"Preopening/New","inCompliance":"Yes","violationsByInspectionidList":[]}]}],"maxInspectionDate":[{"inspectionDate":"2023-04-13T00:00:00"}]}},"pageContext":{"eid":"51623260"}},"staticQueryHashes":["3649515864","63159454"]}