{"data":{"postgres":{"establishment":[{"establishmentid":"3705","name":"MGM Grand Casino-Service Bar 8","address":"1777 Third St","zipcode":"48226","owner":"MGM Grand Detroit Casino","licenseNumber":"060166","licenseType":"Fixed Establishment","establishmentType":"Food Service Establishment","establishmentStatus":"Open","riskCategory":null,"reviewFrequencyDays":"365.0","coords":"-83.06068,42.33472","geojson":{"id":"3705","type":"Feature","geometry":{"type":"Point","coordinates":[-83.0606819449999,42.334723771]},"properties":{"name":"MGM Grand Casino-Service Bar 8","owner":"MGM Grand Detroit Casino","address":"1777 Third St","zipcode":"48226","license_type":"Fixed Establishment","risk_category":null,"license_number":"060166","establishmentid":"3705","establishment_type":"Food Service Establishment","establishment_status":"Open","review_frequency_days":"365.0","most_recent_license_date":"5/2/2018"}},"nearbyList":[{"establishmentid":"3617","name":"DTE Energy Town Square C-Store313","address":"2000 Second Ave","zipcode":"48226"},{"establishmentid":"429","name":"PJ's Lager House","address":"1254 Michigan Ave","zipcode":"48226"},{"establishmentid":"3598","name":"Cass Technical High School","address":"2501 Second Ave","zipcode":"48201-34"},{"establishmentid":"2675","name":"Brooklyn Street Local","address":"1266 Michigan Ave","zipcode":"48226"},{"establishmentid":"1405","name":"Mariner's Inn","address":"445 Ledyard","zipcode":"48201"},{"establishmentid":"3966","name":"Bookies Bar and Grille","address":"2208 Cass Ave","zipcode":"48226"},{"establishmentid":"545","name":"Nemos","address":"1378 Michigan Ave","zipcode":"48226"},{"establishmentid":"4916","name":"Republic Tavern","address":"1942 Grand River","zipcode":"48226"},{"establishmentid":"1349","name":"Mudgie's","address":"1300 Porter St","zipcode":"48226"},{"establishmentid":"4648","name":"Ottava Via","address":"1400 Michigan Ave","zipcode":"48226"},{"establishmentid":"918","name":"Most Holy Trinity School","address":"1229 LaBrosse St","zipcode":"48226"},{"establishmentid":"5416","name":"Lady of the House, LLC","address":"1426 Bagley Ave","zipcode":"48216"},{"establishmentid":"4655","name":"Leland House","address":"400 Bagley Ave","zipcode":"48226"},{"establishmentid":"720","name":"Lucy & Ethel's Diner","address":"400 Bagley Ave","zipcode":"48226"},{"establishmentid":"3173","name":"Harry's Detroit","address":"2482 Clifford","zipcode":"48201"},{"establishmentid":"1409","name":"Manna Meals","address":"1950 Trumbull","zipcode":"48216"},{"establishmentid":"500","name":"McShane's","address":"1460 Michigan Ave","zipcode":"48216"},{"establishmentid":"4939","name":"Batch Brewing Company","address":"1408 Porter St","zipcode":"48216"},{"establishmentid":"4938","name":"UFO Factory","address":"2110 Trumbull St","zipcode":"48207"},{"establishmentid":"1140","name":"Masonic Temple","address":"500 Temple","zipcode":"48201"}],"inspectionsByEstablishmentidList":[{"inspectionid":"42754","inspectionDate":"2018-03-15T00:00:00","inspectionType":"Routine Inspection","inCompliance":"Yes","violationsByInspectionidList":[{"violationCode":"4-602.13","violationDescription":"NonFOOD-CONTACT SURFACES of EQUIPMENT shall be cleaned at a frequency necessary to preclude accumulation of soil residues.\r\n","violationType":"Core","itemDescription":"Nonfood contact surface(s)","subItem":"","problemDescription":"Soiled","subProblem":"","location":"CONDIMENT STATION","subLocation":"","corrected":"Not required","daysToCorrect":"30.0","correctedDate":null,"correctionDescription":"Clean."},{"violationCode":"3-305.11","violationDescription":"FOOD shall be protected from contamination by storing the FOOD:\r\n(1)     In a clean, dry location;\r\n(2)     Where it is not exposed to splash, dust, or other contamination; and\r\n(3)     At least 15 cm (6 inches) above the floor, unless otherwise approved.\r\n","violationType":"Core","itemDescription":"Food item(s) in storage","subItem":"","problemDescription":"Exposed to dust, splash, or other contaminates","subProblem":"Not covered","location":"ICE BIN","subLocation":"","corrected":"Not required","daysToCorrect":"30.0","correctedDate":null,"correctionDescription":"Store in manner that does not contaminate items"},{"violationCode":"6-403.11","violationDescription":"(A) Areas designated for EMPLOYEES to eat, drink, and use tobacco shall be located so that FOOD, EQUIPMENT, LINENS, and SINGLE-SERVICE and SINGLE-USE ARTICLES are protected from contamination.\r\n(B) Lockers or other suitable facilities shall be located in a designated room or area where contamination of FOOD, EQUIPMENT, UTENSILS, LINENS, and SINGLE-SERVICE and SINGLE-USE ARTICLES can not occur.\r\n","violationType":"Core","itemDescription":"Locker(s)/employee storage area(s)","subItem":"","problemDescription":"Contaminates","subProblem":"","location":"DRY STORAGE AREA","subLocation":"","corrected":"Not required","daysToCorrect":"30.0","correctedDate":null,"correctionDescription":"Relocate to a designated area that does not contaminate items or surfaces."}]},{"inspectionid":"40696","inspectionDate":"2017-03-02T00:00:00","inspectionType":"Routine Inspection","inCompliance":"Yes","violationsByInspectionidList":[{"violationCode":"7-201.11","violationDescription":"POISONOUS OR TOXIC MATERIAL shall be stored so they can not contaminate FOOD, EQUIPMENT, UTENSILS, LINENS, AND SINGLE-SERVICE AND SINGLE-USE ARTICLES by:   \r\n(A) Separating the POISONOUS OR TOXIC MATERIAL by spacing or partitioning; (P) and   \r\n(B) Locating the POISONOUS OR TOXIC MATERIAL in an area that is not above FOOD, EQUIPMENT, UTENSILS, LINENS, AND SINGLE-SERVICE AND SINGLE-USE ARTICLES.  This paragraph does not apply to EQUIPMENT and UTENSIL cleaners and sanitizers that are stored in WAREWASHING areas for availability and convenience if the materials are stored to prevent contamination of FOOD, EQUIPMENT, UTENSILS, LINENS, AND SINGLE-SERVICE and SINGLE-USE ARTICLES. (P)","violationType":"Priority","itemDescription":"Poisonous/toxic material(s)","subItem":"","problemDescription":"Stored over/with","subProblem":"Linens","location":"SERVICE BAR","subLocation":"","corrected":"Yes","daysToCorrect":"10.0","correctedDate":"2017-03-02T00:00:00","correctionDescription":"Store toxics below and away from all other items."},{"violationCode":"3-501.17","violationDescription":"(A)  READY-TO-EAT, POTENTIALLY HAZARDOUS FOOD (TIME/TEMPERATURE CONTROL FOR SAFETY FOOD)  prepared and held refrigerated for more than 24 hours in a FOOD ESTABLISHMENT  shall be clearly marked at the time of preparation to indicate the date or day by which the FOOD shall be consumed. (Pf)\r\n(B)  A container of refrigerated, commercially prepared READY-TO-EAT POTENTIALLY HAZARDOUS FOOD (TIME/TEMPERATURE CONTROL FOR SAFETY FOOD)  shall be clearly marked, at the time the original container is opened in a FOOD ESTABLISHMENT, to indicate the date or day by which the FOOD shall be consumed. (Pf)\r\n\r\nA date marking system that does not exceed 7 days, including date of preparation, or opening is to be used. (Pf)\r\n","violationType":"Foundation","itemDescription":"Commercially processed ready to eat potentially hazardous food(s)","subItem":"","problemDescription":"Without date of consumption marking","subProblem":"","location":"SERVICE BAR","subLocation":"Inside the Cooler (top loader)","corrected":"Yes","daysToCorrect":"10.0","correctedDate":"2017-03-02T00:00:00","correctionDescription":"Datemark with a discard date of 7 days or less."}]}]}]}},"pageContext":{"eid":"3705"}}