{"componentChunkName":"component---src-templates-establishment-page-js","path":"/establishment/4903","result":{"data":{"site":{"pathPrefix":"/restaurant-inspections"},"postgres":{"establishment":[{"establishmentid":"4903","name":"Babyback's Open Pit","address":"17310 Livernois Ave.","zipcode":"48221","owner":"Elizabeth Harris","licenseNumber":"078538","licenseType":"Fixed Establishment","establishmentType":"Food Service Establishment","establishmentStatus":"Permanently Closed","riskCategory":"High","reviewFrequencyDays":"150","coords":"-83.14058,42.41918","geojson":{"id":"4903","type":"Feature","geometry":{"type":"Point","coordinates":[-83.140577462,42.419183905]},"properties":{"name":"Babyback's Open Pit","owner":"Elizabeth Harris","address":"17310 Livernois Ave.","zipcode":"48221","license_type":"Fixed Establishment","risk_category":"High","license_number":"078538","establishmentid":"4903","establishment_type":"Food Service Establishment","establishment_status":"Permanently Closed","review_frequency_days":"150","most_recent_license_date":"2016-08-19"}},"nearbyList":[{"establishmentid":"2325","name":"Mama Kim's Upbeat Soul Food","address":"17310 Livernois","zipcode":"48221"},{"establishmentid":"2802","name":"DeDe's Famous Chicken & Waffles","address":"17310 Livernois","zipcode":"48221"},{"establishmentid":"224","name":"U Got Beef With Me","address":"17310 Livernois","zipcode":"48238"},{"establishmentid":"1528","name":"Little Caesar's Pizza #167","address":"17200 Livernois Ave.","zipcode":"48221"},{"establishmentid":"51623170","name":"Pack Yo Lunch","address":"17350 Livernois Rd","zipcode":"48221"},{"establishmentid":"331","name":"Gregg's Pizza BBQ","address":"17160 Livernois Ave.","zipcode":"48221"},{"establishmentid":"3986","name":"Captain Jay's Fish & Chicken #111","address":"17171 Livernois Ave.","zipcode":"48221"},{"establishmentid":"670","name":"Miley & Miley","address":"17171 Livernois Ave.","zipcode":"48221"},{"establishmentid":"1517","name":"Domino's Pizza #1176","address":"17520 Livernois","zipcode":"48221"},{"establishmentid":"2470","name":"Daniels Soul Food Deli","address":"17149 Livernois","zipcode":"48221"}],"inspectionsByEstablishmentidList":[{"inspectionid":"39699","inspectionDate":"2017-03-01T00:00:00","inspectionType":"Routine Inspection","inCompliance":"Yes","violationsByInspectionidList":[]},{"inspectionid":"36236","inspectionDate":"2016-08-23T00:00:00","inspectionType":"Routine Inspection","inCompliance":"Yes","violationsByInspectionidList":[{"violationCode":"7-204.11","violationDescription":"Chemical SANITIZERS and other chemical antimicrobials applied to FOOD-CONTACT SURFACES shall meet the requirements specified in this code. (P)\n","violationType":"Priority","itemDescription":"Sanitizer(s)","subItem":"","problemDescription":"Do not comply with law","subProblem":"","location":"DISHWASHING AREA","subLocation":"At the Sanitizer","corrected":"True","daysToCorrect":"10","correctedDate":"2016-08-31T00:00:00","correctionDescription":"Provide labels that comply with law."},{"violationCode":"4-602.13","violationDescription":"NonFOOD-CONTACT SURFACES of EQUIPMENT shall be cleaned at a frequency necessary to preclude accumulation of soil residues.\n","violationType":"Core","itemDescription":"Nonfood contact surface(s)","subItem":"","problemDescription":"With accumulation of debris","subProblem":"","location":"COOKING AREA","subLocation":"At the Hood filters","corrected":"True","daysToCorrect":"30","correctedDate":"2016-08-31T00:00:00","correctionDescription":"Keep clean."}]}]}],"maxInspectionDate":[{"inspectionDate":"2023-04-25T00:00:00"}]}},"pageContext":{"eid":"4903"}},"staticQueryHashes":["3649515864","63159454"]}