{"componentChunkName":"component---src-templates-establishment-page-js","path":"/establishment/3716","result":{"data":{"site":{"pathPrefix":"/restaurant-inspections"},"postgres":{"establishment":[{"establishmentid":"3716","name":"Chik-N-Wings","address":"10145 Eight Mile Rd. W.","zipcode":"48221","owner":"John Brown","licenseNumber":"059571","licenseType":"Fixed Establishment","establishmentType":"Food Service Establishment","establishmentStatus":"Temporarily Closed","riskCategory":"Medium","reviewFrequencyDays":"335","coords":"-83.16364,42.44542","geojson":{"id":"3716","type":"Feature","geometry":{"type":"Point","coordinates":[-83.163638039,42.445419138]},"properties":{"name":"Chik-N-Wings","owner":"John Brown","address":"10145 Eight Mile Rd. W.","zipcode":"48221","license_type":"Fixed Establishment","risk_category":"Medium","license_number":"059571","establishmentid":"3716","establishment_type":"Food Service Establishment","establishment_status":"Temporarily Closed","review_frequency_days":"335","most_recent_license_date":"4/26/2019"}},"nearbyList":[{"establishmentid":"51623609","name":"U Cheffin Right LLC","address":"20515 Griggs","zipcode":"48221"},{"establishmentid":"51623556","name":"Wyoming Avenue Church of Christ","address":"20131 Wyoming","zipcode":"48221"},{"establishmentid":"51623627","name":"Manhattan Crispy Fish & Chicken","address":"10715 Eight Mile","zipcode":"48212"},{"establishmentid":"1676","name":"HIGH SCHOOL OF COMMERCE","address":"20119 Wisconsin","zipcode":"48221"},{"establishmentid":"4304","name":"Aisha Shule/W.E.B. Dubois Preparatory ","address":"20119 Wisconsin","zipcode":"48221"},{"establishmentid":"51623550","name":"Reef Kitchens #09 (Fixed Trailer)","address":"10801 Eight Mile W.","zipcode":"48221"},{"establishmentid":"825","name":"Bates Academy","address":"19701 Wyoming Ave.","zipcode":"48221"},{"establishmentid":"1249","name":"Johnson Recreation Center","address":"8640 Chippewa","zipcode":"48207"},{"establishmentid":"1550","name":"Michigan Technical Academy/Meyers","address":"19780 Meyers Ave.","zipcode":"48235"},{"establishmentid":"51623188","name":"Gridiron Taco","address":"19780 Meyers","zipcode":"48227"}],"inspectionsByEstablishmentidList":[{"inspectionid":"48214","inspectionDate":"2019-06-28T00:00:00","inspectionType":"Complaint","inCompliance":"Yes","violationsByInspectionidList":[{"violationCode":"3-302.11","violationDescription":"(A) FOOD shall be protected from cross contamination by:  \n(1) Except as specified in (1)(c) below, separating raw animal FOODS during         storage, preparation, holding, and display from:\n(a) Raw READY-TO-EAT FOOD including other raw animal FOOD such as FISH for sushi or MOLLUSCAN SHELLFISH, or other raw READY-TO-EAT FOOD such as fruits and vegetables,(P) and\n(b) Cooked READY-TO-EAT FOOD; (P)\n(c) Frozen, commercially processed and packaged raw animal FOOD may be          stored or displayed with or above frozen, commercially processed and           packaged, ready-to-eat food.\n(2) Except when combined as ingredients, separating types of raw animal FOODS    from each other such as beef, FISH, lamb, pork, and POULTRY during storage,        preparation, holding, and display by:\n(a) Using separate EQUIPMENT for each type, (P) or\n(b) Arranging each type of FOOD in EQUIPMENT so that cross contamination of one type with another is prevented, (P) and\n(c) Preparing each type of FOOD at different times or in separate areas; (P)\n","violationType":"Priority","itemDescription":"Raw animal food(s)","subItem":null,"problemDescription":"Stored over/next to","subProblem":null,"location":"WALK-IN COOLER","subLocation":"In the Facility","corrected":"True","daysToCorrect":"10","correctedDate":"2019-06-28T00:00:00","correctionDescription":null}]},{"inspectionid":"43772","inspectionDate":"2018-10-16T00:00:00","inspectionType":"Routine Inspection","inCompliance":"Yes","violationsByInspectionidList":[{"violationCode":"5-501.17","violationDescription":"A toilet room used by females shall be provided with a covered receptacle for sanitary napkins.\n","violationType":"Core","itemDescription":"Covered waste receptacle(s)","subItem":null,"problemDescription":"Not provided","subProblem":null,"location":"RESTROOM (EMPLOYEE)","subLocation":null,"corrected":"False","daysToCorrect":"30","correctedDate":null,"correctionDescription":"Provide."},{"violationCode":"4-602.12","violationDescription":"(A) The FOOD-CONTACT SURFACES of cooking and baking EQUIPMENT shall be cleaned at least every 24 hours. This section does not apply to hot oil cooking and filtering EQUIPMENT if it is cleaned as specified in Subparagraph 4-602.11(D)(6).   \n(B) The cavities and door seals of microwave ovens shall be cleaned at least every 24 hours by using the manufacturer's recommended cleaning procedure.","violationType":"Core","itemDescription":"Baking and cooking equipment","subItem":null,"problemDescription":"Not cleaned","subProblem":null,"location":"KITCHEN","subLocation":null,"corrected":"False","daysToCorrect":"30","correctedDate":null,"correctionDescription":"Clean as required above."}]},{"inspectionid":"36444","inspectionDate":"2016-09-15T00:00:00","inspectionType":"Closed - Temporary","inCompliance":"Yes","violationsByInspectionidList":[]}]}],"maxInspectionDate":[{"inspectionDate":"2022-07-25T00:00:00"}]}},"pageContext":{"eid":"3716"}},"staticQueryHashes":["3649515864","63159454"]}