{"data":{"site":{"pathPrefix":"/restaurant-inspections"},"postgres":{"establishment":[{"establishmentid":"2245","name":"Perfect Beat","address":"1941 Fort St S","zipcode":"48217","owner":"Robert L. Thornton","licenseNumber":"078815","licenseType":"Fixed Establishment","establishmentType":"Food Service Establishment","establishmentStatus":"Open","riskCategory":null,"reviewFrequencyDays":"365.0","coords":"-83.15582,42.27496","geojson":{"id":"2245","type":"Feature","geometry":{"type":"Point","coordinates":[-83.155815232,42.2749644250001]},"properties":{"name":"Perfect Beat","owner":"Robert L. Thornton","address":"1941 Fort St S","zipcode":"48217","license_type":"Fixed Establishment","risk_category":null,"license_number":"078815","establishmentid":"2245","establishment_type":"Food Service Establishment","establishment_status":"Open","review_frequency_days":"365.0","most_recent_license_date":"7/13/2018"}},"nearbyList":[{"establishmentid":"51622934","name":"Tacos Regios Mexican grill #2","address":"1781 S Fort St","zipcode":"48217"},{"establishmentid":"617","name":"New Paradigm College Prep School","address":"2450  S Beatrice St ","zipcode":"48217"},{"establishmentid":"51622561","name":"The Paris Cafe","address":"2709 South Fort Street","zipcode":"48217"},{"establishmentid":"885","name":"Mark Twain K-8","address":"12800 Visger St","zipcode":"48217"},{"establishmentid":"51622762","name":"D's Coney Island","address":"2626 S Schaefer Hwy","zipcode":"48217"},{"establishmentid":"5062","name":"Bag Of Bonez","address":"1250 S Beatrice St","zipcode":"48221"},{"establishmentid":"51622742","name":"Lorent Coney Island","address":"601 S Schaefer Rd","zipcode":"48217"},{"establishmentid":"2312","name":"Taqueria La Salsa Mexican Cuisine","address":"1310 Oakwood Blvd S","zipcode":"48217"},{"establishmentid":"1021","name":"Giovanni's Ristorante","address":"330 Oakwood Blvd S","zipcode":"48217"},{"establishmentid":"51622922","name":"Charmed","address":"403 S Dix St","zipcode":"48217"}],"inspectionsByEstablishmentidList":[{"inspectionid":"44077","inspectionDate":"2018-11-08T00:00:00","inspectionType":"Routine Inspection","inCompliance":"Yes","violationsByInspectionidList":[{"violationCode":"4-501.11","violationDescription":"EQUIPMENT shall be maintained in a state of repair and condition that meets the requirements of the code.\r\n","violationType":"Core","itemDescription":"Equipment","subItem":"","problemDescription":"In poor repair","subProblem":"","location":"BAR","subLocation":"At the Cooler (small)","corrected":"Not required","daysToCorrect":"30.0","correctedDate":null,"correctionDescription":null},{"violationCode":"5-501.17","violationDescription":"A toilet room used by females shall be provided with a covered receptacle for sanitary napkins.\r\n","violationType":"Core","itemDescription":"Covered waste receptacle(s)","subItem":"in public restroom","problemDescription":"Not provided","subProblem":"","location":"RESTROOM (WOMEN'S PUBLIC)","subLocation":"Missing Covered waste container","corrected":"Not required","daysToCorrect":"30.0","correctedDate":null,"correctionDescription":"Provide as required"},{"violationCode":"6-501.11","violationDescription":"PHYSICAL FACILITIES shall be maintained in good repair.\r\n","violationType":"Core","itemDescription":"Physical facilities","subItem":"wall(s)","problemDescription":"In poor repair","subProblem":"","location":"RESTROOM (MEN'S PUBLIC)","subLocation":"At the base of the Wall (South)","corrected":"Not required","daysToCorrect":"30.0","correctedDate":null,"correctionDescription":null}]},{"inspectionid":"39792","inspectionDate":"2017-08-31T00:00:00","inspectionType":"Routine Inspection","inCompliance":"Yes","violationsByInspectionidList":[{"violationCode":"6-301.14","violationDescription":"A sign or poster that notifies FOOD EMPLOYEES to wash their hands shall be provided at all HANDWASHING SINKS used by FOOD EMPLOYEES and shall be clearly visible to FOOD EMPLOYEES.\r\n","violationType":"Core","itemDescription":"Handwashing signage","subItem":"","problemDescription":"Not provided","subProblem":"","location":"BATHROOM","subLocation":"","corrected":"Not required","daysToCorrect":"30.0","correctedDate":null,"correctionDescription":"Provide."}]}]}],"maxInspectionDate":[{"inspectionDate":"2019-04-30T00:00:00"}]}},"pageContext":{"eid":"2245"}}