{"data":{"site":{"pathPrefix":"/restaurant-inspections"},"postgres":{"establishment":[{"establishmentid":"505","name":"Blue Star Lounge","address":"10600 Joy Rd","zipcode":"48204","owner":"DRU Underwood","licenseNumber":"064803","licenseType":"Fixed Establishment","establishmentType":"Food Service Establishment","establishmentStatus":"Open","riskCategory":null,"reviewFrequencyDays":"365","coords":"-83.16546,42.35901","geojson":{"id":"505","type":"Feature","geometry":{"type":"Point","coordinates":[-83.165460208,42.359014054]},"properties":{"name":"Blue Star Lounge","owner":"DRU Underwood","address":"10600 Joy Rd","zipcode":"48204","license_type":"Fixed Establishment","risk_category":null,"license_number":"064803","establishmentid":"505","establishment_type":"Food Service Establishment","establishment_status":"Open","review_frequency_days":"365","most_recent_license_date":null}},"nearbyList":[{"establishmentid":"5230","name":"Detroit Fresh Fish & Chicken Market inc.","address":"10515 Joy Rd","zipcode":"48204"},{"establishmentid":"4150","name":"Grace Bible Chapel","address":"5440 Oakman Blvd","zipcode":"48204"},{"establishmentid":"51623121","name":"Holy Temple","address":"8590 Esper Blvd","zipcode":"48204"},{"establishmentid":"4684","name":"Bate's Hot Dog's LLC","address":"1221 Bowers #1712","zipcode":"48012"},{"establishmentid":"878","name":"John's Grill Coney Island","address":"10534 W Chicago Rd","zipcode":"48204"},{"establishmentid":"4488","name":"Sister Love Treats","address":"9126 Ward St","zipcode":"48228"},{"establishmentid":"425","name":" Dairy Queen Inc.","address":"9151 Wyoming ","zipcode":"48204"},{"establishmentid":"51622892","name":"Dairy Queen","address":"9151 Wyoming Ave","zipcode":"48204"},{"establishmentid":"51622726","name":"Genesis House II","address":"12900 W Chicago Rd","zipcode":"48228"},{"establishmentid":"4337","name":"MacKenzie PK-8","address":"10147 W Chicago Ave","zipcode":"48208"}],"inspectionsByEstablishmentidList":[{"inspectionid":"42065","inspectionDate":"2018-04-25T00:00:00","inspectionType":"Routine Inspection","inCompliance":"No","violationsByInspectionidList":[{"violationCode":"4-302.12","violationDescription":"(A) FOOD TEMPERATURE MEASURING DEVICES shall be provided and readily accessible for use in ensuring attainment and maintenance of FOOD temperatures as specified under Chapter 3. (Pf)   \r\n(B) A TEMPERATURE MEASURING DEVICE with a suitable small-diameter probe that is designed to measure the temperature of thin masses shall be provided and readily accessible to accurately measure the temperature in thin FOODS such as MEAT patties and FISH filets. (Pf)\r\n","violationType":"Foundation","itemDescription":"Food thermometer(s)","subItem":"","problemDescription":"Not provided","subProblem":"","location":"BAR","subLocation":"Not provided (with) Thermometer(s)","corrected":"No","daysToCorrect":"10","correctedDate":null,"correctionDescription":"Provide."}]},{"inspectionid":"37205","inspectionDate":"2016-11-15T00:00:00","inspectionType":"Routine Inspection","inCompliance":"No","violationsByInspectionidList":[{"violationCode":"4-302.12","violationDescription":"(A) FOOD TEMPERATURE MEASURING DEVICES shall be provided and readily accessible for use in ensuring attainment and maintenance of FOOD temperatures as specified under Chapter 3. (Pf)   \r\n(B) A TEMPERATURE MEASURING DEVICE with a suitable small-diameter probe that is designed to measure the temperature of thin masses shall be provided and readily accessible to accurately measure the temperature in thin FOODS such as MEAT patties and FISH filets. (Pf)\r\n","violationType":"Foundation","itemDescription":"Food thermometer(s)","subItem":"","problemDescription":"Not provided","subProblem":"","location":"BAR","subLocation":"Not provided (with) Thermometer(s)","corrected":"No","daysToCorrect":"10","correctedDate":null,"correctionDescription":"Provide."}]}]}],"maxInspectionDate":[{"inspectionDate":"2020-10-30T00:00:00"}]}},"pageContext":{"eid":"505"}}