{"componentChunkName":"component---src-templates-establishment-page-js","path":"/establishment/51623268","result":{"data":{"site":{"pathPrefix":"/restaurant-inspections"},"postgres":{"establishment":[{"establishmentid":"51623268","name":"Honey Hot- Tin Roof","address":"47 E. Adams","zipcode":"48226","owner":"Tin Roof Detroit LLC","licenseNumber":"PR20021D","licenseType":"Mobile Food Establishment","establishmentType":"LHD - Mobile Food Establishmen","establishmentStatus":"Plan Review","riskCategory":"High","reviewFrequencyDays":null,"coords":"-83.05007,42.33759","geojson":{"id":"51623268","type":"Feature","geometry":{"type":"Point","coordinates":[-83.050072583,42.337593514]},"properties":{"name":"Honey Hot- Tin Roof","owner":"Tin Roof Detroit LLC","address":"47 E. Adams","zipcode":"48226","license_type":"Mobile Food Establishment","risk_category":"High","license_number":"PR20021D","establishmentid":"51623268","establishment_type":"LHD - Mobile Food Establishmen","establishment_status":"Plan Review","review_frequency_days":null,"most_recent_license_date":null}},"nearbyList":[{"establishmentid":"51623017","name":"Tin Roof Bar","address":"47 Adams. E.","zipcode":"48226"},{"establishmentid":"3475","name":"Chelis Chili Bar","address":"47 Adams E.","zipcode":"48226"},{"establishmentid":"2956","name":"Brown Bean Cafe","address":"39 Adams E.","zipcode":"48226"},{"establishmentid":"2249","name":"Motor City Gourmet Shoppe","address":"39 Adams E.","zipcode":"48226"},{"establishmentid":"51623949","name":"Seoul Rolls in the Go (Wayne)","address":"31 Adams","zipcode":"48342"},{"establishmentid":"1265","name":"Central Methodist Church","address":"23 Adams E.","zipcode":"48226"},{"establishmentid":"4070","name":"Rub BBQ & Pub","address":"18 Adams W.","zipcode":"48226"},{"establishmentid":"51622517","name":"Brass Rail","address":"18 W. Adams","zipcode":"48226"},{"establishmentid":"4398","name":"Chez Zara","address":"1555 Broadway","zipcode":"48226"},{"establishmentid":"3706","name":"Angelina Italian Bistro","address":"1565 Broadway","zipcode":"48226"}],"inspectionsByEstablishmentidList":[{"inspectionid":"52400","inspectionDate":"2020-08-06T00:00:00","inspectionType":"Preopening/New","inCompliance":"Yes","violationsByInspectionidList":[{"violationCode":"6-301.14","violationDescription":"A sign or poster that notifies FOOD EMPLOYEES to wash their hands shall be provided at all HANDWASHING SINKS used by FOOD EMPLOYEES and shall be clearly visible to FOOD EMPLOYEES.\n","violationType":"Core","itemDescription":"Handwashing signage","subItem":"","problemDescription":"Not provided","subProblem":"At hand sink","location":"HANDSINK(S)","subLocation":"","corrected":"False","daysToCorrect":"30","correctedDate":null,"correctionDescription":null},{"violationCode":"4-402.11","violationDescription":"EQUIPMENT that is fixed because it is not EASILY MOVABLE shall be installed so that it is spaced to allow access for cleaning along the sides, behind, and above the EQUIPMENT or sealed as required,  COUNTER-MOUNTED EQUIPMENT that is not EASILY MOVABLE shall be installed to allow cleaning of the EQUIPMENT and areas underneath and around the EQUIPMENT .\n","violationType":"Core","itemDescription":"Fixed equipment","subItem":"","problemDescription":"Not sealed to adjoining","subProblem":"Wall(s)","location":"THREE COMPARTMENT SINK","subLocation":"","corrected":"False","daysToCorrect":"30","correctedDate":null,"correctionDescription":null}]}]}],"maxInspectionDate":[{"inspectionDate":"2023-04-13T00:00:00"}]}},"pageContext":{"eid":"51623268"}},"staticQueryHashes":["3649515864","63159454"]}