{"componentChunkName":"component---src-templates-establishment-page-js","path":"/establishment/51623428","result":{"data":{"site":{"pathPrefix":"/restaurant-inspections"},"postgres":{"establishment":[{"establishmentid":"51623428","name":"Greek Grill","address":"7931 Michigan","zipcode":"48210","owner":"Fusion Grill","licenseNumber":"253639","licenseType":"Fixed Establishment","establishmentType":"Food Service Establishment","establishmentStatus":"Permanently Closed","riskCategory":null,"reviewFrequencyDays":"180","coords":"-83.14068,42.33093","geojson":{"id":"51623428","type":"Feature","geometry":{"type":"Point","coordinates":[-83.140684644,42.330932326]},"properties":{"name":"Greek Grill","owner":"Fusion Grill","address":"7931 Michigan","zipcode":"48210","license_type":"Fixed Establishment","risk_category":null,"license_number":"253639","establishmentid":"51623428","establishment_type":"Food Service Establishment","establishment_status":"Permanently Closed","review_frequency_days":"180","most_recent_license_date":null}},"nearbyList":[{"establishmentid":"51622970","name":"MAA Gas and More","address":"7931 Michigan","zipcode":"48210"},{"establishmentid":"51623813","name":"Alaska Express","address":"7931 Michigan Ave.","zipcode":"48210"},{"establishmentid":"3198","name":"Angel's Place","address":"7824 Michigan Ave.","zipcode":"48210"},{"establishmentid":"1132","name":"Cas Bar","address":"7800 Michigan Ave.","zipcode":"48210"},{"establishmentid":"1283","name":"Papa's Pizza & Subs","address":"7801 Michigan Ave.","zipcode":"48210"},{"establishmentid":"881","name":"Mannecrop Inc./The Horse (Crazy Horse)","address":"8140 Michigan Ave.","zipcode":"48210"},{"establishmentid":"1009","name":"General George Patton Post #11","address":"4930 Central","zipcode":"48210"},{"establishmentid":"1728","name":"Alpacino","address":"8226 Michigan","zipcode":"48210"},{"establishmentid":"2139","name":"Celebrity Bar & Grill","address":"8228 Michigan","zipcode":"48210"},{"establishmentid":"403","name":"Universal Academy","address":"4612 Lonyo","zipcode":"48210"}],"inspectionsByEstablishmentidList":[{"inspectionid":"55937","inspectionDate":"2021-09-21T00:00:00","inspectionType":"Closed - permenant","inCompliance":"Yes","violationsByInspectionidList":[]},{"inspectionid":"55091","inspectionDate":"2021-06-11T00:00:00","inspectionType":"Complaint","inCompliance":"Yes","violationsByInspectionidList":[]},{"inspectionid":"54935","inspectionDate":"2021-05-17T00:00:00","inspectionType":"Routine Inspection","inCompliance":"Yes","violationsByInspectionidList":[{"violationCode":"5-205.11","violationDescription":"(A) A HANDWASHING SINK shall be maintained so that it is accessible at all times for EMPLOYEE use and used for no other purpose. (Pf)\n(B)  An automatic handwashing facility shall be used in accordance with manufacturer's instructions. (Pf)\n","violationType":"Foundation","itemDescription":"Handwashing sink(s)","subItem":null,"problemDescription":"Not easily accessible","subProblem":"Items stored On","location":"BACK AREA","subLocation":"Handsink","corrected":"True","daysToCorrect":"10","correctedDate":"2021-05-17T00:00:00","correctionDescription":"Remove items from handsink.  Do not store items at handsink."},{"violationCode":"4-302.14","violationDescription":"A test kit or other device that accurately measures the concentration in mg/L of SANITIZING solutions shall be provided. (Pf)\n","violationType":"Foundation","itemDescription":null,"subItem":null,"problemDescription":null,"subProblem":null,"location":"BACK AREA","subLocation":null,"corrected":"True","daysToCorrect":"10","correctedDate":"2021-05-17T00:00:00","correctionDescription":null}]},{"inspectionid":"54792","inspectionDate":"2021-05-06T00:00:00","inspectionType":"Preopening/New","inCompliance":"Yes","violationsByInspectionidList":[]}]}],"maxInspectionDate":[{"inspectionDate":"2022-08-31T00:00:00"}]}},"pageContext":{"eid":"51623428"}},"staticQueryHashes":["3649515864","63159454"]}