{"data":{"site":{"pathPrefix":"/restaurant-inspections"},"postgres":{"establishment":[{"establishmentid":"51622495","name":"The Turkey Grill Food Truck","address":"8290 Woodward Ave","zipcode":"48202","owner":"George Lyles","licenseNumber":"234787","licenseType":"Mobile Food Establishment","establishmentType":"LHD - Mobile Food Establishmen","establishmentStatus":"Seasonal","riskCategory":"Medium","reviewFrequencyDays":"395.0","coords":"-83.07698,42.37632","geojson":{"id":"51622495","type":"Feature","geometry":{"type":"Point","coordinates":[-83.0769846279999,42.3763175290001]},"properties":{"name":"The Turkey Grill Food Truck","owner":"George Lyles","address":"8290 Woodward Ave","zipcode":"48202","license_type":"Mobile Food Establishment","risk_category":"Medium","license_number":"234787","establishmentid":"51622495","establishment_type":"LHD - Mobile Food Establishmen","establishment_status":"Seasonal","review_frequency_days":"395.0","most_recent_license_date":"3/27/2018"}},"nearbyList":[{"establishmentid":"1717","name":"The Turkey Grill","address":"8290 Woodward Ave","zipcode":"48202"},{"establishmentid":"753","name":"Burger King ","address":"8201 Woodward Ave","zipcode":"48202"},{"establishmentid":"5267","name":"Ocean Splash Fish & Chicken","address":"8528 Woodward Ave","zipcode":"48202"},{"establishmentid":"4376","name":"Mount Zion New Covenant Baptist Church","address":"8231 Second Ave","zipcode":"48202"},{"establishmentid":"3892","name":"Evans Solutions","address":"8045 Second","zipcode":"48202"},{"establishmentid":"3468","name":"Happy's Pizza #16","address":"7450 Woodward Ave","zipcode":"48202"},{"establishmentid":"4958","name":"Don Bosco Hall/YouthVille Detroit","address":"7375 Woodward Ave","zipcode":"48202"},{"establishmentid":"5413","name":"Franklin Wright Settlement Inc.","address":"7375 Woodward Ave","zipcode":"48202"},{"establishmentid":"51622452","name":"Matrix Human Services","address":"7375 Woodward Ave","zipcode":"48202"},{"establishmentid":"698","name":"New China Wang","address":"7414 Woodward Ave","zipcode":"48202"}],"inspectionsByEstablishmentidList":[{"inspectionid":"42506","inspectionDate":"2018-03-23T00:00:00","inspectionType":"Preopening/New","inCompliance":"Yes","violationsByInspectionidList":[{"violationCode":"4-204.11","violationDescription":"Exhaust ventilation hood systems in FOOD preparation and WAREWASHING areas including components such as hoods, fans, guards, and ducting shall be designed to prevent grease or condensation from draining or dripping onto FOOD, EQUIPMENT, UTENSILS, LINENS, and SINGLE-SERVICE and SINGLE-USE ARTICLES.\r\n","violationType":"Core","itemDescription":"Exhaust ventilation hood system(s)","subItem":"","problemDescription":"Designed to allow grease or condensation from draining/dripping onto","subProblem":"","location":"TRUCK","subLocation":"","corrected":"Not required","daysToCorrect":"30.0","correctedDate":null,"correctionDescription":"Repair/replace to prevent grease accumulation/dripping/draining."},{"violationCode":"4-501.11","violationDescription":"EQUIPMENT shall be maintained in a state of repair and condition that meets the requirements of the code.\r\n","violationType":"Core","itemDescription":"Equipment components","subItem":"","problemDescription":null,"subProblem":"","location":"TRUCK","subLocation":"","corrected":"Yes","daysToCorrect":"30.0","correctedDate":"2018-03-23T00:00:00","correctionDescription":null},{"violationCode":"4-202.16","violationDescription":"NonFOOD-CONTACT SURFACES shall be free of unnecessary ledges, projections, and crevices, and designed and constructed to allow easy cleaning and to facilitate maintenance.\r\n","violationType":"Core","itemDescription":"Nonfood contact surface(s)","subItem":"","problemDescription":"Not easily cleanable","subProblem":"","location":"TRUCK","subLocation":"","corrected":"Not required","daysToCorrect":"30.0","correctedDate":null,"correctionDescription":"Repair/replace to be easily cleanable."},{"violationCode":"6-202.15","violationDescription":"Outer openings of a FOOD ESTABLISHMENT shall be protected against the entry of insects and rodents. Unless otherwise allowed by law. \r\n","violationType":"Core","itemDescription":"Outer opening(s)","subItem":"","problemDescription":"Not sealed to prevent pest entry","subProblem":"","location":"TRUCK","subLocation":"","corrected":"Not required","daysToCorrect":"30.0","correctedDate":null,"correctionDescription":"Repair"}]}]}],"maxInspectionDate":[{"inspectionDate":"2019-10-31T00:00:00"}]}},"pageContext":{"eid":"51622495"}}