{"componentChunkName":"component---src-templates-establishment-page-js","path":"/establishment/5344","result":{"data":{"site":{"pathPrefix":"/restaurant-inspections"},"postgres":{"establishment":[{"establishmentid":"5344","name":"Oakland International Academy","address":"8228 Conant","zipcode":"48211","owner":"Oakland International Academy","licenseNumber":"208208","licenseType":"Fixed Establishment","establishmentType":"Non-Public School","establishmentStatus":null,"riskCategory":"Medium","reviewFrequencyDays":"180","coords":"-83.04266,42.38982","geojson":{"id":"5344","type":"Feature","geometry":{"type":"Point","coordinates":[-83.042660815,42.389815449]},"properties":{"name":"Oakland International Academy","owner":"Oakland International Academy","address":"8228 Conant","zipcode":"48211","license_type":"Fixed Establishment","risk_category":"Medium","license_number":"208208","establishmentid":"5344","establishment_type":"Non-Public School","establishment_status":null,"review_frequency_days":"180","most_recent_license_date":"4/12/2022"}},"nearbyList":[{"establishmentid":"5218","name":"S & A Ice Cream","address":"8189 Winkelman St.","zipcode":"48211"},{"establishmentid":"4777","name":"Mr. Primo Softy","address":"8215 Winkelman St.","zipcode":"48211"},{"establishmentid":"51623726","name":"Spiderman Soft Serve","address":"8154 Winkleman St","zipcode":"48211"},{"establishmentid":"3111","name":"Super Softy","address":"4000 Miller","zipcode":"48211"},{"establishmentid":"4043","name":"A - H Soft Ice Cream","address":"4000 Miller","zipcode":"48211"},{"establishmentid":"5343","name":"Oakland International Academy","address":"4001 Miller","zipcode":"48212"},{"establishmentid":"5342","name":"Oakland International Academy","address":"6111 Miller","zipcode":"48211"},{"establishmentid":"3873","name":"Mr. Softy Detroit","address":"4038 Georgia","zipcode":"48211"},{"establishmentid":"2178","name":"Iceberg","address":"4068 Georgia","zipcode":"48211"},{"establishmentid":"3105","name":"Motor City Soft Serve","address":"4068 Georgia","zipcode":"48212"}],"inspectionsByEstablishmentidList":[{"inspectionid":"59512","inspectionDate":"2022-05-20T00:00:00","inspectionType":"Routine Inspection","inCompliance":"Yes","violationsByInspectionidList":[{"violationCode":"7-102.11","violationDescription":"Working containers used for storing POISONOUS OR TOXIC MATERIALS such as cleaners and SANITIZERS taken from bulk supplies shall be clearly and individually identified with the common name of the material. (Pf)\n","violationType":"Foundation","itemDescription":"Working containers-toxics","subItem":"sanitizer","problemDescription":"Not labeled as to content","subProblem":null,"location":"KITCHEN","subLocation":null,"corrected":"True","daysToCorrect":"10","correctedDate":"2022-03-26T00:00:00","correctionDescription":"Label containers with common name."}]},{"inspectionid":"56208","inspectionDate":"2021-10-06T00:00:00","inspectionType":"Routine Inspection","inCompliance":"Yes","violationsByInspectionidList":[]},{"inspectionid":"55193","inspectionDate":"2021-06-22T00:00:00","inspectionType":"Routine Inspection","inCompliance":"Yes","violationsByInspectionidList":[]},{"inspectionid":"53689","inspectionDate":"2020-12-16T00:00:00","inspectionType":"Routine Inspection","inCompliance":"Yes","violationsByInspectionidList":[]},{"inspectionid":"53872","inspectionDate":"2020-08-16T00:00:00","inspectionType":"Routine Inspection","inCompliance":"Yes","violationsByInspectionidList":[]},{"inspectionid":"52302","inspectionDate":"2020-03-23T00:00:00","inspectionType":"COVID19-temp closed","inCompliance":"Yes","violationsByInspectionidList":[]},{"inspectionid":"49913","inspectionDate":"2019-11-20T00:00:00","inspectionType":"Routine Inspection","inCompliance":"Yes","violationsByInspectionidList":[]},{"inspectionid":"48021","inspectionDate":"2019-06-11T00:00:00","inspectionType":"Routine Inspection","inCompliance":"Yes","violationsByInspectionidList":[]},{"inspectionid":"44902","inspectionDate":"2019-01-11T00:00:00","inspectionType":"Routine Inspection","inCompliance":"Yes","violationsByInspectionidList":[]},{"inspectionid":"44543","inspectionDate":"2018-12-20T00:00:00","inspectionType":"Closed - Temporary","inCompliance":"Yes","violationsByInspectionidList":[]},{"inspectionid":"42456","inspectionDate":"2018-05-04T00:00:00","inspectionType":"Routine Inspection","inCompliance":"Yes","violationsByInspectionidList":[{"violationCode":"6-202.15","violationDescription":"Outer openings of a FOOD ESTABLISHMENT shall be protected against the entry of insects and rodents. Unless otherwise allowed by law. \n","violationType":"Core","itemDescription":"holes or gaps along","subItem":null,"problemDescription":null,"subProblem":null,"location":"HALLWAY","subLocation":null,"corrected":"False","daysToCorrect":"30","correctedDate":null,"correctionDescription":"Repair/replace to meet requirements above."}]},{"inspectionid":"45039","inspectionDate":"2017-06-19T00:00:00","inspectionType":"Routine Inspection","inCompliance":"Yes","violationsByInspectionidList":[]},{"inspectionid":"38759","inspectionDate":"2017-05-15T00:00:00","inspectionType":"Routine Inspection","inCompliance":"Yes","violationsByInspectionidList":[{"violationCode":"6-301.14","violationDescription":"A sign or poster that notifies FOOD EMPLOYEES to wash their hands shall be provided at all HANDWASHING SINKS used by FOOD EMPLOYEES and shall be clearly visible to FOOD EMPLOYEES.\n","violationType":"Core","itemDescription":"Handwashing signage","subItem":null,"problemDescription":"Not provided","subProblem":null,"location":"HANDSINK(S)","subLocation":null,"corrected":"False","daysToCorrect":"30","correctedDate":null,"correctionDescription":"Provide."}]}]}],"maxInspectionDate":[{"inspectionDate":"2022-08-31T00:00:00"}]}},"pageContext":{"eid":"5344"}},"staticQueryHashes":["3649515864","63159454"]}