{"componentChunkName":"component---src-templates-establishment-page-js","path":"/establishment/316","result":{"data":{"site":{"pathPrefix":"/restaurant-inspections"},"postgres":{"establishment":[{"establishmentid":"316","name":"Cesar Chavez Academy Elementary","address":"8126 Vernor St.W.","zipcode":"48209","owner":"Leona Group","licenseNumber":"238010","licenseType":"Fixed Establishment","establishmentType":"Non-Public School","establishmentStatus":"Open","riskCategory":null,"reviewFrequencyDays":"180","coords":"-82.99962,42.36098","geojson":{"id":"316","type":"Feature","geometry":{"type":"Point","coordinates":[-82.999619429,42.360978317]},"properties":{"name":"Cesar Chavez Academy Elementary","owner":"Leona Group","address":"8126 Vernor St.W.","zipcode":"48209","license_type":"Fixed Establishment","risk_category":null,"license_number":"238010","establishmentid":"316","establishment_type":"Non-Public School","establishment_status":"Open","review_frequency_days":"180","most_recent_license_date":"2022-05-19"}},"nearbyList":[{"establishmentid":"5284","name":"Conventional Missionary Baptist Church","address":"2255  Seminole","zipcode":"48214"},{"establishmentid":"51622619","name":"Detroit Prep","address":"2411 Iroquois","zipcode":"48214"},{"establishmentid":"1600","name":"Cornerstone School","address":"2411 Iroquois","zipcode":"48214"},{"establishmentid":"51622614","name":"Marrow, LLC","address":"8044 Kercheval","zipcode":"48214"},{"establishmentid":"51622513","name":"La Boheme","address":"8100 Kercheval","zipcode":"48214"},{"establishmentid":"51623702","name":"La Cantina","address":"8016 Kercheval","zipcode":"48214"},{"establishmentid":"51622733","name":"Brudders Woodfired Pizza","address":"8122 Kercheval","zipcode":"48214"},{"establishmentid":"51623205","name":"Mumma Maria Enterprises","address":"8122 Kercheval Ave.","zipcode":"48214"},{"establishmentid":"51622821","name":"Destination 1905","address":"8130 Kercheval","zipcode":"48214"},{"establishmentid":"51623432","name":"Two Birds","address":"8130 Kercheval","zipcode":"48214"}],"inspectionsByEstablishmentidList":[{"inspectionid":"60560","inspectionDate":"2022-10-04T00:00:00","inspectionType":"Routine Inspection","inCompliance":"Yes","violationsByInspectionidList":[]},{"inspectionid":"59460","inspectionDate":"2022-05-18T00:00:00","inspectionType":"Routine Inspection","inCompliance":"Yes","violationsByInspectionidList":[]},{"inspectionid":"56356","inspectionDate":"2021-10-19T00:00:00","inspectionType":"Routine Inspection","inCompliance":"Yes","violationsByInspectionidList":[]},{"inspectionid":"55189","inspectionDate":"2021-06-23T00:00:00","inspectionType":"Routine Inspection","inCompliance":"Yes","violationsByInspectionidList":[]},{"inspectionid":"53597","inspectionDate":"2020-12-07T00:00:00","inspectionType":"Covid19 Positive ","inCompliance":"Yes","violationsByInspectionidList":[]},{"inspectionid":"53492","inspectionDate":"2020-11-30T00:00:00","inspectionType":"Routine Inspection","inCompliance":"Yes","violationsByInspectionidList":[]},{"inspectionid":"51270","inspectionDate":"2020-03-22T00:00:00","inspectionType":"Closed - Attempt ins","inCompliance":"Yes","violationsByInspectionidList":[]},{"inspectionid":"49267","inspectionDate":"2019-09-24T00:00:00","inspectionType":"Routine Inspection","inCompliance":"Yes","violationsByInspectionidList":[{"violationCode":"4-904.14","violationDescription":"After being cleaned and SANITIZED, EQUIPMENT and UTENSILS shall not be rinsed before air drying or use unless:    \n(A) The rinse is applied directly from a potable water supply by a warewashing machine that is maintained and operated as specified under Subparts 4-204 and 4-501; and   \n(B) The rinse is applied only after the EQUIPMENT and UTENSILS have been SANITIZED by the application of hot water or by the application of a chemical SANITIZER solution whose EPA-registered label use instructions call for rinsing off the SANITIZER after it is applied in a commercial WAREWASHING machine.","violationType":"Core","itemDescription":null,"subItem":"","problemDescription":null,"subProblem":"","location":"3 COMPARTMENT SINK AREA","subLocation":"SANITIZING","corrected":"True","daysToCorrect":"30","correctedDate":"2019-09-25T00:00:00","correctionDescription":null}]},{"inspectionid":"47933","inspectionDate":"2019-06-02T00:00:00","inspectionType":"Routine Inspection","inCompliance":"Yes","violationsByInspectionidList":[]},{"inspectionid":"44284","inspectionDate":"2018-11-26T00:00:00","inspectionType":"Routine Inspection","inCompliance":"Yes","violationsByInspectionidList":[{"violationCode":"3-202.15","violationDescription":"FOOD packages shall be in good condition and protect the integrity of the contents so that the FOOD is not exposed to ADULTERATION or potential contaminants. (Pf)\n","violationType":"Foundation","itemDescription":"Food package(s)","subItem":"","problemDescription":"Dented, dented on seam or swollen","subProblem":"","location":"KITCHEN","subLocation":"On the Shelf","corrected":"True","daysToCorrect":"10","correctedDate":"2018-11-27T00:00:00","correctionDescription":"Discard."}]},{"inspectionid":"42017","inspectionDate":"2018-04-17T00:00:00","inspectionType":"Routine Inspection","inCompliance":"Yes","violationsByInspectionidList":[]},{"inspectionid":"39964","inspectionDate":"2017-09-11T00:00:00","inspectionType":"Routine Inspection","inCompliance":"Yes","violationsByInspectionidList":[]},{"inspectionid":"38973","inspectionDate":"2017-05-30T00:00:00","inspectionType":"Routine Inspection","inCompliance":"Yes","violationsByInspectionidList":[]},{"inspectionid":"37294","inspectionDate":"2016-11-30T00:00:00","inspectionType":"Routine Inspection","inCompliance":"Yes","violationsByInspectionidList":[]}]}],"maxInspectionDate":[{"inspectionDate":"2023-04-25T00:00:00"}]}},"pageContext":{"eid":"316"}},"staticQueryHashes":["3649515864","63159454"]}