{"data":{"site":{"pathPrefix":"/restaurant-inspections"},"postgres":{"establishment":[{"establishmentid":"758","name":"Alaskan Bar Homestead #3","address":"7625 Michigan Ave","zipcode":"4821","owner":"Bosko S. Marcevski","licenseNumber":"034767","licenseType":"Fixed Establishment","establishmentType":"Food Service Establishment","establishmentStatus":"Open","riskCategory":"Medium","reviewFrequencyDays":"365.0","coords":"-83.13685,42.33088","geojson":{"id":"758","type":"Feature","geometry":{"type":"Point","coordinates":[-83.136847245,42.330884928]},"properties":{"name":"Alaskan Bar Homestead #3","owner":"Bosko S. Marcevski","address":"7625 Michigan Ave","zipcode":"4821","license_type":"Fixed Establishment","risk_category":"Medium","license_number":"034767","establishmentid":"758","establishment_type":"Food Service Establishment","establishment_status":"Open","review_frequency_days":"365.0","most_recent_license_date":"4/29/2019"}},"nearbyList":[{"establishmentid":"2285","name":"Little Caesar's Pizza","address":"7633 Michigan Ave","zipcode":"4821"},{"establishmentid":"1009","name":"General George Patton Post #11","address":"4930 Central","zipcode":"4821"},{"establishmentid":"5348","name":"Hard Bodies Bar","address":"7443 Michigan Ave","zipcode":"4821"},{"establishmentid":"1283","name":"Papa's Pizza & Subs","address":"7801 Michigan Ave","zipcode":"4821"},{"establishmentid":"1132","name":"Cas Bar","address":"7800 Michigan Ave","zipcode":"4821"},{"establishmentid":"743","name":"Freer Bar","address":"7355 Michigan Ave","zipcode":"4821"},{"establishmentid":"3198","name":"Angel's Place","address":"7824 Michigan Ave","zipcode":"4821"},{"establishmentid":"789","name":"Red Park Inn Bar","address":"4442 Central ","zipcode":"4821"},{"establishmentid":"51622816","name":"Red Park Inn","address":"4442 Central St","zipcode":"4821"},{"establishmentid":"3914","name":"Subway #29822","address":"7300 Michigan Ave","zipcode":"4821"}],"inspectionsByEstablishmentidList":[{"inspectionid":"48414","inspectionDate":"2019-07-19T00:00:00","inspectionType":"Routine Inspection","inCompliance":"Yes","violationsByInspectionidList":[{"violationCode":"6-301.14","violationDescription":"A sign or poster that notifies FOOD EMPLOYEES to wash their hands shall be provided at all HANDWASHING SINKS used by FOOD EMPLOYEES and shall be clearly visible to FOOD EMPLOYEES.\r\n","violationType":"Core","itemDescription":"Handwashing signage","subItem":"","problemDescription":"Not provided","subProblem":"","location":"ESTABLISHMENT","subLocation":"Hand washing signage","corrected":"Not required","daysToCorrect":"30.0","correctedDate":null,"correctionDescription":"Provide."},{"violationCode":"4-904.14","violationDescription":"After being cleaned and SANITIZED, EQUIPMENT and UTENSILS shall not be rinsed before air drying or use unless:    \r\n(A) The rinse is applied directly from a potable water supply by a warewashing machine that is maintained and operated as specified under Subparts 4-204 and 4-501; and   \r\n(B) The rinse is applied only after the EQUIPMENT and UTENSILS have been SANITIZED by the application of hot water or by the application of a chemical SANITIZER solution whose EPA-registered label use instructions call for rinsing off the SANITIZER after it is applied in a commercial WAREWASHING machine.","violationType":"Core","itemDescription":null,"subItem":"","problemDescription":null,"subProblem":"","location":"3 COMPARTMENT SINK AREA","subLocation":"SANITIZING","corrected":"Not required","daysToCorrect":"30.0","correctedDate":null,"correctionDescription":null},{"violationCode":"5-501.17","violationDescription":"A toilet room used by females shall be provided with a covered receptacle for sanitary napkins.\r\n","violationType":"Core","itemDescription":"Covered waste receptacle(s)","subItem":"in ladies restroom","problemDescription":"Not provided","subProblem":"","location":"RESTROOM (WOMEN'S)","subLocation":"Covered waste container","corrected":"Not required","daysToCorrect":"30.0","correctedDate":null,"correctionDescription":"Provide."},{"violationCode":"6-202.14","violationDescription":"Except as otherwise allowed, a toilet room located on the PREMISES shall be completely enclosed and provided with a tight-fitting and self-closing door. \r\n","violationType":"Core","itemDescription":"Toilet room(s)","subItem":"men's","problemDescription":"Not provided with","subProblem":"Self-closing door","location":"RESTROOM (MEN'S)","subLocation":"door(s)","corrected":"Not required","daysToCorrect":"30.0","correctedDate":null,"correctionDescription":"Provide self-closing door."}]},{"inspectionid":"42787","inspectionDate":"2018-06-29T00:00:00","inspectionType":"Routine Inspection","inCompliance":"Yes","violationsByInspectionidList":[]},{"inspectionid":"38959","inspectionDate":"2017-06-08T00:00:00","inspectionType":"Routine Inspection","inCompliance":"Yes","violationsByInspectionidList":[]}]}],"maxInspectionDate":[{"inspectionDate":"2019-10-31T00:00:00"}]}},"pageContext":{"eid":"758"}}