{"data":{"site":{"pathPrefix":"/restaurant-inspections"},"postgres":{"establishment":[{"establishmentid":"51623324","name":"Burgertime","address":"14845 Mack Ave","zipcode":"48215","owner":"Burger Time Inc.","licenseNumber":"101220PS","licenseType":"Fixed Establishment","establishmentType":"Food Service Establishment","establishmentStatus":"Open","riskCategory":null,"reviewFrequencyDays":"180","coords":"-82.94863,42.38778","geojson":{"id":"51623324","type":"Feature","geometry":{"type":"Point","coordinates":[-82.948630145,42.387776868]},"properties":{"name":"Burgertime","owner":"Burger Time Inc.","address":"14845 Mack Ave","zipcode":"48215","license_type":"Fixed Establishment","risk_category":null,"license_number":"101220PS","establishmentid":"51623324","establishment_type":"Food Service Establishment","establishment_status":"Open","review_frequency_days":"180","most_recent_license_date":null}},"nearbyList":[{"establishmentid":"5381","name":"Mack Coney Island","address":"14845 Mack Ave","zipcode":"48215"},{"establishmentid":"51622848","name":"Foodelicious","address":"14845 Mack Ave","zipcode":"48215"},{"establishmentid":"3332","name":"Chicken Shack","address":"14630 Mack Ave","zipcode":"48215"},{"establishmentid":"2002","name":"East Bar-Detroit","address":"15045 Mack Ave","zipcode":"48224"},{"establishmentid":"1684","name":"Ye Olde Tap Room","address":"14915 Charlevoix St","zipcode":"48215"},{"establishmentid":"3768","name":"Krazy Pizza","address":"14300 Mack Ave","zipcode":"48215"},{"establishmentid":"4868","name":"D C's Alabama Style Chicken Fish & Ribs","address":"15401 Mack Ave","zipcode":"48224"},{"establishmentid":"5150","name":"Memories","address":"15421 Mack Ave","zipcode":"48224"},{"establishmentid":"51622760","name":"Lost River","address":"15421 Mack Ave","zipcode":"48224"},{"establishmentid":"51623257","name":"Pop Culture Vegan Cafe","address":"15439 Mack Ave","zipcode":"48224"}],"inspectionsByEstablishmentidList":[{"inspectionid":"53238","inspectionDate":"2020-10-28T00:00:00","inspectionType":"Routine Inspection","inCompliance":"Yes","violationsByInspectionidList":[{"violationCode":"4-602.13","violationDescription":"NonFOOD-CONTACT SURFACES of EQUIPMENT shall be cleaned at a frequency necessary to preclude accumulation of soil residues.\r\n","violationType":"Core","itemDescription":"Nonfood contact surface(s)","subItem":"","problemDescription":"Soiled","subProblem":"","location":"WAITING AREA","subLocation":"Under the Beverage Dispenser","corrected":"Not required","daysToCorrect":"30","correctedDate":null,"correctionDescription":"Keep clean."},{"violationCode":"6-501.12","violationDescription":"(A) PHYSICAL FACILITIES shall be cleaned as often as necessary to keep them clean.\r\n(B) Except spill cleanup, cleaning shall be done during periods when the least amount of FOOD is exposed such as after closing. ","violationType":"Core","itemDescription":"Physical facilities/structures","subItem":"ceiling","problemDescription":"Soiled","subProblem":"","location":"REAR PREP AREA","subLocation":"At the Ceiling tile(s)","corrected":"Not required","daysToCorrect":"30","correctedDate":null,"correctionDescription":"Keep clean."},{"violationCode":"4-602.12","violationDescription":"(A) The FOOD-CONTACT SURFACES of cooking and baking EQUIPMENT shall be cleaned at least every 24 hours. This section does not apply to hot oil cooking and filtering EQUIPMENT if it is cleaned as specified in Subparagraph 4-602.11(D)(6).   \r\n(B) The cavities and door seals of microwave ovens shall be cleaned at least every 24 hours by using the manufacturer's recommended cleaning procedure.","violationType":"Core","itemDescription":"Microwave oven door seals and cavities","subItem":"","problemDescription":"Not cleaned","subProblem":"","location":"REAR PREP AREA","subLocation":"Inside the Microwave Oven(s)","corrected":"Not required","daysToCorrect":"30","correctedDate":null,"correctionDescription":null},{"violationCode":"6-501.16","violationDescription":"After use, mops shall be placed in a position that allows them to air-dry without soiling walls, EQUIPMENT, or supplies.\r\n","violationType":"Core","itemDescription":"Wet mop(s) storage","subItem":"","problemDescription":"Improperly dried","subProblem":"","location":"MOP SINK AREA","subLocation":"At the Mop","corrected":"Not required","daysToCorrect":"30","correctedDate":null,"correctionDescription":null}]}]}],"maxInspectionDate":[{"inspectionDate":"2020-10-30T00:00:00"}]}},"pageContext":{"eid":"51623324"}}