{"data":{"site":{"pathPrefix":"/restaurant-inspections"},"postgres":{"establishment":[{"establishmentid":"5401","name":"Express Dogs","address":"220 Bagley Ste 244","zipcode":"48209","owner":"Tommy Head","licenseNumber":"229229","licenseType":"Mobile Food Establishment","establishmentType":"LHD - Mobile Food Establishmen","establishmentStatus":"Open","riskCategory":"Medium","reviewFrequencyDays":"365.0","coords":"-83.05339,42.33480","geojson":{"id":"5401","type":"Feature","geometry":{"type":"Point","coordinates":[-83.053390228,42.3348001530001]},"properties":{"name":"Express Dogs","owner":"Tommy Head","address":"220 Bagley Ste 244","zipcode":"48209","license_type":"Mobile Food Establishment","risk_category":"Medium","license_number":"229229","establishmentid":"5401","establishment_type":"LHD - Mobile Food Establishmen","establishment_status":"Open","review_frequency_days":"365.0","most_recent_license_date":"3/28/2018"}},"nearbyList":[{"establishmentid":"5133","name":"Coaches Corner Bar & Grill","address":"210 Bagley Ave","zipcode":"48226"},{"establishmentid":"652","name":"Nick's Gaslight Inc.","address":"441 W Grand River ","zipcode":"48226"},{"establishmentid":"5167","name":"Savannahblue","address":"1431 Times Square","zipcode":"48226"},{"establishmentid":"4655","name":"Leland House","address":"400 Bagley Ave","zipcode":"48226"},{"establishmentid":"720","name":"Lucy & Ethel's Diner","address":"400 Bagley Ave","zipcode":"48226"},{"establishmentid":"4916","name":"Republic Tavern","address":"1942 Grand River","zipcode":"48226"},{"establishmentid":"3584","name":"Cliff Bells","address":"2030 Park Ave","zipcode":"48201"},{"establishmentid":"3996","name":"Park Bar","address":"2040 Park Ave","zipcode":"48201"},{"establishmentid":"5207","name":"Rusted Crow Detroit","address":"78 W Adams St","zipcode":"48226"},{"establishmentid":"4076","name":"Subway","address":"28 W Adams","zipcode":"48226"},{"establishmentid":"51622517","name":"Brass Rail","address":"18 W Adams","zipcode":"48226"},{"establishmentid":"51622694","name":"The Annex","address":"24 W Adams","zipcode":"48226"},{"establishmentid":"5374","name":"La Pecora Nera","address":"1514 Washington Blvd Ste. 104","zipcode":"48226"},{"establishmentid":"3966","name":"Bookies Bar and Grille","address":"2208 Cass Ave","zipcode":"48226"},{"establishmentid":"4859","name":"Norte","address":"22 W Adams","zipcode":"48226"},{"establishmentid":"4975","name":"Aloft Detroit W XYZ","address":"1 Park Ave","zipcode":"48226"},{"establishmentid":"5002","name":"St. Aloysius","address":"1232 Washington Blvd","zipcode":"48226"},{"establishmentid":"3172","name":"Centaur Bar","address":"2233 Park Avenue","zipcode":"48201-34"},{"establishmentid":"4340","name":"Hot Taco","address":"2233 Park Ave","zipcode":"48201"},{"establishmentid":"4853","name":"Downtown Louie's","address":"30 Clifford","zipcode":"48226"}],"inspectionsByEstablishmentidList":[{"inspectionid":"45292","inspectionDate":"2018-04-13T00:00:00","inspectionType":"Plan Review/Pre-Open","inCompliance":"Yes","violationsByInspectionidList":[{"violationCode":"4-501.11","violationDescription":"EQUIPMENT shall be maintained in a state of repair and condition that meets the requirements of the code.\r\n","violationType":"Core","itemDescription":"Equipment","subItem":"","problemDescription":"In poor repair","subProblem":"","location":"HOT DOG CART","subLocation":"","corrected":"Not required","daysToCorrect":"30.0","correctedDate":null,"correctionDescription":"Repair"},{"violationCode":"MFL289.6135","violationDescription":"Sec. 6135. (1) The name and address of the business operating a mobile food establishment shall be affixed to each side of the exterior of the vehicle in letters not less than 3 inches high and 3/8 of an inch wide and shall be in contrast to the vehicle background color. When more than 1 mobile food service establishment is operated by the same person, the director shall assign a number to each establishment.  (2) A copy of limitations attached to the license of a mobile food service establishment shall be carried on the mobile food service establishment at all times.  (3) If a mobile food establishment is operating on a regularly scheduled route, the director may require the license holder to provide a copy of the route schedule when the license is approved and every time the route schedule is changed.  (4) The director or the operator in the presence of the director shall affix 2 decals provided by the department on the mobile food establishment when the license is issued. The decals shall be conspicuously displayed on each side of the mobile food establishment so as to be visible when in transit and while serving the public.","violationType":"Core","itemDescription":null,"subItem":"","problemDescription":null,"subProblem":"","location":"HOT DOG CART","subLocation":"","corrected":"Not required","daysToCorrect":"30.0","correctedDate":null,"correctionDescription":"Provide"},{"violationCode":"6-202.15","violationDescription":"Outer openings of a FOOD ESTABLISHMENT shall be protected against the entry of insects and rodents. Unless otherwise allowed by law. \r\n","violationType":"Core","itemDescription":"Outer opening(s)","subItem":"","problemDescription":"Not provided with","subProblem":"Screening that is sixteen mesh to the inch or greater","location":"HOT DOG CART","subLocation":"","corrected":"Not required","daysToCorrect":"30.0","correctedDate":null,"correctionDescription":"Repair/replace to meet requirements above."}]},{"inspectionid":"45278","inspectionDate":"2017-08-08T00:00:00","inspectionType":"Routine Inspection","inCompliance":"Yes","violationsByInspectionidList":[{"violationCode":"5-205.15","violationDescription":"A PLUMBING SYSTEM shall be:\r\n(A) Repaired according to LAW; (P) and\r\n(B) Maintained in good repair.\r\n","violationType":"Core","itemDescription":"Plumbing system","subItem":"","problemDescription":"Not maintained","subProblem":"","location":"HOT DOG CART","subLocation":"","corrected":"Not required","daysToCorrect":"10.0","correctedDate":null,"correctionDescription":"Maintain in good repair"},{"violationCode":"4-602.13","violationDescription":"NonFOOD-CONTACT SURFACES of EQUIPMENT shall be cleaned at a frequency necessary to preclude accumulation of soil residues.\r\n","violationType":"Core","itemDescription":"Nonfood contact surface(s)","subItem":"","problemDescription":"Soiled","subProblem":"","location":"HOT DOG CART","subLocation":"","corrected":"Not required","daysToCorrect":"30.0","correctedDate":null,"correctionDescription":"Keep clean."},{"violationCode":"4-501.11","violationDescription":"EQUIPMENT shall be maintained in a state of repair and condition that meets the requirements of the code.\r\n","violationType":"Core","itemDescription":"Equipment","subItem":"","problemDescription":"In poor repair","subProblem":"","location":"HOT DOG CART","subLocation":"","corrected":"Not required","daysToCorrect":"30.0","correctedDate":null,"correctionDescription":"Repair"}]}]}]}},"pageContext":{"eid":"5401"}}