{"data":{"site":{"pathPrefix":"/restaurant-inspections"},"postgres":{"establishment":[{"establishmentid":"929","name":"City Limits Bar and Grill","address":"24501 Grand River Ave","zipcode":"48219","owner":"Gurley Enterprise LLC","licenseNumber":"217966","licenseType":"Fixed Establishment","establishmentType":"Food Service Establishment","establishmentStatus":"Open","riskCategory":null,"reviewFrequencyDays":"530.0","coords":"-83.28299,42.42625","geojson":{"id":"929","type":"Feature","geometry":{"type":"Point","coordinates":[-83.2829947129999,42.4262537760001]},"properties":{"name":"City Limits Bar and Grill","owner":"Gurley Enterprise LLC","address":"24501 Grand River Ave","zipcode":"48219","license_type":"Fixed Establishment","risk_category":null,"license_number":"217966","establishmentid":"929","establishment_type":"Food Service Establishment","establishment_status":"Open","review_frequency_days":"530.0","most_recent_license_date":"5/19/2016"}},"nearbyList":[{"establishmentid":"751","name":"Dairy Queen of Redford","address":"24671 Grand River Ave","zipcode":"48219"},{"establishmentid":"51622651","name":"Views Bar and Grill","address":"24200 Grand River","zipcode":"48219"},{"establishmentid":"4630","name":"Just Martinis Bar and Grill (DBA Demi's)","address":"24201 W Seven Mile Rd","zipcode":"48219"},{"establishmentid":"5231","name":"Detroit Fresh Fish & Seafood Co. Inc.","address":"19001 Telegraph Rd","zipcode":"48219"},{"establishmentid":"3885","name":"Ray's Pizza & Chicken","address":"19005 Telegraph Rd","zipcode":"48219"},{"establishmentid":"1575","name":"China 1 Chinese Restaurant","address":"19129 Telegraph Rd","zipcode":"48219"},{"establishmentid":"1542","name":"Subway #6309","address":"19127 Telegraph Rd","zipcode":"48219"},{"establishmentid":"4318","name":"Nu Wave Fish & Chicken","address":"19125 Telegraph Rd","zipcode":"48219"},{"establishmentid":"4281","name":"Tai Ho","address":"23720 W Seven Mile Rd","zipcode":"48219"},{"establishmentid":"353","name":"Aurora Coney Island","address":"23671 W Seven Mile Rd","zipcode":"48219"}],"inspectionsByEstablishmentidList":[{"inspectionid":"41701","inspectionDate":"2018-02-28T00:00:00","inspectionType":"Routine Inspection","inCompliance":"Yes","violationsByInspectionidList":[{"violationCode":"6-301.12","violationDescription":"Each HANDWASHING SINK or group of adjacent HANDWASHING SINKS shall be provided with:\r\n(A) Individual, disposable towels; (Pf)\r\n(B) A continuous towel system that supplies the user with a clean towel;(Pf) or \r\n(C) A heated-air hand drying device.(Pf)\r\n(D) A hand drying device that employs an air-knife system that delivers high velocity pressurized air at ambient temperatures.(Pf)\r\n","violationType":"Foundation","itemDescription":"Sanitary hand drying provisions","subItem":"disposable, paper towels","problemDescription":"Not provided","subProblem":"At hand sink","location":"HANDSINK(S)","subLocation":"","corrected":"Yes","daysToCorrect":"10.0","correctedDate":"2018-02-28T00:00:00","correctionDescription":"Provide"}]},{"inspectionid":"36508","inspectionDate":"2016-09-16T00:00:00","inspectionType":"Routine Inspection","inCompliance":"Yes","violationsByInspectionidList":[{"violationCode":"4-601.11","violationDescription":"(A) EQUIPMENT FOOD-CONTACT SURFACES and UTENSILS shall be clean to sight and touch. (Pf)\r\n(B) The FOOD-CONTACT SURFACES of cooking EQUIPMENT and pans shall be kept free of encrusted grease deposits and other soil accumulations. \r\n(C) NonFOOD-CONTACT SURFACES of EQUIPMENT shall be kept free of an accumulation of dust, dirt, FOOD residue, and other debris. \r\n","violationType":"Core","itemDescription":"Food-contact surface(s)","subItem":"","problemDescription":"Soiled","subProblem":"","location":"BAR","subLocation":"","corrected":"Not required","daysToCorrect":"10.0","correctedDate":null,"correctionDescription":"Clean."}]}]}]}},"pageContext":{"eid":"929"}}