{"data":{"site":{"pathPrefix":"/restaurant-inspections"},"postgres":{"establishment":[{"establishmentid":"5108","name":"Riverwalk Cafe Mt. Elliott","address":"120 Mt Elliott Rd","zipcode":"48207","owner":"Andiamo","licenseNumber":"081278","licenseType":"Fixed Establishment","establishmentType":"Food Service Establishment","establishmentStatus":"Seasonal","riskCategory":"Low","reviewFrequencyDays":"380.0","coords":"-83.00860,42.34164","geojson":{"id":"5108","type":"Feature","geometry":{"type":"Point","coordinates":[-83.008598977,42.3416415250001]},"properties":{"name":"Riverwalk Cafe Mt. Elliott","owner":"Andiamo","address":"120 Mt Elliott Rd","zipcode":"48207","license_type":"Fixed Establishment","risk_category":"Low","license_number":"081278","establishmentid":"5108","establishment_type":"Food Service Establishment","establishment_status":"Seasonal","review_frequency_days":"380.0","most_recent_license_date":"5/11/2018"}},"nearbyList":[{"establishmentid":"3203","name":"Happy's Pizza #11","address":"6412 E Jefferson Ave","zipcode":"48207"},{"establishmentid":"651","name":"Harbortown Pizza & Subs Inc. d/b/a Jet's","address":"3420 E Jefferson Ave","zipcode":"48207"},{"establishmentid":"51622615","name":"Le Petit Dejeuner","address":"6470 E Jefferson Ave","zipcode":"48207"},{"establishmentid":"2764","name":"Little Caesar's Pizza #164","address":"500 Mt Elliott St","zipcode":"48207"},{"establishmentid":"5317","name":"Comfort Cafe","address":"6533 E Jefferson Ave","zipcode":"48207"},{"establishmentid":"1800","name":"Wendy's","address":"6601 E Jefferson Ave","zipcode":"48207"},{"establishmentid":"503","name":"Peking Express","address":"3444 E Jefferson Ave","zipcode":"48207"},{"establishmentid":"513","name":"Subway Harbortown Detroit","address":"3424 E Jefferson Ave","zipcode":"48207"},{"establishmentid":"5161","name":"Southern Fire Bistro & Lounge","address":"575 Bellevue St","zipcode":"48207"},{"establishmentid":"3733","name":"Tubby's Submarine","address":"3250 E Jefferson Ave","zipcode":"48207"},{"establishmentid":"5319","name":"Cranks","address":"200 Walker","zipcode":"48207"},{"establishmentid":"51622568","name":"Bread Basket Deli Downtown Detroit","address":"3242 E Jefferson Ave","zipcode":"48207"},{"establishmentid":"1188","name":"Church's Fried Chicken #345","address":"6931 E Jefferson Ave","zipcode":"48207"},{"establishmentid":"1882","name":"City Pekin Chinese Food","address":"6905 E Jefferson Ave","zipcode":"48207"},{"establishmentid":"51622756","name":"Detroit City Field House","address":"3401 E Lafayette St","zipcode":"48207"},{"establishmentid":"777","name":"Curis Big Boy Restaurant","address":"7033 E Jefferson Ave","zipcode":"48207"},{"establishmentid":"4410","name":"Detroit Affordable Assisted Living","address":"3103 Wight St","zipcode":"48207"},{"establishmentid":"894","name":"Martin Luther King High School","address":"3200 E Lafayette St","zipcode":"48207"},{"establishmentid":"2159","name":"Roberts Riverwalk Hotel","address":"1000 River Place","zipcode":"48207"},{"establishmentid":"206","name":"Rivertown Pizza Papalis ","address":"3171 E Jefferson Ave","zipcode":"48207"}],"inspectionsByEstablishmentidList":[{"inspectionid":"42794","inspectionDate":"2018-07-02T00:00:00","inspectionType":"Routine Inspection","inCompliance":"Yes","violationsByInspectionidList":[{"violationCode":"4-501.11","violationDescription":"EQUIPMENT shall be maintained in a state of repair and condition that meets the requirements of the code.\r\n","violationType":"Core","itemDescription":"Equipment","subItem":"","problemDescription":"In poor repair","subProblem":"","location":"FRONT COUNTER/AREA","subLocation":"At the Cooler (small)","corrected":"Yes","daysToCorrect":"30.0","correctedDate":"2018-07-02T00:00:00","correctionDescription":null}]},{"inspectionid":"38954","inspectionDate":"2017-06-09T00:00:00","inspectionType":"Routine Inspection","inCompliance":"Yes","violationsByInspectionidList":[{"violationCode":"6-501.12","violationDescription":"(A) PHYSICAL FACILITIES shall be cleaned as often as necessary to keep them clean.\r\n(B) Except spill cleanup, cleaning shall be done during periods when the least amount of FOOD is exposed such as after closing. ","violationType":"Core","itemDescription":"Physical facilities/structures","subItem":"floors","problemDescription":"Soiled","subProblem":"","location":"KITCHEN","subLocation":"Under the Soft serve machine","corrected":"Not required","daysToCorrect":"30.0","correctedDate":null,"correctionDescription":"Keep clean."},{"violationCode":"4-602.13","violationDescription":"NonFOOD-CONTACT SURFACES of EQUIPMENT shall be cleaned at a frequency necessary to preclude accumulation of soil residues.\r\n","violationType":"Core","itemDescription":"Nonfood contact surface(s)","subItem":"","problemDescription":"Soiled","subProblem":"","location":"REAR STORAGE ROOM","subLocation":"On the Boxes","corrected":"Yes","daysToCorrect":"30.0","correctedDate":"2017-06-09T00:00:00","correctionDescription":"Keep clean."},{"violationCode":"4-501.11","violationDescription":"EQUIPMENT shall be maintained in a state of repair and condition that meets the requirements of the code.\r\n","violationType":"Core","itemDescription":"Equipment","subItem":"","problemDescription":"In poor repair","subProblem":"","location":"KITCHEN","subLocation":"Behind the Soft serve machine","corrected":"Yes","daysToCorrect":"30.0","correctedDate":"2017-06-09T00:00:00","correctionDescription":null}]}]}]}},"pageContext":{"eid":"5108"}}