{"data":{"site":{"pathPrefix":null},"postgres":{"establishment":[{"establishmentid":"4311","name":"Holy Redeemer Church","address":"1721 Junction","zipcode":"48209","owner":"Dennis Walsh, SOLT","licenseNumber":"203412","licenseType":"Fixed Establishment","establishmentType":"Food Service Establishment","establishmentStatus":null,"riskCategory":null,"reviewFrequencyDays":"365.0","coords":"-83.10207,42.31707","geojson":{"id":"4311","type":"Feature","geometry":{"type":"Point","coordinates":[-83.1020662829999,42.317066121]},"properties":{"name":"Holy Redeemer Church","owner":"Dennis Walsh, SOLT","address":"1721 Junction","zipcode":"48209","license_type":"Fixed Establishment","risk_category":null,"license_number":"203412","establishmentid":"4311","establishment_type":"Food Service Establishment","establishment_status":null,"review_frequency_days":"365.0","most_recent_license_date":"4/30/2015"}},"nearbyList":[{"establishmentid":"1525","name":"Holy Redeemer Grade School","address":"1711 Junction Ave","zipcode":"48209"},{"establishmentid":"3647","name":"Pollo Chapin","address":"2054 Junction Ave","zipcode":"48209"},{"establishmentid":"4662","name":"Tacos Morelotes","address":"1494 Junction Ave","zipcode":"48209"},{"establishmentid":"4677","name":"La Fiesta Ice Cream Shop","address":"4801 W Vernor Hwy","zipcode":"48209"},{"establishmentid":"3095","name":"Los Corrales","address":"2244 Junction Ave","zipcode":"48209"},{"establishmentid":"5375","name":"Checker's Drive Inn ","address":"6060 W Vernor Hwy","zipcode":"48209"},{"establishmentid":"51622884","name":"China House","address":"1650 Lansing St","zipcode":"48209"},{"establishmentid":"2402","name":"China House","address":"1650 Lansing St","zipcode":"48209"},{"establishmentid":"5402","name":"Antojitos Los Tres Hermanos","address":"4627 W Vernor St","zipcode":"48209"},{"establishmentid":"931","name":"Neinas Elementary","address":"6021 McMillan","zipcode":"48209"}],"inspectionsByEstablishmentidList":[{"inspectionid":"43873","inspectionDate":"2018-05-17T00:00:00","inspectionType":"Routine Inspection","inCompliance":"Yes","violationsByInspectionidList":[]},{"inspectionid":"39237","inspectionDate":"2017-07-13T00:00:00","inspectionType":"Routine Inspection","inCompliance":"Yes","violationsByInspectionidList":[{"violationCode":"5-402.11","violationDescription":"Except as otherwise allowed, a direct connection may not exist between the SEWAGE system and a drain originating from EQUIPMENT in which FOOD, portable EQUIPMENT, or UTENSILS are placed. (P)\r\n","violationType":"Priority","itemDescription":null,"subItem":"","problemDescription":null,"subProblem":"","location":"KITCHEN","subLocation":"","corrected":"Yes","daysToCorrect":"10.0","correctedDate":"2017-07-14T00:00:00","correctionDescription":null},{"violationCode":"4-501.11","violationDescription":"EQUIPMENT shall be maintained in a state of repair and condition that meets the requirements of the code.\r\n","violationType":"Core","itemDescription":null,"subItem":"","problemDescription":null,"subProblem":"","location":"KITCHEN","subLocation":"","corrected":"Yes","daysToCorrect":"30.0","correctedDate":"2017-07-14T00:00:00","correctionDescription":null}]}]}]}},"pageContext":{"eid":"4311"}}