{"componentChunkName":"component---src-templates-establishment-page-js","path":"/establishment/262","result":{"data":{"site":{"pathPrefix":"/restaurant-inspections"},"postgres":{"establishment":[{"establishmentid":"262","name":"B. M. G. Bar & Grill","address":"20809 Joy Rd.","zipcode":"48228","owner":"Ronald Griffin","licenseNumber":"247183","licenseType":"Fixed Establishment","establishmentType":"Food Service Establishment","establishmentStatus":"Permanently Closed","riskCategory":"High","reviewFrequencyDays":"335","coords":"-83.24474,42.35713","geojson":{"id":"262","type":"Feature","geometry":{"type":"Point","coordinates":[-83.244740596,42.357131665]},"properties":{"name":"B. M. G. Bar & Grill","owner":"Ronald Griffin","address":"20809 Joy Rd.","zipcode":"48228","license_type":"Fixed Establishment","risk_category":"High","license_number":"247183","establishmentid":"262","establishment_type":"Food Service Establishment","establishment_status":"Permanently Closed","review_frequency_days":"335","most_recent_license_date":null}},"nearbyList":[{"establishmentid":"1983","name":"Dynasty Express NY Style Chinese Food","address":"20622 Joy Rd.","zipcode":"48228"},{"establishmentid":"263","name":"E & H Lounge","address":"20531 Joy Rd.","zipcode":"48228"},{"establishmentid":"51623397","name":"Buick Hall","address":"20531  Joy Rd.","zipcode":"48228"},{"establishmentid":"890","name":"Dixon Educational Learning Center","address":"8401 Trinity","zipcode":"48228"},{"establishmentid":"1274","name":"McColl Elementary School","address":"20550 Cathedral","zipcode":"48228"},{"establishmentid":"264","name":"Loose Ends, Inc/dba Club Ro-zay","address":"20226 Joy Rd.","zipcode":"48228"},{"establishmentid":"51623012","name":"Ameera's Place","address":"20226 Joy Rd.","zipcode":"48228"},{"establishmentid":"51622456","name":"Chris Top Dog's LLC","address":"8420 Stout","zipcode":"48228"},{"establishmentid":"51622775","name":"Joy & Green Mart LLC","address":"20000 Joy Rd.","zipcode":"48228"},{"establishmentid":"51623483","name":"Joy Chicken & Seafood","address":"20000 Joy","zipcode":"48228"}],"inspectionsByEstablishmentidList":[{"inspectionid":"57007","inspectionDate":"2022-01-20T00:00:00","inspectionType":"Closed - Temporary","inCompliance":"Yes","violationsByInspectionidList":[]},{"inspectionid":"53894","inspectionDate":"2021-01-20T00:00:00","inspectionType":"COVID19not inspected","inCompliance":"Yes","violationsByInspectionidList":[]},{"inspectionid":"49440","inspectionDate":"2019-10-11T00:00:00","inspectionType":"Routine Inspection","inCompliance":"No","violationsByInspectionidList":[{"violationCode":"4-302.14","violationDescription":"A test kit or other device that accurately measures the concentration in mg/L of SANITIZING solutions shall be provided. (Pf)\n","violationType":"Foundation","itemDescription":"Sanitizer test kit","subItem":null,"problemDescription":"Not provided","subProblem":null,"location":"WARE WASHING AREA","subLocation":null,"corrected":"False","daysToCorrect":"10","correctedDate":null,"correctionDescription":"Provide."},{"violationCode":"6-501.114","violationDescription":"The PREMISES shall be free of items that are unnecessary to the operation or maintenance of the establishment such as EQUIPMENT that is nonfunctional, no longer used and free of litter.\n","violationType":"Core","itemDescription":"Unnecessary item(s)","subItem":null,"problemDescription":"Not removed from facility","subProblem":null,"location":"THROUGHOUT FACILITY","subLocation":null,"corrected":"False","daysToCorrect":"30","correctedDate":null,"correctionDescription":"Remove from facility/premises."}]},{"inspectionid":"43309","inspectionDate":"2018-08-31T00:00:00","inspectionType":"Routine Inspection","inCompliance":"No","violationsByInspectionidList":[{"violationCode":"4-302.14","violationDescription":"A test kit or other device that accurately measures the concentration in mg/L of SANITIZING solutions shall be provided. (Pf)\n","violationType":"Foundation","itemDescription":"Sanitizer test kit","subItem":null,"problemDescription":"Not provided","subProblem":null,"location":"WARE WASHING AREA","subLocation":null,"corrected":"False","daysToCorrect":"10","correctedDate":null,"correctionDescription":"Provide."}]},{"inspectionid":"39452","inspectionDate":"2017-08-02T00:00:00","inspectionType":"Routine Inspection","inCompliance":"Yes","violationsByInspectionidList":[]}]}],"maxInspectionDate":[{"inspectionDate":"2022-08-31T00:00:00"}]}},"pageContext":{"eid":"262"}},"staticQueryHashes":["3649515864","63159454"]}