{"componentChunkName":"component---src-templates-establishment-page-js","path":"/establishment/51623290","result":{"data":{"site":{"pathPrefix":"/restaurant-inspections"},"postgres":{"establishment":[{"establishmentid":"51623290","name":"McDonalds","address":"10400 Gratiot Ave ","zipcode":"48213","owner":"Yusef Alcodray","licenseNumber":"249496","licenseType":"Fixed Establishment","establishmentType":"Food Service Establishment","establishmentStatus":"Open","riskCategory":null,"reviewFrequencyDays":"335","coords":"-83.00051,42.39927","geojson":{"id":"51623290","type":"Feature","geometry":{"type":"Point","coordinates":[-83.000512438,42.399268193]},"properties":{"name":"McDonalds","owner":"Yusef Alcodray","address":"10400 Gratiot Ave ","zipcode":"48213","license_type":"Fixed Establishment","risk_category":null,"license_number":"249496","establishmentid":"51623290","establishment_type":"Food Service Establishment","establishment_status":"Open","review_frequency_days":"335","most_recent_license_date":"3/15/2021"}},"nearbyList":[{"establishmentid":"1071","name":"McDonald's #2527","address":"10400 Gratiot Ave.","zipcode":"48213"},{"establishmentid":"380","name":"White Castle #48","address":"10500 Gratiot Ave.","zipcode":"48213"},{"establishmentid":"4474","name":"Tim Hortons","address":"10533 Gratiot Ave.","zipcode":"48213"},{"establishmentid":"2782","name":"Variety Vending","address":"10148 Gratiot","zipcode":"48213"},{"establishmentid":"2515","name":"Robinson Dairy Vending","address":"10148 Gratiot","zipcode":"48213"},{"establishmentid":"4720","name":"Stick to Your Bones","address":"10310 Harper Rd.","zipcode":"48205"},{"establishmentid":"1853","name":"Sterling Services","address":"11201 Conner","zipcode":"48213"},{"establishmentid":"1519","name":"Brenda's Rib Cage","address":"9992 Gratiot Ave.","zipcode":"48213"},{"establishmentid":"2148","name":"Operation Get Down","address":"10100 Harper Ave.","zipcode":"48213"},{"establishmentid":"3261","name":"Operation Get Down","address":"10100 Harper Ave.","zipcode":"48213"}],"inspectionsByEstablishmentidList":[{"inspectionid":"59288","inspectionDate":"2022-05-02T00:00:00","inspectionType":"Preopening/Other","inCompliance":"Yes","violationsByInspectionidList":[{"violationCode":"6-501.12","violationDescription":"(A) PHYSICAL FACILITIES shall be cleaned as often as necessary to keep them clean.\n(B) Except spill cleanup, cleaning shall be done during periods when the least amount of FOOD is exposed such as after closing. ","violationType":"Core","itemDescription":"Physical facilities/structures","subItem":null,"problemDescription":"Not clean","subProblem":null,"location":"BEVERAGE AREA","subLocation":null,"corrected":"True","daysToCorrect":"30","correctedDate":"2022-05-02T00:00:00","correctionDescription":"Clean"},{"violationCode":"4-402.11","violationDescription":"EQUIPMENT that is fixed because it is not EASILY MOVABLE shall be installed so that it is spaced to allow access for cleaning along the sides, behind, and above the EQUIPMENT or sealed as required,  COUNTER-MOUNTED EQUIPMENT that is not EASILY MOVABLE shall be installed to allow cleaning of the EQUIPMENT and areas underneath and around the EQUIPMENT .\n","violationType":"Core","itemDescription":"Fixed equipment","subItem":null,"problemDescription":"Not sealed to adjoining","subProblem":"Wall(s)","location":"DISHWASHING AREA","subLocation":null,"corrected":"True","daysToCorrect":"30","correctedDate":"2022-05-02T00:00:00","correctionDescription":"Seal to wall/equipment to facilitate cleaning."}]}]}],"maxInspectionDate":[{"inspectionDate":"2022-07-25T00:00:00"}]}},"pageContext":{"eid":"51623290"}},"staticQueryHashes":["3649515864","63159454"]}