{"componentChunkName":"component---src-templates-establishment-page-js","path":"/establishment/4252","result":{"data":{"site":{"pathPrefix":"/restaurant-inspections"},"postgres":{"establishment":[{"establishmentid":"4252","name":"Kavanagh","address":"1426  Bagley","zipcode":"48216","owner":"Celeste Belanger","licenseNumber":"070260","licenseType":"Fixed Establishment","establishmentType":"Food Service Establishment","establishmentStatus":null,"riskCategory":null,"reviewFrequencyDays":"150","coords":"-83.06508,42.32994","geojson":{"id":"4252","type":"Feature","geometry":{"type":"Point","coordinates":[-83.06508181,42.329935337]},"properties":{"name":"Kavanagh","owner":"Celeste Belanger","address":"1426  Bagley","zipcode":"48216","license_type":"Fixed Establishment","risk_category":null,"license_number":"070260","establishmentid":"4252","establishment_type":"Food Service Establishment","establishment_status":null,"review_frequency_days":"150","most_recent_license_date":"2015-05-20"}},"nearbyList":[{"establishmentid":"51623473","name":"Alpino","address":"1426  Bagley","zipcode":"48226"},{"establishmentid":"2965","name":"Baile Corcaigh","address":"1426 Bagley","zipcode":"48216"},{"establishmentid":"5416","name":"Lady of the House, LLC","address":"1426 Bagley","zipcode":"48216"},{"establishmentid":"51622591","name":"Nest Egg, LLC (Folk Detroit)","address":"1701 Trumbull","zipcode":"48216"},{"establishmentid":"51622639","name":"Meta Physica Wellness Center","address":"1701 Trumbull ","zipcode":"48216"},{"establishmentid":"51623053","name":"Mink","address":"1701 Trumbull","zipcode":"48216"},{"establishmentid":"51623536","name":"Nomadic ( Folk) Food Truck","address":"1701 Trumbull Ste. B","zipcode":"48216"},{"establishmentid":"51623946","name":"Godfrey Hotel Det. Lobby Bar & Banquets","address":"1401 Michigan Ave.","zipcode":"48216"},{"establishmentid":"51623947","name":"Godfrey Hotel Det 7th Floor Bar & Pantry","address":"1401 Michigan Ave","zipcode":"48216"},{"establishmentid":"51623948","name":"Godfrey Hotel-The Hamilton @ Godfrey","address":"1401 Michigan","zipcode":"48216"}],"inspectionsByEstablishmentidList":[{"inspectionid":"39729","inspectionDate":"2017-08-28T00:00:00","inspectionType":"Routine Inspection","inCompliance":"Yes","violationsByInspectionidList":[{"violationCode":"5-203.14","violationDescription":"A PLUMBING SYSTEM shall be installed to preclude backflow of contaminants into the water supply system at each point of use at the FOOD ESTABLISHMENT by providing an air gap or installing an APPROVED backflow prevention device. (P)\n","violationType":"Priority","itemDescription":"Backflow prevention","subItem":"backflow/backsiphonage device vacuum breaker","problemDescription":"Not provided","subProblem":"","location":"OUTSIDE PREMISES","subLocation":"At the Hose spigot","corrected":"True","daysToCorrect":"10","correctedDate":"2017-08-29T00:00:00","correctionDescription":"Provide as required"},{"violationCode":"5-203.14","violationDescription":"A PLUMBING SYSTEM shall be installed to preclude backflow of contaminants into the water supply system at each point of use at the FOOD ESTABLISHMENT by providing an air gap or installing an APPROVED backflow prevention device. (P)\n","violationType":"Priority","itemDescription":"Backflow prevention","subItem":"Air gap","problemDescription":"Not provided","subProblem":"","location":"BASEMENT","subLocation":"At the Ice machine","corrected":"False","daysToCorrect":"10","correctedDate":null,"correctionDescription":"Provide adequate air gap."},{"violationCode":"6-501.11","violationDescription":"PHYSICAL FACILITIES shall be maintained in good repair.\n","violationType":"Core","itemDescription":"Physical facilities","subItem":"Floor(s)","problemDescription":"In poor repair","subProblem":"","location":"BAR","subLocation":"At the Floor / Wall","corrected":"False","daysToCorrect":"30","correctedDate":null,"correctionDescription":""},{"violationCode":"4-602.13","violationDescription":"NonFOOD-CONTACT SURFACES of EQUIPMENT shall be cleaned at a frequency necessary to preclude accumulation of soil residues.\n","violationType":"Core","itemDescription":"Nonfood contact surface(s)","subItem":"","problemDescription":"With accumulation of debris","subProblem":"","location":"KITCHEN","subLocation":"At the Grease trough","corrected":"False","daysToCorrect":"30","correctedDate":null,"correctionDescription":"Keep clean."},{"violationCode":"6-501.11","violationDescription":"PHYSICAL FACILITIES shall be maintained in good repair.\n","violationType":"Core","itemDescription":"Physical facilities","subItem":"wall(s)","problemDescription":"In poor repair","subProblem":"","location":"KITCHEN","subLocation":"At the Wall(s)","corrected":"False","daysToCorrect":"30","correctedDate":null,"correctionDescription":null}]}]}],"maxInspectionDate":[{"inspectionDate":"2023-04-25T00:00:00"}]}},"pageContext":{"eid":"4252"}},"staticQueryHashes":["3649515864","63159454"]}