{"data":{"site":{"pathPrefix":"/restaurant-inspections"},"postgres":{"establishment":[{"establishmentid":"5104","name":"Bella's Coffee House ","address":"2303 Campbell St","zipcode":"48209","owner":"Alida Sanchez","licenseNumber":"220223","licenseType":"Fixed Establishment","establishmentType":"Food Service Establishment","establishmentStatus":"Open","riskCategory":null,"reviewFrequencyDays":"365","coords":"-83.10631,42.32015","geojson":{"id":"5104","type":"Feature","geometry":{"type":"Point","coordinates":[-83.106310337,42.32014997]},"properties":{"name":"Bella's Coffee House ","owner":"Alida Sanchez","address":"2303 Campbell St","zipcode":"48209","license_type":"Fixed Establishment","risk_category":null,"license_number":"220223","establishmentid":"5104","establishment_type":"Food Service Establishment","establishment_status":"Open","review_frequency_days":"365","most_recent_license_date":null}},"nearbyList":[{"establishmentid":"1052","name":"Blue Diamond","address":"2453 Campbell St N","zipcode":"48209"},{"establishmentid":"3095","name":"Los Corrales","address":"2244 Junction Ave","zipcode":"48209"},{"establishmentid":"4280","name":"El Durango Bar","address":"2508-10 Junction St","zipcode":"48209"},{"establishmentid":"931","name":"Neinas Elementary","address":"6021 McMillan St","zipcode":"48209"},{"establishmentid":"3647","name":"Pollo Chapin","address":"2054 Junction Ave","zipcode":"48209"},{"establishmentid":"1147","name":"El Rancho Mexican Restaurant","address":"5900 W Vernor","zipcode":"48209"},{"establishmentid":"3143","name":"Tacos El Taquito Mexican Food","address":"1985 Military St","zipcode":"48209"},{"establishmentid":"51622911","name":"El Taco Veloz #1","address":"6170 Toledo St","zipcode":"48209"},{"establishmentid":"4342","name":"El Taco Veloz","address":"6170 Toledo St","zipcode":"48209"},{"establishmentid":"4668","name":"El Taco Veloz #2","address":"6170 Toledo Rd","zipcode":"48209"}],"inspectionsByEstablishmentidList":[{"inspectionid":"41690","inspectionDate":"2018-01-24T00:00:00","inspectionType":"Routine Inspection","inCompliance":"Yes","violationsByInspectionidList":[{"violationCode":"3-501.17","violationDescription":"(A)  READY-TO-EAT, POTENTIALLY HAZARDOUS FOOD (TIME/TEMPERATURE CONTROL FOR SAFETY FOOD)  prepared and held refrigerated for more than 24 hours in a FOOD ESTABLISHMENT  shall be clearly marked at the time of preparation to indicate the date or day by which the FOOD shall be consumed. (Pf)\r\n(B)  A container of refrigerated, commercially prepared READY-TO-EAT POTENTIALLY HAZARDOUS FOOD (TIME/TEMPERATURE CONTROL FOR SAFETY FOOD)  shall be clearly marked, at the time the original container is opened in a FOOD ESTABLISHMENT, to indicate the date or day by which the FOOD shall be consumed. (Pf)\r\n\r\nA date marking system that does not exceed 7 days, including date of preparation, or opening is to be used. (Pf)\r\n","violationType":"Foundation","itemDescription":"In house prepared ready-to-eat potentially hazardous  food(s)","subItem":"","problemDescription":"Improperly date marked","subProblem":"","location":"Refrigerator","subLocation":"","corrected":"Yes","daysToCorrect":"10","correctedDate":"2018-01-24T00:00:00","correctionDescription":"Establishment shall provide a clear date marking system."},{"violationCode":"MFL289.2129","violationDescription":"Sec. 2129. (1) All food establishments shall employ a minimum of 1 managerial employee as a food safety manager, who must be an individual who is currently certified under a personnel certification program accredited by the American National Standards Institute, utilizing the Conference for Food Protection standards:\r\n(2) Beginning January 14, 2017 and every 5 years thereafter, a certified  food safety manager who supervises the operations of a food service establishment shall have completed a food safety training program\r\ncontaining an allergen awareness  component that has been approved by  the department. A food service establishment shall retain records on the  site of the food service establishment documenting compliance of its  certified food safety managers with this subsection. ","violationType":"Core","itemDescription":"Person-in-charge","subItem":"","problemDescription":"Missing","subProblem":"","location":"RESTAURANT","subLocation":"","corrected":"Not required","daysToCorrect":"30","correctedDate":null,"correctionDescription":"Provide."}]},{"inspectionid":"37939","inspectionDate":"2017-02-08T00:00:00","inspectionType":"Routine Inspection","inCompliance":"Yes","violationsByInspectionidList":[]}]}],"maxInspectionDate":[{"inspectionDate":"2020-05-29T00:00:00"}]}},"pageContext":{"eid":"5104"}}