{"componentChunkName":"component---src-templates-establishment-page-js","path":"/establishment/600","result":{"data":{"site":{"pathPrefix":"/restaurant-inspections"},"postgres":{"establishment":[{"establishmentid":"600","name":"Metropolitan Prince Hall","address":"3500 McDougall Rd.","zipcode":"48207","owner":"Metropolitan Prince Hall G.L.","licenseNumber":"237173","licenseType":"Fixed Establishment","establishmentType":"Food Service Establishment","establishmentStatus":"Open","riskCategory":"Low","reviewFrequencyDays":"365","coords":"-83.02856,42.35710","geojson":{"id":"600","type":"Feature","geometry":{"type":"Point","coordinates":[-83.028557996,42.357104239]},"properties":{"name":"Metropolitan Prince Hall","owner":"Metropolitan Prince Hall G.L.","address":"3500 McDougall Rd.","zipcode":"48207","license_type":"Fixed Establishment","risk_category":"Low","license_number":"237173","establishmentid":"600","establishment_type":"Food Service Establishment","establishment_status":"Open","review_frequency_days":"365","most_recent_license_date":"4/12/2022"}},"nearbyList":[{"establishmentid":"1682","name":"Open Door Rescue Mission","address":"3442 McDougall","zipcode":"48207"},{"establishmentid":"654","name":"Gratiot Grill Coney Island","address":"3121 Gratiot","zipcode":"48207"},{"establishmentid":"633","name":"Marracci Temple/ Grenadier Lodge #13","address":"3101 Mc Dougall","zipcode":"48207"},{"establishmentid":"2137","name":"K & D","address":"3177 Mack Ave.","zipcode":"48234"},{"establishmentid":"2479","name":"K & D ICE CREAM","address":"3177 MACK","zipcode":"48234"},{"establishmentid":"1805","name":"Robinson Dairy Vending","address":"3300 Mack","zipcode":"48207"},{"establishmentid":"51622855","name":"Detroit Collegiate High School","address":"3111 Elmwood","zipcode":"48207"},{"establishmentid":"2824","name":"Ross-Hill Academy","address":"3111   Elmwood","zipcode":"48207"},{"establishmentid":"1536","name":"Big Fella's Bar-B-Que","address":"2830 Gratiot","zipcode":"48207"},{"establishmentid":"5125","name":"Franklin-Wright Settlement","address":"3360 Charlevoix","zipcode":"48207"}],"inspectionsByEstablishmentidList":[{"inspectionid":"51453","inspectionDate":"2020-03-16T00:00:00","inspectionType":"COVID19-temp closed","inCompliance":"Yes","violationsByInspectionidList":[]},{"inspectionid":"45373","inspectionDate":"2019-02-22T00:00:00","inspectionType":"Routine Inspection","inCompliance":"Yes","violationsByInspectionidList":[]},{"inspectionid":"45389","inspectionDate":"2019-01-29T00:00:00","inspectionType":"Routine Inspection","inCompliance":"Yes","violationsByInspectionidList":[]},{"inspectionid":"43092","inspectionDate":"2017-07-17T00:00:00","inspectionType":"Routine Inspection","inCompliance":"No","violationsByInspectionidList":[{"violationCode":"5-103.11","violationDescription":"(A) The water source and system shall be of sufficient capacity to meet the peak water demands of the FOOD ESTABLISHMENT. (Pf)\n(B) Hot water generation and distribution systems shall be sufficient to meet the peak hot water demands throughout the FOOD ESTABLISHMENT. (Pf)\n","violationType":"Foundation","itemDescription":"Hot water supply","subItem":null,"problemDescription":"Insufficient to meet demands","subProblem":null,"location":"RESTROOM (WOMEN'S)","subLocation":null,"corrected":"False","daysToCorrect":"10","correctedDate":null,"correctionDescription":"Provide sufficient supply if hot water such as a larger or additional hot water heater."},{"violationCode":"6-501.11","violationDescription":"PHYSICAL FACILITIES shall be maintained in good repair.\n","violationType":"Core","itemDescription":"Physical facilities","subItem":null,"problemDescription":"In poor repair","subProblem":null,"location":"THROUGHOUT FACILITY","subLocation":null,"corrected":"False","daysToCorrect":"30","correctedDate":null,"correctionDescription":null},{"violationCode":"4-501.11","violationDescription":"EQUIPMENT shall be maintained in a state of repair and condition that meets the requirements of the code.\n","violationType":"Core","itemDescription":"Equipment","subItem":null,"problemDescription":"In poor repair","subProblem":null,"location":"RESTROOM (WOMEN'S)","subLocation":null,"corrected":"False","daysToCorrect":"30","correctedDate":null,"correctionDescription":null},{"violationCode":"4-602.13","violationDescription":"NonFOOD-CONTACT SURFACES of EQUIPMENT shall be cleaned at a frequency necessary to preclude accumulation of soil residues.\n","violationType":"Core","itemDescription":"Nonfood contact surface(s)","subItem":null,"problemDescription":"Soiled","subProblem":null,"location":"KITCHEN (1st FLOOR)","subLocation":null,"corrected":"False","daysToCorrect":"30","correctedDate":null,"correctionDescription":"Clean."}]}]}],"maxInspectionDate":[{"inspectionDate":"2022-08-31T00:00:00"}]}},"pageContext":{"eid":"600"}},"staticQueryHashes":["3649515864","63159454"]}