{"data":{"site":{"pathPrefix":"/restaurant-inspections"},"postgres":{"establishment":[{"establishmentid":"5341","name":"QuickFire Grille","address":"6001 W Outer Dr","zipcode":"48235","owner":"Yirgy Meles","licenseNumber":"203401","licenseType":"Fixed Establishment","establishmentType":"Food Service Establishment","establishmentStatus":"Permanently Closed","riskCategory":"High","reviewFrequencyDays":"180.0","coords":"-83.18098,42.41977","geojson":{"id":"5341","type":"Feature","geometry":{"type":"Point","coordinates":[-83.1809835019999,42.4197669050001]},"properties":{"name":"QuickFire Grille","owner":"Yirgy Meles","address":"6001 W Outer Dr","zipcode":"48235","license_type":"Fixed Establishment","risk_category":"High","license_number":"203401","establishmentid":"5341","establishment_type":"Food Service Establishment","establishment_status":"Permanently Closed","review_frequency_days":"180.0","most_recent_license_date":null}},"nearbyList":[{"establishmentid":"5163","name":"Brown's Kitchen","address":"17150 Schaefer Hwy","zipcode":"48235"},{"establishmentid":"1426","name":"Burger King ","address":"13600 W McNichols Rd","zipcode":"48235"},{"establishmentid":"1895","name":"L. George's Coney Island ","address":"13635 W McNichols Rd","zipcode":"48235"},{"establishmentid":"5292","name":"Subway","address":"6071 Outer Drive","zipcode":"48235"},{"establishmentid":"5033","name":"Great Lakes Coffee Beanery","address":"6071 W Outer Dr","zipcode":"48235"},{"establishmentid":"5000","name":"Sinai Grace Hospital","address":"6071 W Outer Dr","zipcode":"48235"},{"establishmentid":"4396","name":"Sweet Soul Bistro","address":"13741 W McNichols Rd","zipcode":"48235"},{"establishmentid":"2131","name":"Twisted Dairy","address":"13801 W McNichols Rd","zipcode":"48235"},{"establishmentid":"2361","name":"Kentucky Fried Chicken H730222","address":"13546 W McNichols Rd","zipcode":"48235"},{"establishmentid":"3381","name":"Rono's Caribbean Paradise Restaurant","address":"14001 W McNichols Rd","zipcode":"48235"},{"establishmentid":"345","name":"Teresa's Place","address":"14000 W McNichols Rd","zipcode":"48235"},{"establishmentid":"2362","name":"Shirley Nelson's E & S Carryout","address":"13400 W McNichols Rd","zipcode":"48235"},{"establishmentid":"5332","name":"Sliders LLC","address":"13330 W McNichols Rd","zipcode":"48235"},{"establishmentid":"4253","name":"Golden Bowl Chop Suey","address":"13337 W McNichols Rd","zipcode":"48235"},{"establishmentid":"1913","name":"Happy's Pizza #4","address":"16850 Schaefer Hwy","zipcode":"48235"},{"establishmentid":"3582","name":"Lincoln-King Academy","address":"13436 Grove St","zipcode":"48235"},{"establishmentid":"4454","name":"Southern Smokehouse","address":"14340 W McNichols Rd","zipcode":"48235"},{"establishmentid":"519","name":"Connie & Barbara Restaurant","address":"13101 W McNichols Rd","zipcode":"48235"},{"establishmentid":"3520","name":"Nu Wave Fish & Chicken","address":"14541 W McNichols Rd","zipcode":"48235"},{"establishmentid":"3786","name":"Hartford Memorial Baptist Church","address":"18700 James Couzens","zipcode":"48235"}],"inspectionsByEstablishmentidList":[{"inspectionid":"42640","inspectionDate":"2018-06-25T00:00:00","inspectionType":"Routine Inspection","inCompliance":"Yes","violationsByInspectionidList":[]},{"inspectionid":"41233","inspectionDate":"2018-01-12T00:00:00","inspectionType":"Routine Inspection","inCompliance":"Yes","violationsByInspectionidList":[{"violationCode":"3-101.11","violationDescription":"FOOD shall be safe, unADULTERATED and honestly presented. (P)\r\n","violationType":"Priority","itemDescription":"Food","subItem":"","problemDescription":"Dishonestly presented","subProblem":"","location":"STORAGE AREA (DRY)","subLocation":"","corrected":"Yes","daysToCorrect":"10.0","correctedDate":"2018-01-12T00:00:00","correctionDescription":"Discard"},{"violationCode":"3-501.17","violationDescription":"(A)  READY-TO-EAT, POTENTIALLY HAZARDOUS FOOD (TIME/TEMPERATURE CONTROL FOR SAFETY FOOD)  prepared and held refrigerated for more than 24 hours in a FOOD ESTABLISHMENT  shall be clearly marked at the time of preparation to indicate the date or day by which the FOOD shall be consumed. (Pf)\r\n(B)  A container of refrigerated, commercially prepared READY-TO-EAT POTENTIALLY HAZARDOUS FOOD (TIME/TEMPERATURE CONTROL FOR SAFETY FOOD)  shall be clearly marked, at the time the original container is opened in a FOOD ESTABLISHMENT, to indicate the date or day by which the FOOD shall be consumed. (Pf)\r\n\r\nA date marking system that does not exceed 7 days, including date of preparation, or opening is to be used. (Pf)\r\n","violationType":"Foundation","itemDescription":"Commercially processed ready to eat potentially hazardous food(s)","subItem":"","problemDescription":"Without date of consumption marking","subProblem":"","location":"COOLER","subLocation":"","corrected":"Yes","daysToCorrect":"10.0","correctedDate":"2018-01-12T00:00:00","correctionDescription":"Datemark with a discard date of 7 days or less."},{"violationCode":"4-302.14","violationDescription":"A test kit or other device that accurately measures the concentration in mg/L of SANITIZING solutions shall be provided. (Pf)\r\n","violationType":"Foundation","itemDescription":"Sanitizer test kit","subItem":"","problemDescription":"Not provided","subProblem":"","location":"SANITIZER","subLocation":"","corrected":"Yes","daysToCorrect":"10.0","correctedDate":"2018-01-12T00:00:00","correctionDescription":"Provide as required"}]},{"inspectionid":"39432","inspectionDate":"2017-08-01T00:00:00","inspectionType":"Routine Inspection","inCompliance":"Yes","violationsByInspectionidList":[]},{"inspectionid":"37708","inspectionDate":"2017-01-03T00:00:00","inspectionType":"Routine Inspection","inCompliance":"Yes","violationsByInspectionidList":[]},{"inspectionid":"36512","inspectionDate":"2016-09-22T00:00:00","inspectionType":"Routine Inspection","inCompliance":"Yes","violationsByInspectionidList":[{"violationCode":"3-501.16","violationDescription":"Except during preparation, cooking, or cooling, or when time is used as the public health control POTENTIALLY HAZARDOUS FOOD (TIME/TEMPERATURE CONTROL FOR SAFETY FOOD) shall be maintained:\r\n(A)  135ºF or above, except that roasts properly cooked and cooled may be held              at a temperature of 130ºF; or (P)\r\n(B)   At 41ºF or less (P)\r\n","violationType":"Priority","itemDescription":"Hot food item(s)","subItem":"","problemDescription":"Stored below 135 degrees F","subProblem":"","location":"SANITIZER","subLocation":"At the Test strips","corrected":"Yes","daysToCorrect":"10.0","correctedDate":"2016-09-22T00:00:00","correctionDescription":"Store above 135 degrees F."},{"violationCode":"4-302.14","violationDescription":"A test kit or other device that accurately measures the concentration in mg/L of SANITIZING solutions shall be provided. (Pf)\r\n","violationType":"Foundation","itemDescription":"Sanitizer test kit","subItem":"quaternary ammonia","problemDescription":"Not provided","subProblem":"","location":"SANITIZER","subLocation":"At the Test strips","corrected":"Yes","daysToCorrect":"10.0","correctedDate":"2016-09-22T00:00:00","correctionDescription":"Provide."},{"violationCode":"4-602.13","violationDescription":"NonFOOD-CONTACT SURFACES of EQUIPMENT shall be cleaned at a frequency necessary to preclude accumulation of soil residues.\r\n","violationType":"Core","itemDescription":"Nonfood contact surface(s)","subItem":"","problemDescription":"With accumulation of debris","subProblem":"","location":"KITCHEN (1st FLOOR)","subLocation":"At the Reach-in Freezer","corrected":"Not required","daysToCorrect":"30.0","correctedDate":null,"correctionDescription":"Keep clean."}]}]}]}},"pageContext":{"eid":"5341"}}