{"data":{"site":{"pathPrefix":"/restaurant-inspections"},"postgres":{"establishment":[{"establishmentid":"51622763","name":"Cannelle Detroit LLC","address":"45 W Grand River Ave","zipcode":"48226","owner":"Matt Knio","licenseNumber":"233684","licenseType":"Fixed Establishment","establishmentType":"Food Service Establishment","establishmentStatus":"Open","riskCategory":"Medium","reviewFrequencyDays":"365","coords":"-83.04893,42.33394","geojson":{"id":"51622763","type":"Feature","geometry":{"type":"Point","coordinates":[-83.04893155,42.333935846]},"properties":{"name":"Cannelle Detroit LLC","owner":"Matt Knio","address":"45 W Grand River Ave","zipcode":"48226","license_type":"Fixed Establishment","risk_category":"Medium","license_number":"233684","establishmentid":"51622763","establishment_type":"Food Service Establishment","establishment_status":"Open","review_frequency_days":"365","most_recent_license_date":null}},"nearbyList":[{"establishmentid":"51622578","name":"Lover's Only","address":"34 W Grand River Ave","zipcode":"48226"},{"establishmentid":"5155","name":"Shopper's Lounge DBA Queens Bar","address":"35 E Grand River Ave","zipcode":"48226"},{"establishmentid":"51622787","name":"The Brakeman","address":"1400 Woodward Ave","zipcode":"48226"},{"establishmentid":"51622702","name":"Shinola Hotel- WW Basement Kitchen","address":"1400 Woodward Ave","zipcode":"48226"},{"establishmentid":"51622882","name":"Penny Red's","address":"1400 Woodward Ave","zipcode":"48226"},{"establishmentid":"51622701","name":"Shinola Hotel- Banquet Kitchen","address":"1400 Woodward Ave","zipcode":"48226"},{"establishmentid":"51622881","name":"Shinola Hotel- San Morello","address":"1400 Woodward Ave","zipcode":"48226"},{"establishmentid":"51622703","name":"Shinola Hotel-Birdie Room","address":"1400 Woodward Ave","zipcode":"48226"},{"establishmentid":"51622886","name":"Shinola Hotel- Evening Bar","address":"1400 Woodward Ave","zipcode":"48226"},{"establishmentid":"4334","name":"The Hudson Cafe","address":"1241 Woodward Ave","zipcode":"48226"}],"inspectionsByEstablishmentidList":[{"inspectionid":"47961","inspectionDate":"2019-06-04T00:00:00","inspectionType":"Routine Inspection","inCompliance":"Yes","violationsByInspectionidList":[{"violationCode":"5-205.11","violationDescription":"(A) A HANDWASHING SINK shall be maintained so that it is accessible at all times for EMPLOYEE use and used for no other purpose. (Pf)\r\n(B)  An automatic handwashing facility shall be used in accordance with manufacturer's instructions. (Pf)\r\n","violationType":"Foundation","itemDescription":"Handwashing sink(s)","subItem":"","problemDescription":"Not easily accessible","subProblem":"Items stored In front of","location":"HANDSINK(S)","subLocation":"","corrected":"Yes","daysToCorrect":"10","correctedDate":"2019-06-04T00:00:00","correctionDescription":null},{"violationCode":"4-302.12","violationDescription":"(A) FOOD TEMPERATURE MEASURING DEVICES shall be provided and readily accessible for use in ensuring attainment and maintenance of FOOD temperatures as specified under Chapter 3. (Pf)   \r\n(B) A TEMPERATURE MEASURING DEVICE with a suitable small-diameter probe that is designed to measure the temperature of thin masses shall be provided and readily accessible to accurately measure the temperature in thin FOODS such as MEAT patties and FISH filets. (Pf)\r\n","violationType":"Foundation","itemDescription":"Food thermometer(s)","subItem":"probe","problemDescription":"Not provided","subProblem":"","location":"FACILITY","subLocation":"","corrected":"Yes","daysToCorrect":"10","correctedDate":"2019-06-20T00:00:00","correctionDescription":null}]}]}],"maxInspectionDate":[{"inspectionDate":"2020-05-29T00:00:00"}]}},"pageContext":{"eid":"51622763"}}