{"data":{"site":{"pathPrefix":"/restaurant-inspections"},"postgres":{"establishment":[{"establishmentid":"5313","name":"Chill","address":"2000 Woodbridge St","zipcode":"48207","owner":"Penny DeVaull","licenseNumber":"202871","licenseType":"Mobile Food Commissary","establishmentType":"Food Service Establishment","establishmentStatus":"Open","riskCategory":null,"reviewFrequencyDays":"365","coords":"-83.02666,42.33554","geojson":{"id":"5313","type":"Feature","geometry":{"type":"Point","coordinates":[-83.026660912,42.33554384]},"properties":{"name":"Chill","owner":"Penny DeVaull","address":"2000 Woodbridge St","zipcode":"48207","license_type":"Mobile Food Commissary","risk_category":null,"license_number":"202871","establishmentid":"5313","establishment_type":"Food Service Establishment","establishment_status":"Open","review_frequency_days":"365","most_recent_license_date":"4/16/2018"}},"nearbyList":[{"establishmentid":"2752","name":"Society Detroit","address":"1995 Woodbridge St","zipcode":"48207"},{"establishmentid":"1953","name":"Main Street Grill and Coney Island","address":"1985 E Jefferson Ave","zipcode":"48207"},{"establishmentid":"5079","name":"Diversified Members Credit Union","address":"1480 E Jefferson Ave","zipcode":"48207"},{"establishmentid":"775","name":"Yondotega Club","address":"1450 E Jefferson Ave","zipcode":"48207"},{"establishmentid":"2357","name":"Steve's Soul Food Det/The Key Club","address":"1440 Franklin St #200","zipcode":"48207"},{"establishmentid":"51623027","name":"The Aretha Franklin-Concession","address":"2600 Atwater St","zipcode":"48207"},{"establishmentid":"2620","name":"The Aretha Franklin Amphiteatre","address":"2600 Atwater St","zipcode":"48207"},{"establishmentid":"51623028","name":"The Aretha Franklin-Bars","address":"2600 Atwater St","zipcode":"48207"},{"establishmentid":"5297","name":"Papa's Pizza","address":"1405 E Jefferson Ave","zipcode":"48207"},{"establishmentid":"4100","name":"University Prep Science & Math High ","address":"2664 Franklin St","zipcode":"48226"}],"inspectionsByEstablishmentidList":[{"inspectionid":"50447","inspectionDate":"2020-01-17T00:00:00","inspectionType":"Routine Inspection","inCompliance":"Yes","violationsByInspectionidList":[{"violationCode":"6-303.11","violationDescription":"Light of the proper intensity shall be provided as specified.\r\n","violationType":"Core","itemDescription":"Lighting intensity","subItem":"at work levels","problemDescription":"Not maintained","subProblem":"","location":"KITCHEN","subLocation":"Under the Ventilation hood","corrected":"Not required","daysToCorrect":"30","correctedDate":null,"correctionDescription":"Maintain in good repair"},{"violationCode":"4-501.11","violationDescription":"EQUIPMENT shall be maintained in a state of repair and condition that meets the requirements of the code.\r\n","violationType":"Core","itemDescription":"Equipment components","subItem":"","problemDescription":"In poor repair","subProblem":"","location":"KITCHEN","subLocation":"Missing Drip Tray","corrected":"Not required","daysToCorrect":"30","correctedDate":null,"correctionDescription":null}]},{"inspectionid":"39151","inspectionDate":"2017-07-05T00:00:00","inspectionType":"Routine Inspection","inCompliance":"Yes","violationsByInspectionidList":[{"violationCode":"3-302.12","violationDescription":"Except for containers holding FOOD that can be readily and unmistakably recognized such as dry pasta, working containers holding FOOD or FOOD ingredients that are removed from their original packages for use in the FOOD ESTABLISHMENT, such as cooking oils, flour, herbs, potato flakes, salt, spices, and sugar shall be identified with the common name of the FOOD.","violationType":"Core","itemDescription":"Food item(s)","subItem":"","problemDescription":"Not identified","subProblem":"","location":"KITCHEN","subLocation":"At the Container","corrected":"Yes","daysToCorrect":"30","correctedDate":"2017-07-05T00:00:00","correctionDescription":"Label containers with common name."},{"violationCode":"4-202.16","violationDescription":"NonFOOD-CONTACT SURFACES shall be free of unnecessary ledges, projections, and crevices, and designed and constructed to allow easy cleaning and to facilitate maintenance.\r\n","violationType":"Core","itemDescription":"Nonfood contact surface(s)","subItem":"shelving dry storage","problemDescription":"Bare wood","subProblem":"","location":"LIQUOR ROOM","subLocation":"At the Shelves- wood","corrected":"Not required","daysToCorrect":"30","correctedDate":null,"correctionDescription":"Replace/seal to be smooth, durable, non-absorbent, and easily cleanable."},{"violationCode":"MFL289.2129","violationDescription":"Sec. 2129. (1) All food establishments shall employ a minimum of 1 managerial employee as a food safety manager, who must be an individual who is currently certified under a personnel certification program accredited by the American National Standards Institute, utilizing the Conference for Food Protection standards:\r\n(2) Beginning January 14, 2017 and every 5 years thereafter, a certified  food safety manager who supervises the operations of a food service establishment shall have completed a food safety training program\r\ncontaining an allergen awareness  component that has been approved by  the department. A food service establishment shall retain records on the  site of the food service establishment documenting compliance of its  certified food safety managers with this subsection. ","violationType":"Core","itemDescription":"Person-in-charge","subItem":"","problemDescription":"Missing","subProblem":"","location":"ESTABLISHMENT","subLocation":"At the PERSON IN CHARGE","corrected":"Not required","daysToCorrect":"30","correctedDate":null,"correctionDescription":"Provide."}]}]}],"maxInspectionDate":[{"inspectionDate":"2020-05-29T00:00:00"}]}},"pageContext":{"eid":"5313"}}