{"data":{"site":{"pathPrefix":"/restaurant-inspections"},"postgres":{"establishment":[{"establishmentid":"3905","name":"WBC Coffee Bar","address":"1114 Washington Boulevard","zipcode":"48226","owner":"Cadillac Hotel Holdings, LLC","licenseNumber":"065474","licenseType":"Fixed Establishment","establishmentType":"Food Service Establishment","establishmentStatus":"Permanently Closed","riskCategory":null,"reviewFrequencyDays":"365","coords":"-83.05047,42.33243","geojson":{"id":"3905","type":"Feature","geometry":{"type":"Point","coordinates":[-83.050468364,42.332425166]},"properties":{"name":"WBC Coffee Bar","owner":"Cadillac Hotel Holdings, LLC","address":"1114 Washington Boulevard","zipcode":"48226","license_type":"Fixed Establishment","risk_category":null,"license_number":"065474","establishmentid":"3905","establishment_type":"Food Service Establishment","establishment_status":"Permanently Closed","review_frequency_days":"365","most_recent_license_date":"5/17/2017"}},"nearbyList":[{"establishmentid":"51622572","name":"Westin Book Cadillac Hotel Starbucks","address":"1114 Washington Blvd","zipcode":"48226"},{"establishmentid":"3903","name":"Westin Book Cadillac Detroit","address":"1114 Washington Boulevard","zipcode":"48226"},{"establishmentid":"51623050","name":"Eatori Market Capitol Cafe ","address":"1215 Griswold St Suite 150","zipcode":"48226"},{"establishmentid":"5414","name":"Eatori Market","address":"1215 Griswold St","zipcode":"48226"},{"establishmentid":"5002","name":"St. Aloysius","address":"1232 Washington Blvd","zipcode":"48226"},{"establishmentid":"3804","name":"Roast Detroit LLC","address":"1128 Washington Blvd","zipcode":"48226"},{"establishmentid":"3200","name":"Big City Grille","address":"1020 Washington Blvd","zipcode":"48226"},{"establishmentid":"51622498","name":"Prime + Proper","address":"1145 Griswold St ","zipcode":"48226"},{"establishmentid":"51623024","name":"Milk & Froth Inc.","address":"1117 Griswold St Apt. 1508","zipcode":"48226"},{"establishmentid":"51622876","name":"Leila Restaurant LLC","address":"1245 Griswold St","zipcode":"48226"}],"inspectionsByEstablishmentidList":[{"inspectionid":"37937","inspectionDate":"2017-02-08T00:00:00","inspectionType":"Routine Inspection","inCompliance":"Yes","violationsByInspectionidList":[{"violationCode":"3-501.16","violationDescription":"Except during preparation, cooking, or cooling, or when time is used as the public health control POTENTIALLY HAZARDOUS FOOD (TIME/TEMPERATURE CONTROL FOR SAFETY FOOD) shall be maintained:\r\n(A)  135ºF or above, except that roasts properly cooked and cooled may be held              at a temperature of 130ºF; or (P)\r\n(B)   At 41ºF or less (P)\r\n","violationType":"Priority","itemDescription":"Hot food item(s)","subItem":"","problemDescription":"Stored below 135 degrees F","subProblem":"","location":"HOT HOLDING AREA","subLocation":"","corrected":"Yes","daysToCorrect":"10","correctedDate":"2017-02-08T00:00:00","correctionDescription":"Store above 135 degrees F."},{"violationCode":"4-302.12","violationDescription":"(A) FOOD TEMPERATURE MEASURING DEVICES shall be provided and readily accessible for use in ensuring attainment and maintenance of FOOD temperatures as specified under Chapter 3. (Pf)   \r\n(B) A TEMPERATURE MEASURING DEVICE with a suitable small-diameter probe that is designed to measure the temperature of thin masses shall be provided and readily accessible to accurately measure the temperature in thin FOODS such as MEAT patties and FISH filets. (Pf)\r\n","violationType":"Foundation","itemDescription":"Food thermometer(s)","subItem":"probe","problemDescription":"Not provided","subProblem":"","location":"FACILITY","subLocation":"","corrected":"Yes","daysToCorrect":"10","correctedDate":"2017-03-13T00:00:00","correctionDescription":"Provide."},{"violationCode":"4-501.19","violationDescription":"The temperature of the wash solution in manual WAREWASHING EQUIPMENT shall be maintained at not less than 110 F or the temperature specified on the cleaning agent manufacturer's label instructions. (Pf)\r\n","violationType":"Foundation","itemDescription":"Manual warewash wash solution","subItem":"","problemDescription":"Below 110 degrees F","subProblem":"","location":"3 COMPARTMENT SINK AREA","subLocation":"","corrected":"Yes","daysToCorrect":"10","correctedDate":"2017-02-08T00:00:00","correctionDescription":"Change water frequently to maintain at least 110 degrees F."},{"violationCode":"MFL289.2129","violationDescription":"Sec. 2129. (1) All food establishments shall employ a minimum of 1 managerial employee as a food safety manager, who must be an individual who is currently certified under a personnel certification program accredited by the American National Standards Institute, utilizing the Conference for Food Protection standards:\r\n(2) Beginning January 14, 2017 and every 5 years thereafter, a certified  food safety manager who supervises the operations of a food service establishment shall have completed a food safety training program\r\ncontaining an allergen awareness  component that has been approved by  the department. A food service establishment shall retain records on the  site of the food service establishment documenting compliance of its  certified food safety managers with this subsection. ","violationType":"Core","itemDescription":"Person-in-charge","subItem":"","problemDescription":null,"subProblem":"","location":"PERSON IN CHARGE","subLocation":"","corrected":"Yes","daysToCorrect":"30","correctedDate":"2017-03-13T00:00:00","correctionDescription":"Provide"}]}]}],"maxInspectionDate":[{"inspectionDate":"2020-10-30T00:00:00"}]}},"pageContext":{"eid":"3905"}}