{"data":{"postgres":{"establishment":[{"establishmentid":"1030","name":"Carstens at Remus Robinson School","address":"13000 Essex St","zipcode":"48215","owner":"BRD OF EDUCATION DETROIT CITY","licenseNumber":"035085","licenseType":"Fixed Establishment","establishmentType":"Public School","establishmentStatus":"Open","riskCategory":null,"reviewFrequencyDays":"210.0","coords":"-82.94783,42.36366","geojson":{"id":"1030","type":"Feature","geometry":{"type":"Point","coordinates":[-82.9478304,42.3636591280001]},"properties":{"name":"Carstens at Remus Robinson School","owner":"BRD OF EDUCATION DETROIT CITY","address":"13000 Essex St","zipcode":"48215","license_type":"Fixed Establishment","risk_category":null,"license_number":"035085","establishmentid":"1030","establishment_type":"Public School","establishment_status":"Open","review_frequency_days":"210.0","most_recent_license_date":"4/30/2018"}},"nearbyList":[{"establishmentid":"4537","name":"Govinda's at the Fisher Mansion","address":"383 Lenox Ave","zipcode":"48215"},{"establishmentid":"1388","name":"Golightly  Career Tech","address":"900 Dickerson Ave","zipcode":"48215"},{"establishmentid":"4927","name":"Davis Aerospace Tech High @ Golightly Te","address":"900 Dickerson Ave","zipcode":"48215"},{"establishmentid":"1711","name":"Dynasty Chinese","address":"13340 E Jefferson Ave","zipcode":"48215"},{"establishmentid":"1961","name":"Subway 12011","address":"13222 E Jefferson Ave","zipcode":"48215"},{"establishmentid":"5148","name":"Detroits Finest Coney Island","address":"13337 E Jefferson Ave. ","zipcode":"48215"},{"establishmentid":"424","name":"Bayview Yacht Club","address":"100 Clairpoint St","zipcode":"48215"},{"establishmentid":"51622576","name":"Ginger Berry LLC","address":"12626 E Jefferson Avenue","zipcode":"48215"},{"establishmentid":"5406","name":"Norma G's Detroit","address":"14628 E Jefferson Ave","zipcode":"48215"},{"establishmentid":"1391","name":"Joseph's Coney Island","address":"12500 E Jefferson Ave","zipcode":"48215"},{"establishmentid":"282","name":"Marshalls Bar","address":"14716 E Jefferson Ave","zipcode":"48215"},{"establishmentid":"626","name":"Detroit Edison Boat Club","address":"100 Lycaste St","zipcode":"48214"},{"establishmentid":"5139","name":"Historic Eastlake Baptist Church","address":"12440 E Jefferson Ave","zipcode":"48215"},{"establishmentid":"2317","name":"Detroit Merit Academy","address":"1091 Alter Rd","zipcode":"48215"},{"establishmentid":"3260","name":"St. John's Congregational Church","address":"14320 Kercheval Ave","zipcode":"48215"},{"establishmentid":"3940","name":"Mackavelli Deli Dog","address":"14595 Harbor Island","zipcode":"48215"},{"establishmentid":"2676","name":"Texas Bar and Grill","address":"14619 Kercheval","zipcode":"48215"},{"establishmentid":"51622812","name":"Rich Man Poor Man","address":"14619 Kercheval Ave","zipcode":"48215"},{"establishmentid":"4440","name":"Jimmie's Lounge","address":"12625 Kercheval","zipcode":"48215"},{"establishmentid":"4126","name":"My Dad's Bar","address":"14911 Kercheval Ave","zipcode":"48215"}],"inspectionsByEstablishmentidList":[{"inspectionid":"44780","inspectionDate":"2019-01-08T00:00:00","inspectionType":"Routine Inspection","inCompliance":"Yes","violationsByInspectionidList":[]},{"inspectionid":"42532","inspectionDate":"2018-06-14T00:00:00","inspectionType":"Routine Inspection","inCompliance":"Yes","violationsByInspectionidList":[{"violationCode":"3-701.11","violationDescription":"(A) A FOOD that is unsafe, ADULTERATED, or not honestly presented as specified under § 3-101.11 shall be discarded or reconditioned according to an APPROVED procedure. (P)   \r\n(B) FOOD that is not from an APPROVED source as specified under \r\n§§ 3-201.11 - .17 shall be discarded. (P)   \r\n(C) READY-TO-EAT FOOD that may have been contaminated by an EMPLOYEE who has been RESTRICTED or EXCLUDED as specified under § 2-201.12 shall be discarded. (P) \r\n(D) FOOD that is contaminated by FOOD EMPLOYEES, CONSUMERS, or other PERSONS through contact with their hands, bodily discharges, such as nasal or oral discharges, or other means shall be discarded. (P)\r\n","violationType":"Priority","itemDescription":"Contaminated food(s)","subItem":"food contaminated by by restricted or excluded employee","problemDescription":"Not discarded","subProblem":"","location":"FRONT PREP AREA","subLocation":"Inside the Cooler (milk)","corrected":"Yes","daysToCorrect":"10.0","correctedDate":"2018-06-14T00:00:00","correctionDescription":"Discard."},{"violationCode":"4-501.11","violationDescription":"EQUIPMENT shall be maintained in a state of repair and condition that meets the requirements of the code.\r\n","violationType":"Core","itemDescription":"Equipment","subItem":"","problemDescription":"Broken","subProblem":"","location":"WALK-IN FREEZER","subLocation":"Inside the Walk-in freezer","corrected":"Not required","daysToCorrect":"30.0","correctedDate":null,"correctionDescription":"Repair/replace."}]},{"inspectionid":"40767","inspectionDate":"2017-11-09T00:00:00","inspectionType":"Routine Inspection","inCompliance":"Yes","violationsByInspectionidList":[{"violationCode":"4-501.11","violationDescription":"EQUIPMENT shall be maintained in a state of repair and condition that meets the requirements of the code.\r\n","violationType":"Core","itemDescription":"Equipment","subItem":"","problemDescription":"In poor repair","subProblem":"","location":"WALK-IN FREEZER","subLocation":"Inside the Walk-in freezer","corrected":"Not required","daysToCorrect":"30.0","correctedDate":null,"correctionDescription":null},{"violationCode":"4-501.11","violationDescription":"EQUIPMENT shall be maintained in a state of repair and condition that meets the requirements of the code.\r\n","violationType":"Core","itemDescription":"Equipment components","subItem":"","problemDescription":"In poor repair","subProblem":"","location":"WALK-IN FREEZER","subLocation":"At the Window frames","corrected":"Not required","daysToCorrect":"30.0","correctedDate":null,"correctionDescription":null},{"violationCode":"6-303.11","violationDescription":"Light of the proper intensity shall be provided as specified.\r\n","violationType":"Core","itemDescription":"Lighting intensity","subItem":"at 30 inches above the floor","problemDescription":"Not maintained","subProblem":"","location":"WALK-IN COOLER & FREEZER","subLocation":"At the Lights","corrected":"Not required","daysToCorrect":"30.0","correctedDate":null,"correctionDescription":"Maintain in good repair"}]},{"inspectionid":"39076","inspectionDate":"2017-06-16T00:00:00","inspectionType":"Routine Inspection","inCompliance":"Yes","violationsByInspectionidList":[{"violationCode":"MFL289.2129","violationDescription":"Sec. 2129. (1) All of the following food establishments shall employ a minimum of 1 managerial employee who is currently certified under a personnel certification program accredited by the American national standards institute, utilizing the conference for food protection standards:  (a) A food service establishment that is not any of the following:    (i) Operating under a temporary food service establishment license.  (ii) A vending machine location.     (b) An extended retail food establishment.  (c) Operated within a retail grocery.  (2) An individual certified under subsection (1) shall be recognized with full faith and credit by the state and all local units of government throughout the state.  (3) The department may promulgate rules to do all of the following:  (a) Develop requirements for retail food establishments to follow when employing certified food safety managers or personnel.  (b) Set a reasonable date for compliance with the requirements under subdivision (a) taking into consideration existing local personnel certification requirements.  (c) Establish certification fees necessary to implement, maintain, and track certified individuals directly or by contract. The department may annually adjust the schedule of fees to provide that the fee charged is sufficient to cover the cost of the certification tracking program.  (d) Implement and enforce the requirements described in subdivision (a).    (4) The certification program developed by the American national standards institute, as it exists on April 1, 2008 , is incorporated by reference. The department may adopt updates to the certification program accreditation standards in subsection (1) by rule.     (5) This section does not prohibit any local legislative body from implementing a food handler program, an employee health certification program, or a manager certification program, if it is not in conflict with this section.","violationType":"Core","itemDescription":"Person-in-charge","subItem":"","problemDescription":"Missing","subProblem":"","location":"SCHOOL","subLocation":"At the PERSON IN CHARGE","corrected":"Not required","daysToCorrect":"30.0","correctedDate":null,"correctionDescription":"Provide."}]},{"inspectionid":"37406","inspectionDate":"2016-12-15T00:00:00","inspectionType":"Routine Inspection","inCompliance":"Yes","violationsByInspectionidList":[{"violationCode":"5-205.15","violationDescription":"A PLUMBING SYSTEM shall be:\r\n(A) Repaired according to LAW; (P) and\r\n(B) Maintained in good repair.\r\n","violationType":"Core","itemDescription":"Drainage system","subItem":"","problemDescription":"Not constructed, designed, installed according to law","subProblem":"","location":"DISHWASHING AREA","subLocation":"At the Three compartment sink","corrected":"Not required","daysToCorrect":"10.0","correctedDate":null,"correctionDescription":"Remove and replace to be in compliance with law."}]}]}]}},"pageContext":{"eid":"1030"}}