{"componentChunkName":"component---src-templates-establishment-page-js","path":"/establishment/51622741","result":{"data":{"site":{"pathPrefix":"/restaurant-inspections"},"postgres":{"establishment":[{"establishmentid":"51622741","name":"Greenhouse Soups & Chili","address":"1400 Oakman Blvd","zipcode":"48238","owner":"Jane M. Bate","licenseNumber":"230550","licenseType":"Fixed Establishment","establishmentType":"Food Service Establishment","establishmentStatus":"Open","riskCategory":"High","reviewFrequencyDays":"150","coords":"-83.12371,42.39968","geojson":{"id":"51622741","type":"Feature","geometry":{"type":"Point","coordinates":[-83.123708356,42.39968125]},"properties":{"name":"Greenhouse Soups & Chili","owner":"Jane M. Bate","address":"1400 Oakman Blvd","zipcode":"48238","license_type":"Fixed Establishment","risk_category":"High","license_number":"230550","establishmentid":"51622741","establishment_type":"Food Service Establishment","establishment_status":"Open","review_frequency_days":"150","most_recent_license_date":null}},"nearbyList":[{"establishmentid":"2943","name":"Corporate Dining Services","address":"1400 Oakman","zipcode":"48238"},{"establishmentid":"1604","name":"Focus:Hope Center ADVA Technology","address":"1400 Oakman","zipcode":"48238"},{"establishmentid":"5014","name":"Touch Of Class Catering","address":"1400 Oakman Blvd.","zipcode":"48238"},{"establishmentid":"4591","name":"AVI Food Systems","address":"1400 Oakman","zipcode":"48238"},{"establishmentid":"2520","name":"Robinson Vending","address":"1400 Oakman","zipcode":"48212"},{"establishmentid":"1425","name":"Focus Hope Center for Children","address":"1550 Oakman Blvd.","zipcode":"48238"},{"establishmentid":"4602","name":"Modern Vending","address":"1360 Oakman Blvd.","zipcode":"48238"},{"establishmentid":"2491","name":"Pyramid Ent.","address":"2505 Kendall","zipcode":"48238"},{"establishmentid":"2942","name":"Corporate Dining Services","address":"1200  Oakman","zipcode":"48238"},{"establishmentid":"1846","name":"ROMAN VENDING CO","address":"1200 OAKMAN","zipcode":"48238"}],"inspectionsByEstablishmentidList":[{"inspectionid":"57166","inspectionDate":"2022-02-07T00:00:00","inspectionType":"Closed - Temporary","inCompliance":"Yes","violationsByInspectionidList":[]},{"inspectionid":"55786","inspectionDate":"2021-08-17T00:00:00","inspectionType":"Routine Inspection","inCompliance":"Yes","violationsByInspectionidList":[]},{"inspectionid":"53253","inspectionDate":"2020-11-04T00:00:00","inspectionType":"Routine Inspection","inCompliance":"Yes","violationsByInspectionidList":[]},{"inspectionid":"51962","inspectionDate":"2020-07-06T00:00:00","inspectionType":"Closed - Temporary","inCompliance":"Yes","violationsByInspectionidList":[]},{"inspectionid":"51573","inspectionDate":"2020-04-22T00:00:00","inspectionType":"COVID19-temp closed","inCompliance":"Yes","violationsByInspectionidList":[]},{"inspectionid":"49923","inspectionDate":"2019-11-19T00:00:00","inspectionType":"Routine Inspection","inCompliance":"Yes","violationsByInspectionidList":[{"violationCode":"4-501.11","violationDescription":"EQUIPMENT shall be maintained in a state of repair and condition that meets the requirements of the code.\n","violationType":"Core","itemDescription":null,"subItem":null,"problemDescription":null,"subProblem":null,"location":"WALK-IN FREEZER","subLocation":null,"corrected":"True","daysToCorrect":"30","correctedDate":"2019-11-19T00:00:00","correctionDescription":null}]},{"inspectionid":"47897","inspectionDate":"2019-05-30T00:00:00","inspectionType":"Routine Inspection","inCompliance":"Yes","violationsByInspectionidList":[{"violationCode":"3-501.17","violationDescription":"(A)  READY-TO-EAT, POTENTIALLY HAZARDOUS FOOD (TIME/TEMPERATURE CONTROL FOR SAFETY FOOD)  prepared and held refrigerated for more than 24 hours in a FOOD ESTABLISHMENT  shall be clearly marked at the time of preparation to indicate the date or day by which the FOOD shall be consumed. (Pf)\n(B)  A container of refrigerated, commercially prepared READY-TO-EAT POTENTIALLY HAZARDOUS FOOD (TIME/TEMPERATURE CONTROL FOR SAFETY FOOD)  shall be clearly marked, at the time the original container is opened in a FOOD ESTABLISHMENT, to indicate the date or day by which the FOOD shall be consumed. (Pf)\n\nA date marking system that does not exceed 7 days, including date of preparation, or opening is to be used. (Pf)\n","violationType":"Foundation","itemDescription":"Commercially processed ready to eat potentially hazardous food(s)","subItem":null,"problemDescription":"Without date of consumption marking","subProblem":null,"location":"WALK-IN COOLER","subLocation":null,"corrected":"True","daysToCorrect":"10","correctedDate":"2019-05-30T00:00:00","correctionDescription":null},{"violationCode":"6-202.11","violationDescription":"Except as otherwise approved, light bulbs shall be shielded, coated, or otherwise shatter-resistant in areas where there is exposed FOOD; clean EQUIPMENT, UTENSILS, and LINENS; or unwrapped SINGLE-SERVICE and SINGLE-USE ARTICLES.\n","violationType":"Core","itemDescription":"Light shielding","subItem":"light shield(s)","problemDescription":"Missing","subProblem":null,"location":"COOK LINE AREA","subLocation":null,"corrected":"False","daysToCorrect":"30","correctedDate":null,"correctionDescription":null}]},{"inspectionid":"44573","inspectionDate":"2018-12-21T00:00:00","inspectionType":"Routine Inspection","inCompliance":"Yes","violationsByInspectionidList":[]},{"inspectionid":"42384","inspectionDate":"2018-05-31T00:00:00","inspectionType":"Preopening/New","inCompliance":"Yes","violationsByInspectionidList":[]}]}],"maxInspectionDate":[{"inspectionDate":"2022-07-25T00:00:00"}]}},"pageContext":{"eid":"51622741"}},"staticQueryHashes":["3649515864","63159454"]}