{"data":{"postgres":{"establishment":[{"establishmentid":"51622803","name":"La Posada","address":"1930 Springwells St","zipcode":"48209","owner":"Juan Romo","licenseNumber":"db061218","licenseType":"Fixed Establishment","establishmentType":"Food Service Establishment","establishmentStatus":"Open","riskCategory":"High","reviewFrequencyDays":"180.0","coords":"-83.12538,42.30932","geojson":{"id":"51622803","type":"Feature","geometry":{"type":"Point","coordinates":[-83.125381029,42.3093179690001]},"properties":{"name":"La Posada","owner":"Juan Romo","address":"1930 Springwells St","zipcode":"48209","license_type":"Fixed Establishment","risk_category":"High","license_number":"db061218","establishmentid":"51622803","establishment_type":"Food Service Establishment","establishment_status":"Open","review_frequency_days":"180.0","most_recent_license_date":null}},"nearbyList":[{"establishmentid":"768","name":"Family Treat","address":"2010 Springwells Ave","zipcode":"48209"},{"establishmentid":"4050","name":"My Spot","address":"1801 Springwells","zipcode":"48209"},{"establishmentid":"5082","name":"El Caribeno","address":"8065 Vernor Hwy","zipcode":"48209"},{"establishmentid":"51622563","name":"La Pasada","address":"1601 Springwells St","zipcode":"48209"},{"establishmentid":"279","name":"Pauls Pizzeria","address":"7635 W Vernor St","zipcode":"48209"},{"establishmentid":"413","name":"Charlie's Bar","address":"1503 Springwells Ave","zipcode":"48209"},{"establishmentid":"4358","name":"Domino's Pizza","address":"7603 W Vernor St","zipcode":"48209"},{"establishmentid":"926","name":"Bennett Elementary","address":"2111 Mullane St","zipcode":"48209"},{"establishmentid":"995","name":"Harms School Elementary","address":"2400 Central Ave","zipcode":"48209"},{"establishmentid":"1353","name":"Vince's Italian Rest & Pizzeria","address":"1341 Springwells Ave","zipcode":"48209"},{"establishmentid":"3812","name":"Tacos El Caballo","address":"8084 Rathbone St","zipcode":"48209"},{"establishmentid":"2224","name":"El Asador","address":"1312 Springwells Ave","zipcode":"48209"},{"establishmentid":"5028","name":"Marisqueria El Emperio","address":"1633 Lawndale St","zipcode":"48209"},{"establishmentid":"4960","name":"El Parian Commissary","address":"1633 Lawndale St","zipcode":"48209"},{"establishmentid":"5173","name":"El Salpicon","address":"8600 W Vernor Hwy","zipcode":"48209"},{"establishmentid":"4241","name":"Tacos El Toro #3","address":"8191 Chamberlain St","zipcode":"48209"},{"establishmentid":"3849","name":"El Kiosko","address":"7271 Dix Ave","zipcode":"48209"},{"establishmentid":"51622476","name":"Mi Pueblo Express","address":"7271 Dix Ave","zipcode":"48209"},{"establishmentid":"1184","name":"McDonald's #5251","address":"1101 Springwells Ave","zipcode":"48209"},{"establishmentid":"3858","name":"Pollos Los Gallos","address":"7135 Dix Ave","zipcode":"48209"}],"inspectionsByEstablishmentidList":[{"inspectionid":"44775","inspectionDate":"2019-01-07T00:00:00","inspectionType":"Routine Inspection","inCompliance":"Yes","violationsByInspectionidList":[{"violationCode":"3-501.16","violationDescription":"Except during preparation, cooking, or cooling, or when time is used as the public health control POTENTIALLY HAZARDOUS FOOD (TIME/TEMPERATURE CONTROL FOR SAFETY FOOD) shall be maintained:\r\n(A)  135ºF or above, except that roasts properly cooked and cooled may be held              at a temperature of 130ºF; or (P)\r\n(B)   At 41ºF or less (P)\r\n","violationType":"Priority","itemDescription":"Hot food item(s)","subItem":"","problemDescription":"Stored below 135 degrees F","subProblem":"","location":"COOKING/PREP AREA","subLocation":"Hot holding temperatures","corrected":"Yes","daysToCorrect":"10.0","correctedDate":"2019-01-07T00:00:00","correctionDescription":"Discard"},{"violationCode":"3-302.11","violationDescription":"(A) FOOD shall be protected from cross contamination by:  \r\n(1) Except as specified in (1)(c) below, separating raw animal FOODS during         storage, preparation, holding, and display from:\r\n(a) Raw READY-TO-EAT FOOD including other raw animal FOOD such as FISH for sushi or MOLLUSCAN SHELLFISH, or other raw READY-TO-EAT FOOD such as fruits and vegetables,(P) and\r\n(b) Cooked READY-TO-EAT FOOD; (P)\r\n(c) Frozen, commercially processed and packaged raw animal FOOD may be          stored or displayed with or above frozen, commercially processed and           packaged, ready-to-eat food.\r\n(2) Except when combined as ingredients, separating types of raw animal FOODS    from each other such as beef, FISH, lamb, pork, and POULTRY during storage,        preparation, holding, and display by:\r\n(a) Using separate EQUIPMENT for each type, (P) or\r\n(b) Arranging each type of FOOD in EQUIPMENT so that cross contamination of one type with another is prevented, (P) and\r\n(c) Preparing each type of FOOD at different times or in separate areas; (P)\r\n","violationType":"Priority","itemDescription":"Raw animal food(s)","subItem":"","problemDescription":"Stored over/next to","subProblem":"Ready-to-eat food(s)","location":"COOKING/PREP AREA","subLocation":"Cooler (prep)","corrected":"Yes","daysToCorrect":"10.0","correctedDate":"2019-01-07T00:00:00","correctionDescription":"Store raw animal foods below and away from foods needing little or no further prep."},{"violationCode":"7-102.11","violationDescription":"Working containers used for storing POISONOUS OR TOXIC MATERIALS such as cleaners and SANITIZERS taken from bulk supplies shall be clearly and individually identified with the common name of the material. (Pf)\r\n","violationType":"Foundation","itemDescription":"Working containers-toxics","subItem":"","problemDescription":"Not labeled as to content","subProblem":"","location":"ESTABLISHMENT","subLocation":"Chemicals (spray type)","corrected":"Yes","daysToCorrect":"10.0","correctedDate":"2019-01-07T00:00:00","correctionDescription":"Label containers with common name."},{"violationCode":"6-301.12","violationDescription":"Each HANDWASHING SINK or group of adjacent HANDWASHING SINKS shall be provided with:\r\n(A) Individual, disposable towels; (Pf)\r\n(B) A continuous towel system that supplies the user with a clean towel;(Pf) or \r\n(C) A heated-air hand drying device.(Pf)\r\n(D) A hand drying device that employs an air-knife system that delivers high velocity pressurized air at ambient temperatures.(Pf)\r\n","violationType":"Foundation","itemDescription":"Sanitary hand drying provisions","subItem":"","problemDescription":"Not provided","subProblem":"","location":"BATHROOM","subLocation":"Hand-drying towels","corrected":"Yes","daysToCorrect":"10.0","correctedDate":"2019-01-07T00:00:00","correctionDescription":"Provide."},{"violationCode":"6-301.14","violationDescription":"A sign or poster that notifies FOOD EMPLOYEES to wash their hands shall be provided at all HANDWASHING SINKS used by FOOD EMPLOYEES and shall be clearly visible to FOOD EMPLOYEES.\r\n","violationType":"Core","itemDescription":"Handwashing signage","subItem":"","problemDescription":"Not provided","subProblem":"","location":"BATHROOM","subLocation":"Hand washing signage","corrected":"Not required","daysToCorrect":"30.0","correctedDate":null,"correctionDescription":"Provide."},{"violationCode":"5-501.17","violationDescription":"A toilet room used by females shall be provided with a covered receptacle for sanitary napkins.\r\n","violationType":"Core","itemDescription":"Covered waste receptacle(s)","subItem":"","problemDescription":"Not provided","subProblem":"","location":"BATHROOM","subLocation":"TRASH CAN","corrected":"Not required","daysToCorrect":"30.0","correctedDate":null,"correctionDescription":"Provide."}]}]}]}},"pageContext":{"eid":"51622803"}}