{"data":{"site":{"pathPrefix":"/restaurant-inspections"},"postgres":{"establishment":[{"establishmentid":"4202","name":"Joe Louis Arena- Buffalo Wild Wings","address":"600 Civic Center Dr","zipcode":"48226","owner":"Olympia Entertainment","licenseNumber":"069250","licenseType":"Fixed Establishment","establishmentType":"Food Service Establishment","establishmentStatus":"Permanently Closed","riskCategory":null,"reviewFrequencyDays":"365.0","coords":"-83.05141,42.32519","geojson":{"id":"4202","type":"Feature","geometry":{"type":"Point","coordinates":[-83.051406129,42.325190385]},"properties":{"name":"Joe Louis Arena- Buffalo Wild Wings","owner":"Olympia Entertainment","address":"600 Civic Center Dr","zipcode":"48226","license_type":"Fixed Establishment","risk_category":null,"license_number":"069250","establishmentid":"4202","establishment_type":"Food Service Establishment","establishment_status":"Permanently Closed","review_frequency_days":"365.0","most_recent_license_date":"5/10/2017"}},"nearbyList":[{"establishmentid":"741","name":"Detroit Racquet Club","address":"626 Woodbridge St","zipcode":"48226"},{"establishmentid":"4397","name":"Cobo Hall- New Kitchen/Concessions","address":"1 Washington Blvd","zipcode":"48226"},{"establishmentid":"4048","name":"Cobo Hall-Wayne Hall Kitchen","address":"1 Washington Blvd","zipcode":"48226"},{"establishmentid":"4049","name":"Cobo Hall-Go Gourmet/Coffee Shop","address":"1 Washington Blvd","zipcode":"48226"},{"establishmentid":"4211","name":"Cobo Hall- Portables","address":"1 Washington Blvd","zipcode":"48226"},{"establishmentid":"5117","name":"Cobo Hall- Cork and Grind","address":"1 Washington Blvd","zipcode":"48226"},{"establishmentid":"4291","name":"Tommy's Detroit Bar and Grill","address":"624 Third St","zipcode":"48226"},{"establishmentid":"1387","name":"Cobo Joe's","address":"422 W Congress","zipcode":"48226"},{"establishmentid":"1407","name":"Fort Street Presbyterian Church","address":"631 W Fort St","zipcode":"48226"},{"establishmentid":"5388","name":"The Drink Hall","address":"408 W Congress","zipcode":"48226"},{"establishmentid":"3451","name":"Signature Grill","address":"250 Riverfront Drive","zipcode":"48226"},{"establishmentid":"51622912","name":"Anchor Bar ","address":"450 W Fort St","zipcode":"48226"},{"establishmentid":"1597","name":"Anchor Bar","address":"450 W Fort St","zipcode":"48226"},{"establishmentid":"5419","name":"Press Room Cafe","address":"615 W Lafayette","zipcode":"48226"},{"establishmentid":"3956","name":"Motor City Kitchen","address":"525 W Lafayette Blvd","zipcode":"48226"},{"establishmentid":"3992","name":"Motor City Kitchen Market","address":"525 W Lafayette St","zipcode":"48226"},{"establishmentid":"5396","name":"Foundation Hotel- Apparatus Room","address":"250 W Larned","zipcode":"48226"},{"establishmentid":"51622489","name":"Foundation Hotel- Employee Dining","address":"250 W Larned","zipcode":"48226"},{"establishmentid":"51622490","name":"Foundation Hotel- Chef's Table","address":"250 W Larned","zipcode":"48226"},{"establishmentid":"51622491","name":"Foundation Hotel- Banquet","address":"250 W Larned","zipcode":"48226"}],"inspectionsByEstablishmentidList":[{"inspectionid":"37992","inspectionDate":"2017-01-31T00:00:00","inspectionType":"Routine Inspection","inCompliance":"Yes","violationsByInspectionidList":[{"violationCode":"3-304.14","violationDescription":"(A)  Cloths that are in use for wiping FOOD spills on TABLEWARE shall be maintained dry and used for no other purpose. \r\n(B)  Cloths in-use for wiping counters and equipment shall be held between uses in   a chemical sanitizer solution, and laundered daily.\r\n(C)  Cloths in-use for wiping surfaces in contact with raw animal FOODS shall be      kept separate from cloths used for other purposes.\r\n(D)  Dry wiping cloths and the chemical sanitizing solutions shall be free of FOOD    debris or visible soil.\r\n(E)  Containers of chemical sanitizing solutions shall be stored off the floor and         used in a manner that prevents contamination of FOOD, EQUIPMENT, UTENSILS, LINENS, SINGLE-SERVICE, or SINGLE-USE ARTICLES.\r\n(E)  SINGLE-USE disposable sanitizer wipes shall be used in accordance lable               instructions.\r\n","violationType":"Core","itemDescription":"Wiping cloth(s)","subItem":"","problemDescription":"Stored on","subProblem":"Counter","location":"SANITIZER BUCKETS","subLocation":"","corrected":"Yes","daysToCorrect":"30.0","correctedDate":"2017-01-31T00:00:00","correctionDescription":"Store wiping cloths completely submersed in sanitizer."},{"violationCode":"4-501.11","violationDescription":"EQUIPMENT shall be maintained in a state of repair and condition that meets the requirements of the code.\r\n","violationType":"Core","itemDescription":"Equipment","subItem":"","problemDescription":"Do not meet requirements of rule","subProblem":"","location":"COOLER","subLocation":"","corrected":"Not required","daysToCorrect":"30.0","correctedDate":null,"correctionDescription":"Repair/replace to meet requirements of rule."}]}]}]}},"pageContext":{"eid":"4202"}}