{"data":{"site":{"pathPrefix":"/restaurant-inspections"},"postgres":{"establishment":[{"establishmentid":"4015","name":"Greater New Mount Moriah","address":"586 Owens St","zipcode":"48202","owner":"Greater New Mt. Moriah","licenseNumber":"057379","licenseType":"Fixed Establishment","establishmentType":"Food Service Establishment","establishmentStatus":"Open","riskCategory":"Medium","reviewFrequencyDays":"365.0","coords":"-83.07499,42.38520","geojson":{"id":"4015","type":"Feature","geometry":{"type":"Point","coordinates":[-83.0749907209999,42.3851966060001]},"properties":{"name":"Greater New Mount Moriah","owner":"Greater New Mt. Moriah","address":"586 Owens St","zipcode":"48202","license_type":"Fixed Establishment","risk_category":"Medium","license_number":"057379","establishmentid":"4015","establishment_type":"Food Service Establishment","establishment_status":"Open","review_frequency_days":"365.0","most_recent_license_date":"5/7/2018"}},"nearbyList":[{"establishmentid":"5204","name":"Miss Virginia's Ice Cream Parlor","address":"8801 Oakland Ave","zipcode":"48211"},{"establishmentid":"949","name":"Detroit International Academy/ Northern","address":"9026 Woodward Ave","zipcode":"48202"},{"establishmentid":"1317","name":"Loving Elementary","address":"1000 Lynn Ave","zipcode":"48202"},{"establishmentid":"696","name":"Grandy's Coney Island","address":"1200 Holbrook Rd","zipcode":"48211"},{"establishmentid":"4881","name":"Cleary University","address":"8904 Woodward Ave","zipcode":"48202"},{"establishmentid":"2006","name":"Subway","address":"9320 Woodward Ave","zipcode":"48202"},{"establishmentid":"5267","name":"Ocean Splash Fish & Chicken","address":"8528 Woodward Ave","zipcode":"48202"},{"establishmentid":"3650","name":"American Axle","address":"1 Dauch Dr","zipcode":"48211"},{"establishmentid":"2404","name":"The Schvitz ","address":"8295 Oakland Ave","zipcode":"48211"},{"establishmentid":"1717","name":"The Turkey Grill","address":"8290 Woodward Ave","zipcode":"48202"}],"inspectionsByEstablishmentidList":[{"inspectionid":"43536","inspectionDate":"2018-09-05T00:00:00","inspectionType":"Routine Inspection","inCompliance":"Yes","violationsByInspectionidList":[{"violationCode":"4-501.14","violationDescription":"A WAREWASHING machine; the compartments of sinks, basins, or  other receptacles used for washing and rinsing EQUIPMENT, UTENSILS, or raw FOODS, or laundering wiping cloths; and drainboards or other EQUIPMENT used to substitute for drainboards shall be cleaned as required.\r\n","violationType":"Core","itemDescription":"Warewashing equipment","subItem":"","problemDescription":"Not cleaned","subProblem":"","location":"KITCHEN","subLocation":"Three compartment sink","corrected":"Not required","daysToCorrect":"30.0","correctedDate":null,"correctionDescription":"Clean as required above."},{"violationCode":"6-501.12","violationDescription":"(A) PHYSICAL FACILITIES shall be cleaned as often as necessary to keep them clean.\r\n(B) Except spill cleanup, cleaning shall be done during periods when the least amount of FOOD is exposed such as after closing. ","violationType":"Core","itemDescription":"Physical facilities/structures","subItem":"","problemDescription":"Not clean","subProblem":"","location":"KITCHEN","subLocation":"","corrected":"Not required","daysToCorrect":"30.0","correctedDate":null,"correctionDescription":"Clean"},{"violationCode":"4-602.13","violationDescription":"NonFOOD-CONTACT SURFACES of EQUIPMENT shall be cleaned at a frequency necessary to preclude accumulation of soil residues.\r\n","violationType":"Core","itemDescription":"Nonfood contact surface(s)","subItem":"","problemDescription":"Soiled","subProblem":"","location":"KITCHEN","subLocation":"NON FOOD CONTACT SURFACES","corrected":"Not required","daysToCorrect":"30.0","correctedDate":null,"correctionDescription":"Clean."}]},{"inspectionid":"38499","inspectionDate":"2017-04-05T00:00:00","inspectionType":"Routine Inspection","inCompliance":"Yes","violationsByInspectionidList":[{"violationCode":"4-602.13","violationDescription":"NonFOOD-CONTACT SURFACES of EQUIPMENT shall be cleaned at a frequency necessary to preclude accumulation of soil residues.\r\n","violationType":"Core","itemDescription":"Nonfood contact surface(s)","subItem":"","problemDescription":"Soiled","subProblem":"","location":"KITCHEN","subLocation":"NON FOOD CONTACT SURFACES","corrected":"Not required","daysToCorrect":"30.0","correctedDate":null,"correctionDescription":"Clean."},{"violationCode":"6-501.12","violationDescription":"(A) PHYSICAL FACILITIES shall be cleaned as often as necessary to keep them clean.\r\n(B) Except spill cleanup, cleaning shall be done during periods when the least amount of FOOD is exposed such as after closing. ","violationType":"Core","itemDescription":"Physical facilities/structures","subItem":"","problemDescription":"Soiled","subProblem":"","location":"DISHWASHING ROOM","subLocation":"","corrected":"Not required","daysToCorrect":"30.0","correctedDate":null,"correctionDescription":"Clean."}]}]}],"maxInspectionDate":[{"inspectionDate":"2019-03-31T00:00:00"}]}},"pageContext":{"eid":"4015"}}