{"componentChunkName":"component---src-templates-establishment-page-js","path":"/establishment/3673","result":{"data":{"site":{"pathPrefix":"/restaurant-inspections"},"postgres":{"establishment":[{"establishmentid":"3673","name":"Tijuana's Authenic Mexican Kitchen","address":"18940  Ford Rd.","zipcode":"48228","owner":"Tijuana's Authenic Mexican Kit","licenseNumber":"071393","licenseType":"Fixed Establishment","establishmentType":"Food Service Establishment","establishmentStatus":"New Owner/Complete Reconstruct","riskCategory":"High","reviewFrequencyDays":"150","coords":"-83.22477,42.32917","geojson":{"id":"3673","type":"Feature","geometry":{"type":"Point","coordinates":[-83.224767964,42.329173555]},"properties":{"name":"Tijuana's Authenic Mexican Kitchen","owner":"Tijuana's Authenic Mexican Kit","address":"18940  Ford Rd.","zipcode":"48228","license_type":"Fixed Establishment","risk_category":"High","license_number":"071393","establishmentid":"3673","establishment_type":"Food Service Establishment","establishment_status":"New Owner/Complete Reconstruct","review_frequency_days":"150","most_recent_license_date":"4/21/2019"}},"nearbyList":[{"establishmentid":"51623783","name":"Pizza Place","address":"18950 Ford Rd.","zipcode":"48228"},{"establishmentid":"51623478","name":"Wild Mustang","address":"18728 Ford","zipcode":"48228"},{"establishmentid":"5145","name":"Ford Rd. Bistro Toy Chest","address":"18728 Ford Rd.","zipcode":"48228"},{"establishmentid":"1121","name":"Club 228","address":"18728 Ford Rd.","zipcode":"48228"},{"establishmentid":"1515","name":"Pizzaplace Dearborn, Inc","address":"18706 Ford Rd.","zipcode":"48228"},{"establishmentid":"1050","name":"Detroit Robin Inc./Red Robin ","address":"18650 Ford Rd.","zipcode":"48228"},{"establishmentid":"1444","name":"Ford Patio Bar & Grill ","address":"18490 Ford Rd.","zipcode":"48228"},{"establishmentid":"1801","name":"Wendy's ","address":"18430 Ford Rd.","zipcode":"48228"},{"establishmentid":"51623436","name":"Catrina Mia","address":"6212 Artesian","zipcode":"48228"},{"establishmentid":"1237","name":"Carver Elementary- Middle School","address":"18701 Paul","zipcode":"48228"}],"inspectionsByEstablishmentidList":[{"inspectionid":"53006","inspectionDate":"2020-10-06T00:00:00","inspectionType":"Routine Inspection","inCompliance":"Yes","violationsByInspectionidList":[]},{"inspectionid":"51146","inspectionDate":"2020-03-10T00:00:00","inspectionType":"Routine Inspection","inCompliance":"Yes","violationsByInspectionidList":[]},{"inspectionid":"48606","inspectionDate":"2019-08-01T00:00:00","inspectionType":"Routine Inspection","inCompliance":"Yes","violationsByInspectionidList":[{"violationCode":"7-102.11","violationDescription":"Working containers used for storing POISONOUS OR TOXIC MATERIALS such as cleaners and SANITIZERS taken from bulk supplies shall be clearly and individually identified with the common name of the material. (Pf)\n","violationType":"Foundation","itemDescription":"Working containers-toxics","subItem":null,"problemDescription":"Not labeled as to content","subProblem":null,"location":"ENTIRE FACILITY","subLocation":null,"corrected":"True","daysToCorrect":"10","correctedDate":"2019-08-01T00:00:00","correctionDescription":null},{"violationCode":"5-205.11","violationDescription":"(A) A HANDWASHING SINK shall be maintained so that it is accessible at all times for EMPLOYEE use and used for no other purpose. (Pf)\n(B)  An automatic handwashing facility shall be used in accordance with manufacturer's instructions. (Pf)\n","violationType":"Foundation","itemDescription":"Handwashing sink(s)","subItem":null,"problemDescription":"Used for culinary purposes","subProblem":null,"location":"BAR","subLocation":null,"corrected":"True","daysToCorrect":"10","correctedDate":"2019-08-01T00:00:00","correctionDescription":null}]},{"inspectionid":"44251","inspectionDate":"2018-11-28T00:00:00","inspectionType":"Routine Inspection","inCompliance":"Yes","violationsByInspectionidList":[]},{"inspectionid":"42256","inspectionDate":"2018-05-15T00:00:00","inspectionType":"Routine Inspection","inCompliance":"Yes","violationsByInspectionidList":[]},{"inspectionid":"40452","inspectionDate":"2017-10-16T00:00:00","inspectionType":"Routine Inspection","inCompliance":"Yes","violationsByInspectionidList":[{"violationCode":"3-304.14","violationDescription":"(A)  Cloths that are in use for wiping FOOD spills on TABLEWARE shall be maintained dry and used for no other purpose. \n(B)  Cloths in-use for wiping counters and equipment shall be held between uses in   a chemical sanitizer solution, and laundered daily.\n(C)  Cloths in-use for wiping surfaces in contact with raw animal FOODS shall be      kept separate from cloths used for other purposes.\n(D)  Dry wiping cloths and the chemical sanitizing solutions shall be free of FOOD    debris or visible soil.\n(E)  Containers of chemical sanitizing solutions shall be stored off the floor and         used in a manner that prevents contamination of FOOD, EQUIPMENT, UTENSILS, LINENS, SINGLE-SERVICE, or SINGLE-USE ARTICLES.\n(E)  SINGLE-USE disposable sanitizer wipes shall be used in accordance lable               instructions.\n","violationType":"Core","itemDescription":"Wiping cloth(s)","subItem":null,"problemDescription":"Stored on","subProblem":"Counter","location":"KITCHEN","subLocation":null,"corrected":"True","daysToCorrect":"30","correctedDate":"2017-10-16T00:00:00","correctionDescription":"Store wiping cloths completely submersed in sanitizer."}]},{"inspectionid":"38761","inspectionDate":"2017-04-12T00:00:00","inspectionType":"Routine Inspection","inCompliance":"Yes","violationsByInspectionidList":[]},{"inspectionid":"37098","inspectionDate":"2016-11-08T00:00:00","inspectionType":"Routine Inspection","inCompliance":"Yes","violationsByInspectionidList":[]}]}],"maxInspectionDate":[{"inspectionDate":"2022-07-25T00:00:00"}]}},"pageContext":{"eid":"3673"}},"staticQueryHashes":["3649515864","63159454"]}