{"data":{"site":{"pathPrefix":"/restaurant-inspections"},"postgres":{"establishment":[{"establishmentid":"805","name":"Nancy Whiskey ","address":"2644 Harrison","zipcode":"48216","owner":"Mirish, LLC","licenseNumber":"067559","licenseType":"Fixed Establishment","establishmentType":"Food Service Establishment","establishmentStatus":"Open","riskCategory":null,"reviewFrequencyDays":"365.0","coords":"-83.07254,42.33542","geojson":{"id":"805","type":"Feature","geometry":{"type":"Point","coordinates":[-83.072538803,42.3354198530001]},"properties":{"name":"Nancy Whiskey ","owner":"Mirish, LLC","address":"2644 Harrison","zipcode":"48216","license_type":"Fixed Establishment","risk_category":null,"license_number":"067559","establishmentid":"805","establishment_type":"Food Service Establishment","establishment_status":"Open","review_frequency_days":"365.0","most_recent_license_date":"5/22/2018"}},"nearbyList":[{"establishmentid":"51622820","name":"Lucky Detroit Coffee & Espresso","address":"2000 Michigan Ave","zipcode":"48216"},{"establishmentid":"408","name":"Maltese Am Benevolent Society","address":"1832 Michigan Avenue","zipcode":"48216"},{"establishmentid":"407","name":"Casey's Pub d/b/a The Red Corridor","address":"1830 Michigan Ave","zipcode":"48216"},{"establishmentid":"5394","name":"Ima","address":"2015 Michigan Ave","zipcode":"48216"},{"establishmentid":"51622463","name":"Corktown Tavern Inc.","address":"1716 Michigan Ave","zipcode":"48216"},{"establishmentid":"284","name":"L J'S Sweetheart bar","address":"2114 Michigan Ave","zipcode":"48216"},{"establishmentid":"4300","name":"Sugar House","address":"2130 Michigan Ave","zipcode":"48216"},{"establishmentid":"2950","name":"Slows BBQ","address":"2138 Michigan Ave","zipcode":"48216"},{"establishmentid":"51622645","name":"Grandma Bobs Pizza","address":"2135 Michigan Ave","zipcode":"48216"},{"establishmentid":"3745","name":"Mercury Burger Bar","address":"2163 Michigan Ave","zipcode":"48216"}],"inspectionsByEstablishmentidList":[{"inspectionid":"45495","inspectionDate":"2019-03-07T00:00:00","inspectionType":"Routine Inspection","inCompliance":"Yes","violationsByInspectionidList":[{"violationCode":"2-401.11","violationDescription":"(A)    An EMPLOYEE shall eat, drink, or use any form of tobacco only in designated areas where the contamination of exposed FOOD; clean EQUIPMENT, UTENSILS, and LINENS; unwrapped SINGLE-SERVICE and SINGLE-USE ARTICLES; or other items needing protection can not result.\r\n(B)     A FOOD EMPLOYEE may drink from a closed BEVERAGE container if the container is handled to prevent contamination of:\r\n         (1)     The EMPLOYEE'S hands;\r\n         (2)     The container; and\r\n         (3)     Exposed FOOD; clean EQUIPMENT, UTENSILS, and LINENS; and unwrapped SINGLE-SERVICE and SINGLE-USE ARTICLES.\r\n","violationType":"Core","itemDescription":"Employee(s)","subItem":"","problemDescription":"Smoking","subProblem":"","location":"BASEMENT","subLocation":"On the floor Cigarette butt(s)","corrected":"Not required","daysToCorrect":"30.0","correctedDate":null,"correctionDescription":"Smoke only in designated areas as restricted above."}]},{"inspectionid":"41746","inspectionDate":"2018-03-14T00:00:00","inspectionType":"Routine Inspection","inCompliance":"Yes","violationsByInspectionidList":[{"violationCode":"7-201.11","violationDescription":"POISONOUS OR TOXIC MATERIAL shall be stored so they can not contaminate FOOD, EQUIPMENT, UTENSILS, LINENS, AND SINGLE-SERVICE AND SINGLE-USE ARTICLES by:   \r\n(A) Separating the POISONOUS OR TOXIC MATERIAL by spacing or partitioning; (P) and   \r\n(B) Locating the POISONOUS OR TOXIC MATERIAL in an area that is not above FOOD, EQUIPMENT, UTENSILS, LINENS, AND SINGLE-SERVICE AND SINGLE-USE ARTICLES.  This paragraph does not apply to EQUIPMENT and UTENSIL cleaners and sanitizers that are stored in WAREWASHING areas for availability and convenience if the materials are stored to prevent contamination of FOOD, EQUIPMENT, UTENSILS, LINENS, AND SINGLE-SERVICE and SINGLE-USE ARTICLES. (P)","violationType":"Priority","itemDescription":"Poisonous/toxic material(s)","subItem":"","problemDescription":"Stored over/with","subProblem":"Food","location":"MOP SINK AREA","subLocation":"On top of the Ice machine","corrected":"Yes","daysToCorrect":"10.0","correctedDate":"2018-03-14T00:00:00","correctionDescription":"Store toxics below and away from all other items."}]},{"inspectionid":"38463","inspectionDate":"2017-04-11T00:00:00","inspectionType":"Routine Inspection","inCompliance":"Yes","violationsByInspectionidList":[{"violationCode":"6-501.12","violationDescription":"(A) PHYSICAL FACILITIES shall be cleaned as often as necessary to keep them clean.\r\n(B) Except spill cleanup, cleaning shall be done during periods when the least amount of FOOD is exposed such as after closing. ","violationType":"Core","itemDescription":"Physical facilities/structures","subItem":"floors","problemDescription":"Not clean","subProblem":"","location":"BASEMENT","subLocation":"At the Floor","corrected":"Not required","daysToCorrect":"30.0","correctedDate":null,"correctionDescription":"Clean"}]}]}],"maxInspectionDate":[{"inspectionDate":"2019-04-30T00:00:00"}]}},"pageContext":{"eid":"805"}}