{"data":{"site":{"pathPrefix":"/restaurant-inspections"},"postgres":{"establishment":[{"establishmentid":"634","name":"Little Caesar's Pizza #39","address":"19400 W Seven Mile Rd","zipcode":"48201","owner":"Little Caesar Enterprises Inc.","licenseNumber":"034541","licenseType":"Fixed Establishment","establishmentType":"Food Service Establishment","establishmentStatus":"Open","riskCategory":null,"reviewFrequencyDays":"365.0","coords":"-83.23371,42.43007","geojson":{"id":"634","type":"Feature","geometry":{"type":"Point","coordinates":[-83.233713994,42.430066262]},"properties":{"name":"Little Caesar's Pizza #39","owner":"Little Caesar Enterprises Inc.","address":"19400 W Seven Mile Rd","zipcode":"48201","license_type":"Fixed Establishment","risk_category":null,"license_number":"034541","establishmentid":"634","establishment_type":"Food Service Establishment","establishment_status":"Open","review_frequency_days":"365.0","most_recent_license_date":"5/11/2018"}},"nearbyList":[{"establishmentid":"410","name":"Lou's  Deli/Seven Mile","address":"19440 W Seven Mile Rd","zipcode":"48219"},{"establishmentid":"2592","name":"Crab House","address":"19721 W Seven Mile Rd","zipcode":"48219"},{"establishmentid":"5160","name":"Olympia Coney Island","address":"19740 W Seven Mile","zipcode":"48219"},{"establishmentid":"3378","name":"Ebony Lounge","address":"19029 W Seven Mile Rd","zipcode":"48219"},{"establishmentid":"1647","name":"China One","address":"20160 W Seven Mile Rd","zipcode":"48219"},{"establishmentid":"2246","name":"Happy's Pizza #5","address":"20150 W Seven Mile Rd","zipcode":"48219"},{"establishmentid":"2238","name":"Subway #15573","address":"20170 W Seven Mile Rd","zipcode":"48219"},{"establishmentid":"907","name":"Emerson K-8 School","address":"18240 Huntington Ave","zipcode":"48219"},{"establishmentid":"2603","name":"Emerson Annex","address":"19500 Curtis Ave","zipcode":"48219"},{"establishmentid":"5241","name":"S & T Fresh Fish & Seafood Inc.","address":"20231 W Seven Mile Rd","zipcode":"48219"},{"establishmentid":"4423","name":"AVI- Children's Center of Wayne County","address":"19900 Evergreen Rd","zipcode":"48216"},{"establishmentid":"51622856","name":"T.A. Krispy Chicken","address":"18525 W Seven Mile Rd","zipcode":"48219"},{"establishmentid":"867","name":"Henry Ford High School","address":"20000 Evergreen Rd","zipcode":"48219"},{"establishmentid":"476","name":"Bob's Pizza Palace Inc.","address":"20510 W Seven Mile Rd","zipcode":"48219"},{"establishmentid":"51622494","name":"Saxony Lounge","address":"18300 W Seven Mile Rd","zipcode":"48219"},{"establishmentid":"4168","name":"Star Lite Bar & Grill","address":"18300 W Seven Mile Rd","zipcode":"48219"},{"establishmentid":"1305","name":"Teenie's Deli Inc.","address":"18244 W Seven Mile Rd","zipcode":"48219"},{"establishmentid":"1377","name":"Dynamo Corned Beef Deli","address":"20716 W Seven Mile Rd","zipcode":"48219"},{"establishmentid":"1267","name":"Church's Fried Chicken #991","address":"18138 W Seven Mile Rd","zipcode":"48219"},{"establishmentid":"3798","name":"Subway ","address":"8200 W Outer Dr","zipcode":"48235"}],"inspectionsByEstablishmentidList":[{"inspectionid":"44812","inspectionDate":"2018-08-10T00:00:00","inspectionType":"Complaint","inCompliance":"Yes","violationsByInspectionidList":[]},{"inspectionid":"41884","inspectionDate":"2018-04-11T00:00:00","inspectionType":"Routine Inspection","inCompliance":"Yes","violationsByInspectionidList":[{"violationCode":"5-501.16","violationDescription":"(A) An inside storage room and area and outside storage area and enclosure, and receptacles shall be of sufficient capacity to hold REFUSE, recyclables, and returnables that accumulate.   \r\n(B) A receptacle shall be provided in each area of the FOOD ESTABLISHMENT or PREMISES where REFUSE is generated or commonly discarded, or where recyclables or returnables are placed.   \r\n(C) If disposable towels are used at handwashing lavatories, a waste receptacle shall be located at each lavatory or group of adjacent lavatories.\r\n","violationType":"Core","itemDescription":"Handwash trash receptacle(s)","subItem":"front prep","problemDescription":"Not provided","subProblem":"At hand sink","location":"HANDSINK(S)","subLocation":"","corrected":"Not required","daysToCorrect":"30.0","correctedDate":null,"correctionDescription":"Provide"},{"violationCode":"6-403.11","violationDescription":"(A) Areas designated for EMPLOYEES to eat, drink, and use tobacco shall be located so that FOOD, EQUIPMENT, LINENS, and SINGLE-SERVICE and SINGLE-USE ARTICLES are protected from contamination.\r\n(B) Lockers or other suitable facilities shall be located in a designated room or area where contamination of FOOD, EQUIPMENT, UTENSILS, LINENS, and SINGLE-SERVICE and SINGLE-USE ARTICLES can not occur.\r\n","violationType":"Core","itemDescription":"Locker(s)/employee storage area(s)","subItem":"","problemDescription":"Contaminates","subProblem":"Food","location":"COOLER","subLocation":"","corrected":"Not required","daysToCorrect":"30.0","correctedDate":null,"correctionDescription":"Relocate to a designated area that does not contaminate items or surfaces."}]},{"inspectionid":"38834","inspectionDate":"2017-05-09T00:00:00","inspectionType":"Routine Inspection","inCompliance":"No","violationsByInspectionidList":[{"violationCode":"4-501.114","violationDescription":"A chemical SANITIZER used in a SANITIZING solution for a manual or\r\nmechanical operation shall meet these limits or as otherwise approved: (P)\r\n\tChlorine        ppm           pH<10             pH<8\r\n\t\t      25              120 F              120 F\r\n\t\t      50              100 F              75 F\r\n\t\t     100              55 F               55 F\r\n                 Iodine           a concentration of between 12.5 and 25 ppm and minimum temp of 75 F and pH of 5 or less or meets manufacturer's specifications. (P)\r\n\r\n                Quats            minimum temperature of 75 F, hardness of 500 ppm or less and meet manufacturers use directions. (P)\r\n","violationType":"Priority","itemDescription":"Quaternary ammonia solution","subItem":"","problemDescription":"Below 100 ppm","subProblem":"","location":"KITCHEN","subLocation":"","corrected":"Yes","daysToCorrect":"10.0","correctedDate":"2017-05-09T00:00:00","correctionDescription":"Provide correct concentration as stated above."},{"violationCode":"4-302.14","violationDescription":"A test kit or other device that accurately measures the concentration in mg/L of SANITIZING solutions shall be provided. (Pf)\r\n","violationType":"Foundation","itemDescription":null,"subItem":"","problemDescription":null,"subProblem":"","location":"KITCHEN","subLocation":"","corrected":"No","daysToCorrect":"10.0","correctedDate":null,"correctionDescription":null}]}]}]}},"pageContext":{"eid":"634"}}