{"data":{"postgres":{"establishment":[{"establishmentid":"5200","name":"The Skip","address":"1234 Library St","zipcode":"48226","owner":"Brendon Edwards","licenseNumber":"200089","licenseType":"Fixed Establishment","establishmentType":"Food Service Establishment","establishmentStatus":"Open","riskCategory":null,"reviewFrequencyDays":"365.0","coords":"-83.04644,42.33413","geojson":{"id":"5200","type":"Feature","geometry":{"type":"Point","coordinates":[-83.046443057,42.3341337250001]},"properties":{"name":"The Skip","owner":"Brendon Edwards","address":"1234 Library St","zipcode":"48226","license_type":"Fixed Establishment","risk_category":null,"license_number":"200089","establishmentid":"5200","establishment_type":"Food Service Establishment","establishment_status":"Open","review_frequency_days":"365.0","most_recent_license_date":"5/7/2018"}},"nearbyList":[{"establishmentid":"4869","name":"7 Greens","address":"1222 Library St","zipcode":"48226"},{"establishmentid":"5031","name":"Standby","address":"225 Gratiot Ave","zipcode":"48226"},{"establishmentid":"4972","name":"Punch Bowl 360 Bar","address":"1331 Broadway","zipcode":"48226"},{"establishmentid":"4912","name":"Punch Bowl Social-Detroit","address":"1331 Broadway","zipcode":"48226"},{"establishmentid":"4973","name":"Punch Bowl VIP","address":"1331 Broadway","zipcode":"48226"},{"establishmentid":"4667","name":"Bert's on Broadway DBA Rockefellers","address":"1315 Broadway","zipcode":"48226"},{"establishmentid":"3404","name":"Vicente's Cuban Cuisine","address":"1250 Library St","zipcode":"48226"},{"establishmentid":"4146","name":"CK Mediterranean Grille","address":"119 Monroe St","zipcode":"48226"},{"establishmentid":"3387","name":"Jimmy Johns","address":"95 Monroe St","zipcode":"48226"},{"establishmentid":"3269","name":"Orchid Thai","address":"115 Monroe St","zipcode":"48226"},{"establishmentid":"4631","name":"Cottage Inn Pizza","address":"107 Monroe St","zipcode":"48226"},{"establishmentid":"5337","name":"I Luv Cheese","address":"1368 Broadway","zipcode":"48226"},{"establishmentid":"5103","name":"Detroit Water Ice Factory ","address":"1014 Woodward Ave","zipcode":"48226"},{"establishmentid":"5327","name":"Detroit Water Ice Factory","address":"1014 Woodward Ave","zipcode":"48226"},{"establishmentid":"4321","name":"Texas De Brazil","address":"1000 Woodward Ave","zipcode":"48226"},{"establishmentid":"5226","name":"Calexico","address":"1040 Woodward Ave","zipcode":"48226"},{"establishmentid":"4427","name":"Steve's Detroit Deli","address":"212 E Grand River","zipcode":"48226"},{"establishmentid":"4844","name":"Centre Park Restaurant","address":"1407 Randolph","zipcode":"48226"},{"establishmentid":"4906","name":"Jose's Tacos, LLC","address":"218 E Grand River","zipcode":"48226"},{"establishmentid":"4106","name":"Detroit Seafood Market","address":"1435 Randolph","zipcode":"48226"}],"inspectionsByEstablishmentidList":[{"inspectionid":"43458","inspectionDate":"2018-09-11T00:00:00","inspectionType":"Routine Inspection","inCompliance":"No","violationsByInspectionidList":[{"violationCode":"3-301.11","violationDescription":"(A) To prevent food contamination FOOD EMPLOYEES shall properly wash their      hands.\r\n(B) FOOD EMPLOYEES may not contact exposed, READY-TO-EAT FOOD with      their bare hands and shall use suitable UTENSILS such as deli tissue,       spatulas, tongs, single-use gloves, or dispensing EQUIPMENT. (P)\r\n(C) FOOD EMPLOYEES shall minimize bare hand and arm contact with exposed     FOOD that is not in a READY-TO-EAT form. (Pf)\r\n\r\n","violationType":"Priority","itemDescription":"Ready-to-eat food(s)","subItem":"","problemDescription":"Handled with bare hands","subProblem":"","location":"BAR","subLocation":"At the Bar fruit garnish","corrected":"Yes","daysToCorrect":"10.0","correctedDate":"2018-09-11T00:00:00","correctionDescription":"Suitable utensils or single-use gloves are to be utilized."},{"violationCode":"5-205.11","violationDescription":"(A) A HANDWASHING SINK shall be maintained so that it is accessible at all times for EMPLOYEE use and used for no other purpose. (Pf)\r\n(B)  An automatic handwashing facility shall be used in accordance with manufacturer's instructions. (Pf)\r\n","violationType":"Foundation","itemDescription":"Handwashing sink(s)","subItem":"","problemDescription":"Not easily accessible","subProblem":"","location":"BAR","subLocation":"At the Handsink","corrected":"No","daysToCorrect":"10.0","correctedDate":null,"correctionDescription":null},{"violationCode":"5-501.17","violationDescription":"A toilet room used by females shall be provided with a covered receptacle for sanitary napkins.\r\n","violationType":"Core","itemDescription":"Covered waste receptacle(s)","subItem":"","problemDescription":"Not provided","subProblem":"","location":"RESTROOM(S)","subLocation":"In the Facility","corrected":"Not required","daysToCorrect":"30.0","correctedDate":null,"correctionDescription":"Provide as required"},{"violationCode":"MFL289.2129","violationDescription":"Sec. 2129. (1) All of the following food establishments shall employ a minimum of 1 managerial employee who is currently certified under a personnel certification program accredited by the American national standards institute, utilizing the conference for food protection standards:  (a) A food service establishment that is not any of the following:    (i) Operating under a temporary food service establishment license.  (ii) A vending machine location.     (b) An extended retail food establishment.  (c) Operated within a retail grocery.  (2) An individual certified under subsection (1) shall be recognized with full faith and credit by the state and all local units of government throughout the state.  (3) The department may promulgate rules to do all of the following:  (a) Develop requirements for retail food establishments to follow when employing certified food safety managers or personnel.  (b) Set a reasonable date for compliance with the requirements under subdivision (a) taking into consideration existing local personnel certification requirements.  (c) Establish certification fees necessary to implement, maintain, and track certified individuals directly or by contract. The department may annually adjust the schedule of fees to provide that the fee charged is sufficient to cover the cost of the certification tracking program.  (d) Implement and enforce the requirements described in subdivision (a).    (4) The certification program developed by the American national standards institute, as it exists on April 1, 2008 , is incorporated by reference. The department may adopt updates to the certification program accreditation standards in subsection (1) by rule.     (5) This section does not prohibit any local legislative body from implementing a food handler program, an employee health certification program, or a manager certification program, if it is not in conflict with this section.","violationType":"Core","itemDescription":"Person-in-charge","subItem":"","problemDescription":null,"subProblem":"","location":"ESTABLISHMENT","subLocation":"","corrected":"Not required","daysToCorrect":"30.0","correctedDate":null,"correctionDescription":null},{"violationCode":"3-304.14","violationDescription":"(A)  Cloths that are in use for wiping FOOD spills on TABLEWARE shall be maintained dry and used for no other purpose. \r\n(B)  Cloths in-use for wiping counters and equipment shall be held between uses in   a chemical sanitizer solution, and laundered daily.\r\n(C)  Cloths in-use for wiping surfaces in contact with raw animal FOODS shall be      kept separate from cloths used for other purposes.\r\n(D)  Dry wiping cloths and the chemical sanitizing solutions shall be free of FOOD    debris or visible soil.\r\n(E)  Containers of chemical sanitizing solutions shall be stored off the floor and         used in a manner that prevents contamination of FOOD, EQUIPMENT, UTENSILS, LINENS, SINGLE-SERVICE, or SINGLE-USE ARTICLES.\r\n(E)  SINGLE-USE disposable sanitizer wipes shall be used in accordance lable               instructions.\r\n","violationType":"Core","itemDescription":"Wiping cloth(s)","subItem":"wet","problemDescription":"Stored on","subProblem":"Counter","location":"BAR","subLocation":"At the Counter(s)","corrected":"Yes","daysToCorrect":"30.0","correctedDate":"2018-09-11T00:00:00","correctionDescription":"Store wiping cloths completely submersed in sanitizer."},{"violationCode":"6-301.14","violationDescription":"A sign or poster that notifies FOOD EMPLOYEES to wash their hands shall be provided at all HANDWASHING SINKS used by FOOD EMPLOYEES and shall be clearly visible to FOOD EMPLOYEES.\r\n","violationType":"Core","itemDescription":"Handwashing signage","subItem":"","problemDescription":"Not provided","subProblem":"At hand sink","location":"RESTROOM(S)","subLocation":"In the Facility","corrected":"Not required","daysToCorrect":"30.0","correctedDate":null,"correctionDescription":null},{"violationCode":"MFL289.4119","violationDescription":"Sec. 4119. (1) Except as otherwise provided in subsection (2), a person licensed as a food establishment under this chapter shall keep a copy of the current license or temporary license furnished by the department posted and exposed in a conspicuous place for public inspection. A conspicuous place is the principal place where food business is transacted.  (2) In the case of vending machines, the name and address and telephone number of the current vending machine location operator shall be conspicuously displayed on each vending machine.","violationType":"Core","itemDescription":"Food Service License","subItem":"","problemDescription":"Not displayed","subProblem":"","location":"ESTABLISHMENT","subLocation":"","corrected":"Not required","daysToCorrect":"30.0","correctedDate":null,"correctionDescription":null}]},{"inspectionid":"39589","inspectionDate":"2017-08-11T00:00:00","inspectionType":"Routine Inspection","inCompliance":"Yes","violationsByInspectionidList":[]}]}]}},"pageContext":{"eid":"5200"}}