{"data":{"site":{"pathPrefix":"/restaurant-inspections"},"postgres":{"establishment":[{"establishmentid":"5379","name":"Seven Days Fish & Grill Inc.","address":"15370 Grand River Ave","zipcode":"48227","owner":"Gasa Al-helali","licenseNumber":"218245","licenseType":"Fixed Establishment","establishmentType":"Food Service Establishment","establishmentStatus":"Open","riskCategory":null,"reviewFrequencyDays":"180.0","coords":"-83.19727,42.39263","geojson":{"id":"5379","type":"Feature","geometry":{"type":"Point","coordinates":[-83.197272248,42.392630023]},"properties":{"name":"Seven Days Fish & Grill Inc.","owner":"Gasa Al-helali","address":"15370 Grand River Ave","zipcode":"48227","license_type":"Fixed Establishment","risk_category":null,"license_number":"218245","establishmentid":"5379","establishment_type":"Food Service Establishment","establishment_status":"Open","review_frequency_days":"180.0","most_recent_license_date":"4/16/2018"}},"nearbyList":[{"establishmentid":"5051","name":"Seven Days Fish and Chicken Inc.","address":"15370 Grand River Ave","zipcode":"48227"},{"establishmentid":"5385","name":"Yum Yumz Snack Shack LLC","address":"15400 Grand River","zipcode":"48227"},{"establishmentid":"641","name":"Korner Coney Island ","address":"14253 Greenfield Rd","zipcode":"48227"},{"establishmentid":"358","name":"Great Wall","address":"14307 Greenfield Rd","zipcode":"48227"},{"establishmentid":"340","name":"Little Caesar's Pizza #59","address":"14301 Greenfield Rd","zipcode":"48227"},{"establishmentid":"4838","name":"Bread Basket Deli","address":"15603 Grand River Ave","zipcode":"48227"},{"establishmentid":"5229","name":"Big Star Fish & Seafood Inc.","address":"15540 Grand River","zipcode":"48227"},{"establishmentid":"2393","name":"Cosmos Coney Island","address":"14551 Greenfield Rd","zipcode":"48227"},{"establishmentid":"1463","name":"Rikshaw House","address":"14135 Greenfield Rd","zipcode":"48227"},{"establishmentid":"51622464","name":"Burger Grille LLC","address":"15539 Schoolcraft","zipcode":"48227"}],"inspectionsByEstablishmentidList":[{"inspectionid":"44418","inspectionDate":"2018-12-11T00:00:00","inspectionType":"Routine Inspection","inCompliance":"Yes","violationsByInspectionidList":[{"violationCode":"4-601.11","violationDescription":"(A) EQUIPMENT FOOD-CONTACT SURFACES and UTENSILS shall be clean to sight and touch. (Pf)\r\n(B) The FOOD-CONTACT SURFACES of cooking EQUIPMENT and pans shall be kept free of encrusted grease deposits and other soil accumulations. \r\n(C) NonFOOD-CONTACT SURFACES of EQUIPMENT shall be kept free of an accumulation of dust, dirt, FOOD residue, and other debris. \r\n","violationType":"Core","itemDescription":"Non-food contact surface(s)","subItem":"","problemDescription":"With accumulation of debris","subProblem":"","location":"HOOD","subLocation":"Ventilation hood","corrected":"Not required","daysToCorrect":"10.0","correctedDate":null,"correctionDescription":"Keep clean."},{"violationCode":"6-501.12","violationDescription":"(A) PHYSICAL FACILITIES shall be cleaned as often as necessary to keep them clean.\r\n(B) Except spill cleanup, cleaning shall be done during periods when the least amount of FOOD is exposed such as after closing. ","violationType":"Core","itemDescription":"Physical facilities/structures","subItem":"","problemDescription":"Not clean","subProblem":"","location":"FACILITY","subLocation":"","corrected":"Not required","daysToCorrect":"30.0","correctedDate":null,"correctionDescription":"Clean"}]},{"inspectionid":"42564","inspectionDate":"2018-06-12T00:00:00","inspectionType":"Routine Inspection","inCompliance":"Yes","violationsByInspectionidList":[{"violationCode":"7-204.11","violationDescription":"Chemical SANITIZERS and other chemical antimicrobials applied to FOOD-CONTACT SURFACES shall meet the requirements specified in this code. (P)\r\n","violationType":"Priority","itemDescription":"Sanitizer(s)","subItem":"","problemDescription":"Not approved for use","subProblem":"","location":"3 COMPARTMENT SINK AREA","subLocation":"","corrected":"Yes","daysToCorrect":"10.0","correctedDate":"2018-06-12T00:00:00","correctionDescription":"Discontinue use."}]},{"inspectionid":"40900","inspectionDate":"2017-11-22T00:00:00","inspectionType":"Routine Inspection","inCompliance":"Yes","violationsByInspectionidList":[]}]}]}},"pageContext":{"eid":"5379"}}