{"data":{"site":{"pathPrefix":"/restaurant-inspections"},"postgres":{"establishment":[{"establishmentid":"316","name":"Cesar Chavez Academy Elementary","address":"8126 W Vernor","zipcode":"48209","owner":"Leona Group","licenseNumber":"238010","licenseType":"Fixed Establishment","establishmentType":"Non-Public School","establishmentStatus":"Open","riskCategory":null,"reviewFrequencyDays":"210","coords":"-83.12934,42.31105","geojson":{"id":"316","type":"Feature","geometry":{"type":"Point","coordinates":[-83.129344633,42.311053772]},"properties":{"name":"Cesar Chavez Academy Elementary","owner":"Leona Group","address":"8126 W Vernor","zipcode":"48209","license_type":"Fixed Establishment","risk_category":null,"license_number":"238010","establishmentid":"316","establishment_type":"Non-Public School","establishment_status":"Open","review_frequency_days":"210","most_recent_license_date":"5/15/2020"}},"nearbyList":[{"establishmentid":"5082","name":"El Caribeno","address":"8065 W Vernor","zipcode":"48209"},{"establishmentid":"51622935","name":"Taqueria Y Cenaduria Triangulo Dorado","address":"8065 W Vernor","zipcode":"48209"},{"establishmentid":"211","name":"La Terraza","address":"8445 W Vernor","zipcode":"48209"},{"establishmentid":"1730","name":"Great Panda Garden Chinese Restaurant","address":"7930 W Vernor","zipcode":"48209"},{"establishmentid":"926","name":"Bennett Elementary","address":"2111 Mullane St","zipcode":"48209"},{"establishmentid":"305","name":"Matrix Head Start-Manuel Reyes","address":"8500 W Vernor","zipcode":"48209"},{"establishmentid":"5173","name":"El Salpicon","address":"8600 W Vernor","zipcode":"48209"},{"establishmentid":"51622723","name":"Vitamin Juice ","address":"2030 Springwells St","zipcode":"48209"},{"establishmentid":"4571","name":"WAY Academy","address":"8701 W Vernor","zipcode":"48209"},{"establishmentid":"768","name":"Family Treat","address":"2010 Springwells Ave","zipcode":"48209"}],"inspectionsByEstablishmentidList":[{"inspectionid":"49267","inspectionDate":"2019-09-25T00:00:00","inspectionType":"Routine Inspection","inCompliance":"Yes","violationsByInspectionidList":[{"violationCode":"4-904.14","violationDescription":"After being cleaned and SANITIZED, EQUIPMENT and UTENSILS shall not be rinsed before air drying or use unless:    \r\n(A) The rinse is applied directly from a potable water supply by a warewashing machine that is maintained and operated as specified under Subparts 4-204 and 4-501; and   \r\n(B) The rinse is applied only after the EQUIPMENT and UTENSILS have been SANITIZED by the application of hot water or by the application of a chemical SANITIZER solution whose EPA-registered label use instructions call for rinsing off the SANITIZER after it is applied in a commercial WAREWASHING machine.","violationType":"Core","itemDescription":null,"subItem":"","problemDescription":null,"subProblem":"","location":"3 COMPARTMENT SINK AREA","subLocation":"SANITIZING","corrected":"Yes","daysToCorrect":"30","correctedDate":"2019-09-25T00:00:00","correctionDescription":null}]},{"inspectionid":"44284","inspectionDate":"2018-11-27T00:00:00","inspectionType":"Routine Inspection","inCompliance":"Yes","violationsByInspectionidList":[{"violationCode":"3-202.15","violationDescription":"FOOD packages shall be in good condition and protect the integrity of the contents so that the FOOD is not exposed to ADULTERATION or potential contaminants. (Pf)\r\n","violationType":"Foundation","itemDescription":"Food package(s)","subItem":"","problemDescription":"Dented, dented on seam or swollen","subProblem":"","location":"KITCHEN","subLocation":"On the Shelf","corrected":"Yes","daysToCorrect":"10","correctedDate":"2018-11-27T00:00:00","correctionDescription":"Discard."}]}]}],"maxInspectionDate":[{"inspectionDate":"2020-10-30T00:00:00"}]}},"pageContext":{"eid":"316"}}