{"componentChunkName":"component---src-templates-establishment-page-js","path":"/establishment/766","result":{"data":{"site":{"pathPrefix":"/restaurant-inspections"},"postgres":{"establishment":[{"establishmentid":"766","name":"Akbar's Coffee Shop","address":"12943 Fenkell Ave.","zipcode":"48227","owner":"Catherine Ivory","licenseNumber":"034779","licenseType":"Fixed Establishment","establishmentType":"Food Service Establishment","establishmentStatus":"Open","riskCategory":null,"reviewFrequencyDays":"150","coords":"-83.17241,42.40199","geojson":{"id":"766","type":"Feature","geometry":{"type":"Point","coordinates":[-83.172413908,42.401990148]},"properties":{"name":"Akbar's Coffee Shop","owner":"Catherine Ivory","address":"12943 Fenkell Ave.","zipcode":"48227","license_type":"Fixed Establishment","risk_category":null,"license_number":"034779","establishmentid":"766","establishment_type":"Food Service Establishment","establishment_status":"Open","review_frequency_days":"150","most_recent_license_date":"17/5/2017"}},"nearbyList":[{"establishmentid":"1040","name":"Bethune Academy","address":"13001 Fenkell","zipcode":"48227"},{"establishmentid":"1366","name":"Little Caesar's Pizza #64","address":"12712 Fenkell Ave.","zipcode":"48227"},{"establishmentid":"4133","name":"Winky Dinky Hot Dogs","address":"14891 Appoline St.","zipcode":"48227"},{"establishmentid":"1038","name":"Bethune Academy at Guest Middle School","address":"10825 Fenkell","zipcode":"48238"},{"establishmentid":"4914","name":"Loyola High School Detroit","address":"15325 Pinehurst","zipcode":"48238"},{"establishmentid":"1214","name":"Church's Fried Chicken #964","address":"13531 Fenkell Ave.","zipcode":"48227"},{"establishmentid":"3948","name":"24 Karat","address":"15070 Schaefer","zipcode":"48227"},{"establishmentid":"1677","name":"Modern Vending","address":"12800 Lyndon","zipcode":"48227"},{"establishmentid":"4603","name":"Modern Vending","address":"12800 Lyndon","zipcode":"48227"},{"establishmentid":"4118","name":"Mrs. Alberta's","address":"15090 Schaefer Ave.","zipcode":"48227"}],"inspectionsByEstablishmentidList":[{"inspectionid":"37082","inspectionDate":"2016-11-09T00:00:00","inspectionType":"Routine Inspection","inCompliance":"No","violationsByInspectionidList":[{"violationCode":"6-301.12","violationDescription":"Each HANDWASHING SINK or group of adjacent HANDWASHING SINKS shall be provided with:\n(A) Individual, disposable towels; (Pf)\n(B) A continuous towel system that supplies the user with a clean towel;(Pf) or \n(C) A heated-air hand drying device.(Pf)\n(D) A hand drying device that employs an air-knife system that delivers high velocity pressurized air at ambient temperatures.(Pf)\n","violationType":"Foundation","itemDescription":"Sanitary hand drying provisions","subItem":"","problemDescription":"Not provided","subProblem":"At hand sink","location":"HANDSINK(S)","subLocation":"","corrected":"False","daysToCorrect":"10","correctedDate":null,"correctionDescription":"Provide"},{"violationCode":"6-301.11","violationDescription":"Each HANDWASHING SINK or group of 2 adjacent HANDWASHING SINKS shall be provided with a supply of hand cleaning liquid, powder, or bar soap. (Pf)\n","violationType":"Foundation","itemDescription":"Soap","subItem":"","problemDescription":"Not provided","subProblem":"","location":"HANDSINK(S)","subLocation":"","corrected":"False","daysToCorrect":"10","correctedDate":null,"correctionDescription":"Provide."},{"violationCode":"3-305.11","violationDescription":"FOOD shall be protected from contamination by storing the FOOD:\n(1)     In a clean, dry location;\n(2)     Where it is not exposed to splash, dust, or other contamination; and\n(3)     At least 15 cm (6 inches) above the floor, unless otherwise approved.\n","violationType":"Core","itemDescription":"Food item(s) in storage","subItem":"","problemDescription":"Stored on floor or less than 6 inches above floor","subProblem":"","location":"STORAGE AREA (DRY)","subLocation":"","corrected":"False","daysToCorrect":"30","correctedDate":null,"correctionDescription":"Store at least 6 inches above the floor."},{"violationCode":"3-601.12","violationDescription":"(A) FOOD shall be offered for human consumption in a way that does not mislead or misinform the CONSUMER.   \n(B) FOOD or COLOR ADDITIVES, colored overwraps, or lights may not be used to misrepresent the true appearance, color, or quality of a FOOD.\n","violationType":"Core","itemDescription":"Misrepresentation of food(s)","subItem":"","problemDescription":"By service that","subProblem":"Misinforms consumer","location":"COOLER","subLocation":"","corrected":"True","daysToCorrect":"30","correctedDate":"2011-01-09T00:00:00","correctionDescription":"Discontinue."},{"violationCode":"3-501.13","violationDescription":"POTENTIALLY HAZARDOUS FOOD (TIME/TEMPERATURE CONTROL FOR SAFETY FOOD)  shall be thawed:  Under refrigeration, or under cool running water (<70° F), or as part of cooking process, and total accumulated time above 41° F, for thawed portions, shall not exceed 4 hours.  Any thawing procedure may be used for immediate service for individual consumers order of READY-TO-EAT foods.\n","violationType":"Core","itemDescription":"Frozen food(s) for thawing","subItem":"","problemDescription":"Stored in water","subProblem":"That is standing","location":"KITCHEN","subLocation":"","corrected":"False","daysToCorrect":"30","correctedDate":null,"correctionDescription":"Use cool, running water with enough flow to remove particles."}]}]}],"maxInspectionDate":[{"inspectionDate":"2023-04-13T00:00:00"}]}},"pageContext":{"eid":"766"}},"staticQueryHashes":["3649515864","63159454"]}