{"data":{"postgres":{"establishment":[{"establishmentid":"1995","name":"Little Caesar's Pizza #168","address":"19116 Grand River Ave","zipcode":"48223","owner":"Little Caesar Enterprises, Inc","licenseNumber":"039210","licenseType":"Fixed Establishment","establishmentType":"Food Service Establishment","establishmentStatus":"Open","riskCategory":null,"reviewFrequencyDays":"365.0","coords":"-83.22907,42.40536","geojson":{"id":"1995","type":"Feature","geometry":{"type":"Point","coordinates":[-83.2290699979999,42.4053582550001]},"properties":{"name":"Little Caesar's Pizza #168","owner":"Little Caesar Enterprises, Inc","address":"19116 Grand River Ave","zipcode":"48223","license_type":"Fixed Establishment","risk_category":null,"license_number":"039210","establishmentid":"1995","establishment_type":"Food Service Establishment","establishment_status":"Open","review_frequency_days":"365.0","most_recent_license_date":"4/27/2018"}},"nearbyList":[{"establishmentid":"4612","name":"Town Hall Caffe","address":"19180 Grand River Ave","zipcode":"48223"},{"establishmentid":"1514","name":"Elias Donuts","address":"19231 Grand River Ave","zipcode":"48223"},{"establishmentid":"904","name":"Cooke Elementary","address":"18800 Puritan ","zipcode":"48219"},{"establishmentid":"601","name":"North Rosedale Community House","address":"18445 Scarsdale St","zipcode":"48223"},{"establishmentid":"1562","name":"Panda Chinese Restaurant","address":"18614 Fenkell Ave","zipcode":"48223"},{"establishmentid":"2669","name":"Fish Express","address":"18509 Grand River Ave","zipcode":"48223"},{"establishmentid":"5420","name":"La Kabob Grill ","address":"18616 Fenkell","zipcode":"48223"},{"establishmentid":"2344","name":"Auntie Betty's Cafe","address":"19601 Grand River Ave","zipcode":"48223"},{"establishmentid":"5412","name":"Detroit Vegan Soul","address":"19614 Grand River Ave","zipcode":"48223"},{"establishmentid":"51622571","name":"River Bistro Detroit","address":"18456 Grand River Ave","zipcode":"48223"},{"establishmentid":"5237","name":"Metro Fish & Seafood LLC","address":"18440 Grand River","zipcode":"48223"},{"establishmentid":"2045","name":"McDonald's #567","address":"18403 Grand River Ave","zipcode":"48223"},{"establishmentid":"2345","name":"Subway #11686/Mama Delucas","address":"18288 Grand River Ave","zipcode":"48223"},{"establishmentid":"5417","name":"Brooklyn Fish and Chicken","address":"18354 Fenkell Ave","zipcode":"48223"},{"establishmentid":"4455","name":"Just a Bit Eclectic","address":"19015 W McNichols Rd","zipcode":"48219"},{"establishmentid":"4929","name":"Urban Elixirs Juice Bar","address":"19335 W McNichols Rd","zipcode":"48219"},{"establishmentid":"787","name":"Omega Grill","address":"18130 Fenkell Ave","zipcode":"48223"},{"establishmentid":"1373","name":"Burger King ","address":"20200 Grand River Ave","zipcode":"48219"},{"establishmentid":"1958","name":"Hollywood Coney Island","address":"20240 Grand River Ave","zipcode":"48219"},{"establishmentid":"1093","name":"Church's Fried Chicken #456","address":"19741 W McNichols Rd","zipcode":"48219"}],"inspectionsByEstablishmentidList":[{"inspectionid":"41903","inspectionDate":"2018-03-14T00:00:00","inspectionType":"Routine Inspection","inCompliance":"No","violationsByInspectionidList":[{"violationCode":"4-302.14","violationDescription":"A test kit or other device that accurately measures the concentration in mg/L of SANITIZING solutions shall be provided. (Pf)\r\n","violationType":"Foundation","itemDescription":"Sanitizer test kit","subItem":"quaternary ammonia","problemDescription":"Damaged","subProblem":"","location":"KITCHEN","subLocation":"","corrected":"No","daysToCorrect":"10.0","correctedDate":null,"correctionDescription":"Replace."},{"violationCode":"4-501.11","violationDescription":"EQUIPMENT shall be maintained in a state of repair and condition that meets the requirements of the code.\r\n","violationType":"Core","itemDescription":"Equipment","subItem":"","problemDescription":"Broken","subProblem":"","location":"HANDSINK(S)","subLocation":"","corrected":"Not required","daysToCorrect":"30.0","correctedDate":null,"correctionDescription":"Repair/replace."}]},{"inspectionid":"38324","inspectionDate":"2017-03-22T00:00:00","inspectionType":"Routine Inspection","inCompliance":"Yes","violationsByInspectionidList":[{"violationCode":"5-205.15","violationDescription":"A PLUMBING SYSTEM shall be:\r\n(A) Repaired according to LAW; (P) and\r\n(B) Maintained in good repair.\r\n","violationType":"Core","itemDescription":"Plumbing system","subItem":"water line(s)","problemDescription":"Not maintained","subProblem":"","location":"HANDSINK(S)","subLocation":"","corrected":"Not required","daysToCorrect":"10.0","correctedDate":null,"correctionDescription":"Maintain in good repair"}]}]}]}},"pageContext":{"eid":"1995"}}