{"data":{"site":{"pathPrefix":"/restaurant-inspections"},"postgres":{"establishment":[{"establishmentid":"51622595","name":"The Wurlitzer MT DBA Candy Bar","address":"1509 Broadway St","zipcode":"48226","owner":"HM Ventures 6","licenseNumber":"229302","licenseType":"Fixed Establishment","establishmentType":"Food Service Establishment","establishmentStatus":"Open","riskCategory":"Medium","reviewFrequencyDays":"365.0","coords":"-83.04865,42.33570","geojson":{"id":"51622595","type":"Feature","geometry":{"type":"Point","coordinates":[-83.048646503,42.335696301]},"properties":{"name":"The Wurlitzer MT DBA Candy Bar","owner":"HM Ventures 6","address":"1509 Broadway St","zipcode":"48226","license_type":"Fixed Establishment","risk_category":"Medium","license_number":"229302","establishmentid":"51622595","establishment_type":"Food Service Establishment","establishment_status":"Open","review_frequency_days":"365.0","most_recent_license_date":"3/1/2018"}},"nearbyList":[{"establishmentid":"51622592","name":"1509 Populace LLC","address":"1509 Broadway St","zipcode":"48226"},{"establishmentid":"51622594","name":"Albena- Taste Everything LLC","address":"1509 Broadway St","zipcode":"48226"},{"establishmentid":"4373","name":"Small Plates LLC","address":"1521 Broadway St","zipcode":"48226"},{"establishmentid":"2614","name":"Detroit Beer Co.","address":"1529 Broadway St","zipcode":"48226"},{"establishmentid":"51622878","name":"Element Detroit at the Metropolitan 1A","address":"33 John R Ave","zipcode":"48226"},{"establishmentid":"1680","name":"Michigan Opera Theater","address":"1526 Broadway St","zipcode":"48226"},{"establishmentid":"4843","name":"Wright & Co.","address":"1500 Woodward Ave","zipcode":"48226"},{"establishmentid":"4957","name":"Cornerstone Barrel House","address":"1456 Woodward Ave","zipcode":"48226"},{"establishmentid":"4364","name":"Bleu Detroit","address":"1540 Woodward Ave","zipcode":"48226"},{"establishmentid":"3706","name":"Angelina Italian Bistro","address":"1565 Broadway","zipcode":"48226"}],"inspectionsByEstablishmentidList":[{"inspectionid":"45720","inspectionDate":"2019-03-28T00:00:00","inspectionType":"Routine Inspection","inCompliance":"Yes","violationsByInspectionidList":[{"violationCode":"4-501.114","violationDescription":"A chemical SANITIZER used in a SANITIZING solution for a manual or\r\nmechanical operation shall meet these limits or as otherwise approved: (P)\r\n\tChlorine        ppm           pH<10             pH<8\r\n\t\t      25              120 F              120 F\r\n\t\t      50              100 F              75 F\r\n\t\t     100              55 F               55 F\r\n                 Iodine           a concentration of between 12.5 and 25 ppm and minimum temp of 75 F and pH of 5 or less or meets manufacturer's specifications. (P)\r\n\r\n                Quats            minimum temperature of 75 F, hardness of 500 ppm or less and meet manufacturers use directions. (P)\r\n","violationType":"Priority","itemDescription":"Chlorine solution concentration","subItem":"","problemDescription":"Below 25 ppm","subProblem":"","location":"BAR","subLocation":"At the GLASS WASHER","corrected":"Yes","daysToCorrect":"10.0","correctedDate":"2019-03-28T00:00:00","correctionDescription":null},{"violationCode":"3-301.11","violationDescription":"(A) To prevent food contamination FOOD EMPLOYEES shall properly wash their      hands.\r\n(B) FOOD EMPLOYEES may not contact exposed, READY-TO-EAT FOOD with      their bare hands and shall use suitable UTENSILS such as deli tissue,       spatulas, tongs, single-use gloves, or dispensing EQUIPMENT. (P)\r\n(C) FOOD EMPLOYEES shall minimize bare hand and arm contact with exposed     FOOD that is not in a READY-TO-EAT form. (Pf)\r\n\r\n","violationType":"Priority","itemDescription":"Ready-to-eat food(s)","subItem":"","problemDescription":"Handled with bare hands","subProblem":"","location":"BAR","subLocation":"","corrected":"Yes","daysToCorrect":"10.0","correctedDate":"2019-03-28T00:00:00","correctionDescription":null}]},{"inspectionid":"41614","inspectionDate":"2018-02-28T00:00:00","inspectionType":"Preopening/New","inCompliance":"Yes","violationsByInspectionidList":[{"violationCode":"5-402.11","violationDescription":"Except as otherwise allowed, a direct connection may not exist between the SEWAGE system and a drain originating from EQUIPMENT in which FOOD, portable EQUIPMENT, or UTENSILS are placed. (P)\r\n","violationType":"Priority","itemDescription":"Backflow/backsiphonage prevention device(s)","subItem":"Air gap","problemDescription":"Not provided on","subProblem":"Ice holding bin","location":"BAR","subLocation":"AIR GAP","corrected":"Yes","daysToCorrect":"10.0","correctedDate":"2018-03-01T00:00:00","correctionDescription":"Provide adequate air gap."}]}]}],"maxInspectionDate":[{"inspectionDate":"2019-03-31T00:00:00"}]}},"pageContext":{"eid":"51622595"}}