{"data":{"postgres":{"establishment":[{"establishmentid":"5178","name":"Great Lakes Burger Bar","address":"18200 W McNichols","zipcode":"48219","owner":"Great Lakes Burger Bar","licenseNumber":"082854","licenseType":"Fixed Establishment","establishmentType":"Food Service Establishment","establishmentStatus":null,"riskCategory":null,"reviewFrequencyDays":"180.0","coords":"-83.22029,42.41573","geojson":{"id":"5178","type":"Feature","geometry":{"type":"Point","coordinates":[-83.220286678,42.41572545]},"properties":{"name":"Great Lakes Burger Bar","owner":"Great Lakes Burger Bar","address":"18200 W McNichols","zipcode":"48219","license_type":"Fixed Establishment","risk_category":null,"license_number":"082854","establishmentid":"5178","establishment_type":"Food Service Establishment","establishment_status":null,"review_frequency_days":"180.0","most_recent_license_date":null}},"nearbyList":[{"establishmentid":"5238","name":"Mr. C Fish Market Inc.","address":"18203 W McNichols","zipcode":"48219"},{"establishmentid":"4959","name":"Cheng's Garden","address":"18205 W McNichols Rd","zipcode":"48219"},{"establishmentid":"4924","name":"Cornerstone Health & Tech High School","address":"17351 Southfield Rd","zipcode":"48235"},{"establishmentid":"2366","name":"Old Redford Academy Prep. High School","address":"8001 W Outer Dr","zipcode":"48235"},{"establishmentid":"4442","name":"Mr. B's Soul Food","address":"17600 W McNichols Rd","zipcode":"48235"},{"establishmentid":"5015","name":"Mr. B's Soul Food Truck #1","address":"17600 W McNichols","zipcode":"48235"},{"establishmentid":"5016","name":"Mr. B's Soul Food Truck #2","address":"17600 W McNichols","zipcode":"48235"},{"establishmentid":"2464","name":"Subway #24532","address":"7950 W Outer Dr","zipcode":"48235"},{"establishmentid":"3798","name":"Subway ","address":"8200 W Outer Dr","zipcode":"48235"},{"establishmentid":"5077","name":"Pasta Bowl","address":"17301 W McNichols Rd","zipcode":"48235"},{"establishmentid":"4455","name":"Just a Bit Eclectic","address":"19015 W McNichols Rd","zipcode":"48219"},{"establishmentid":"51622633","name":"Fellowship Chapel","address":"7707 W Outer Drive","zipcode":"48235"},{"establishmentid":"904","name":"Cooke Elementary","address":"18800 Puritan ","zipcode":"48219"},{"establishmentid":"601","name":"North Rosedale Community House","address":"18445 Scarsdale St","zipcode":"48223"},{"establishmentid":"4435","name":"Spud Headz","address":"16400 W McNichols Rd","zipcode":"48235"},{"establishmentid":"1131","name":"Clara Rutherford/Winans Academy","address":"16411 Curtis Ave","zipcode":"48235"},{"establishmentid":"4929","name":"Urban Elixirs Juice Bar","address":"19335 W McNichols Rd","zipcode":"48219"},{"establishmentid":"51622571","name":"River Bistro Detroit","address":"18456 Grand River Ave","zipcode":"48223"},{"establishmentid":"5237","name":"Metro Fish & Seafood LLC","address":"18440 Grand River","zipcode":"48223"},{"establishmentid":"1995","name":"Little Caesar's Pizza #168","address":"19116 Grand River Ave","zipcode":"48223"}],"inspectionsByEstablishmentidList":[{"inspectionid":"39123","inspectionDate":"2017-06-29T00:00:00","inspectionType":"Routine Inspection","inCompliance":"Yes","violationsByInspectionidList":[{"violationCode":"3-501.16","violationDescription":"Except during preparation, cooking, or cooling, or when time is used as the public health control POTENTIALLY HAZARDOUS FOOD (TIME/TEMPERATURE CONTROL FOR SAFETY FOOD) shall be maintained:\r\n(A)  135ºF or above, except that roasts properly cooked and cooled may be held              at a temperature of 130ºF; or (P)\r\n(B)   At 41ºF or less (P)\r\n","violationType":"Priority","itemDescription":"Cold food item(s)","subItem":"","problemDescription":"Stored above 41 degrees F","subProblem":"","location":"KITCHEN","subLocation":"","corrected":"Yes","daysToCorrect":"10.0","correctedDate":"2017-06-29T00:00:00","correctionDescription":"Store below 41 degrees F."},{"violationCode":"6-302.11","violationDescription":"A supply of toilet tissue shall be available at each toilet.(Pf)\r\n","violationType":"Foundation","itemDescription":"Toilet paper","subItem":"at toilet in restroom employee","problemDescription":"Not provided","subProblem":"","location":"RESTROOM(S)","subLocation":"","corrected":"Yes","daysToCorrect":"10.0","correctedDate":"2017-06-29T00:00:00","correctionDescription":"Provide."},{"violationCode":"MFL289.2129","violationDescription":"Sec. 2129. (1) All of the following food establishments shall employ a minimum of 1 managerial employee who is currently certified under a personnel certification program accredited by the American national standards institute, utilizing the conference for food protection standards:  (a) A food service establishment that is not any of the following:    (i) Operating under a temporary food service establishment license.  (ii) A vending machine location.     (b) An extended retail food establishment.  (c) Operated within a retail grocery.  (2) An individual certified under subsection (1) shall be recognized with full faith and credit by the state and all local units of government throughout the state.  (3) The department may promulgate rules to do all of the following:  (a) Develop requirements for retail food establishments to follow when employing certified food safety managers or personnel.  (b) Set a reasonable date for compliance with the requirements under subdivision (a) taking into consideration existing local personnel certification requirements.  (c) Establish certification fees necessary to implement, maintain, and track certified individuals directly or by contract. The department may annually adjust the schedule of fees to provide that the fee charged is sufficient to cover the cost of the certification tracking program.  (d) Implement and enforce the requirements described in subdivision (a).    (4) The certification program developed by the American national standards institute, as it exists on April 1, 2008 , is incorporated by reference. The department may adopt updates to the certification program accreditation standards in subsection (1) by rule.     (5) This section does not prohibit any local legislative body from implementing a food handler program, an employee health certification program, or a manager certification program, if it is not in conflict with this section.","violationType":"Core","itemDescription":"Person-in-charge","subItem":"","problemDescription":null,"subProblem":"","location":"PERSON IN CHARGE","subLocation":"","corrected":"Not required","daysToCorrect":"30.0","correctedDate":null,"correctionDescription":null}]},{"inspectionid":"37480","inspectionDate":"2016-12-19T00:00:00","inspectionType":"Routine Inspection","inCompliance":"Yes","violationsByInspectionidList":[{"violationCode":"3-302.11","violationDescription":"(A) FOOD shall be protected from cross contamination by:  \r\n(1) Except as specified in (1)(c) below, separating raw animal FOODS during         storage, preparation, holding, and display from:\r\n(a) Raw READY-TO-EAT FOOD including other raw animal FOOD such as FISH for sushi or MOLLUSCAN SHELLFISH, or other raw READY-TO-EAT FOOD such as fruits and vegetables,(P) and\r\n(b) Cooked READY-TO-EAT FOOD; (P)\r\n(c) Frozen, commercially processed and packaged raw animal FOOD may be          stored or displayed with or above frozen, commercially processed and           packaged, ready-to-eat food.\r\n(2) Except when combined as ingredients, separating types of raw animal FOODS    from each other such as beef, FISH, lamb, pork, and POULTRY during storage,        preparation, holding, and display by:\r\n(a) Using separate EQUIPMENT for each type, (P) or\r\n(b) Arranging each type of FOOD in EQUIPMENT so that cross contamination of one type with another is prevented, (P) and\r\n(c) Preparing each type of FOOD at different times or in separate areas; (P)\r\n","violationType":"Priority","itemDescription":"Raw animal food(s)","subItem":"","problemDescription":"Stored over/next to","subProblem":"Raw ready-to-eat food(s) Vegetable(s)","location":"WALK-IN COOLER","subLocation":"","corrected":"Yes","daysToCorrect":"10.0","correctedDate":"2016-12-19T00:00:00","correctionDescription":"Store unwashed fruits/vegetables below and away from foods needing little or no further prep."},{"violationCode":"3-501.16","violationDescription":"Except during preparation, cooking, or cooling, or when time is used as the public health control POTENTIALLY HAZARDOUS FOOD (TIME/TEMPERATURE CONTROL FOR SAFETY FOOD) shall be maintained:\r\n(A)  135ºF or above, except that roasts properly cooked and cooled may be held              at a temperature of 130ºF; or (P)\r\n(B)   At 41ºF or less (P)\r\n","violationType":"Priority","itemDescription":"Cold food item(s)","subItem":"","problemDescription":"Stored above 41 degrees F","subProblem":"","location":"KITCHEN","subLocation":"","corrected":"Yes","daysToCorrect":"10.0","correctedDate":"2016-12-19T00:00:00","correctionDescription":"Discard"}]}]}]}},"pageContext":{"eid":"5178"}}