{"data":{"site":{"pathPrefix":"/restaurant-inspections"},"postgres":{"establishment":[{"establishmentid":"483","name":"Dakota Inn Inc","address":"17324 John R St","zipcode":"48203","owner":"Karl E Kurz","licenseNumber":"034284","licenseType":"Fixed Establishment","establishmentType":"Food Service Establishment","establishmentStatus":"Open","riskCategory":null,"reviewFrequencyDays":"365","coords":"-83.10163,42.41993","geojson":{"id":"483","type":"Feature","geometry":{"type":"Point","coordinates":[-83.10162811,42.419931372]},"properties":{"name":"Dakota Inn Inc","owner":"Karl E Kurz","address":"17324 John R St","zipcode":"48203","license_type":"Fixed Establishment","risk_category":null,"license_number":"034284","establishmentid":"483","establishment_type":"Food Service Establishment","establishment_status":"Open","review_frequency_days":"365","most_recent_license_date":null}},"nearbyList":[{"establishmentid":"700","name":"La Dolce Vita","address":"17546 Woodward Ave","zipcode":"48203"},{"establishmentid":"5211","name":"Sun Sun","address":"230 W McNichols Rd","zipcode":"48203"},{"establishmentid":"2718","name":"Bread Basket Wholesale","address":"17740 Woodward Ave ","zipcode":"48203"},{"establishmentid":"1360","name":"Motor City Coney Island","address":"831 E McNichols Rd","zipcode":"48203"},{"establishmentid":"1899","name":"Inuendo","address":"744 Savannah Street","zipcode":"48203"},{"establishmentid":"51622469","name":"Detroit One Coney Island","address":"5 W Seven Mile Rd","zipcode":"48203"},{"establishmentid":"1087","name":"Menjo's","address":"928 W McNichols Rd","zipcode":"48203"},{"establishmentid":"2742","name":"Golden Gate Cafe","address":"18700 Woodward Ave","zipcode":"48203"},{"establishmentid":"1122","name":"Greenfield Union Annex","address":"19150 Blake St","zipcode":"48238"},{"establishmentid":"3191","name":"Sullaf Restaurant","address":"814 W Seven Mile Rd","zipcode":"48203"}],"inspectionsByEstablishmentidList":[{"inspectionid":"53225","inspectionDate":"2020-10-28T00:00:00","inspectionType":"Routine Inspection","inCompliance":"No","violationsByInspectionidList":[{"violationCode":"3-501.17","violationDescription":"(A)  READY-TO-EAT, POTENTIALLY HAZARDOUS FOOD (TIME/TEMPERATURE CONTROL FOR SAFETY FOOD)  prepared and held refrigerated for more than 24 hours in a FOOD ESTABLISHMENT  shall be clearly marked at the time of preparation to indicate the date or day by which the FOOD shall be consumed. (Pf)\r\n(B)  A container of refrigerated, commercially prepared READY-TO-EAT POTENTIALLY HAZARDOUS FOOD (TIME/TEMPERATURE CONTROL FOR SAFETY FOOD)  shall be clearly marked, at the time the original container is opened in a FOOD ESTABLISHMENT, to indicate the date or day by which the FOOD shall be consumed. (Pf)\r\n\r\nA date marking system that does not exceed 7 days, including date of preparation, or opening is to be used. (Pf)\r\n","violationType":"Foundation","itemDescription":"In house prepared ready-to-eat potentially hazardous  food(s)","subItem":"","problemDescription":"Without date of consumption marking","subProblem":"","location":"COOLER","subLocation":"","corrected":"No","daysToCorrect":"10","correctedDate":null,"correctionDescription":null}]},{"inspectionid":"49325","inspectionDate":"2019-10-03T00:00:00","inspectionType":"Routine Inspection","inCompliance":"Yes","violationsByInspectionidList":[{"violationCode":"4-601.11","violationDescription":"(A) EQUIPMENT FOOD-CONTACT SURFACES and UTENSILS shall be clean to sight and touch. (Pf)\r\n(B) The FOOD-CONTACT SURFACES of cooking EQUIPMENT and pans shall be kept free of encrusted grease deposits and other soil accumulations. \r\n(C) NonFOOD-CONTACT SURFACES of EQUIPMENT shall be kept free of an accumulation of dust, dirt, FOOD residue, and other debris. \r\n","violationType":"Foundation","itemDescription":null,"subItem":"","problemDescription":null,"subProblem":"","location":"BASEMENT PREP ROOM","subLocation":"At the Can opener","corrected":"Yes","daysToCorrect":"10","correctedDate":"2019-10-03T00:00:00","correctionDescription":null}]},{"inspectionid":"43400","inspectionDate":"2018-09-13T00:00:00","inspectionType":"Routine Inspection","inCompliance":"Yes","violationsByInspectionidList":[{"violationCode":"7-204.11","violationDescription":"Chemical SANITIZERS and other chemical antimicrobials applied to FOOD-CONTACT SURFACES shall meet the requirements specified in this code. (P)\r\n","violationType":"Priority","itemDescription":"Sanitizer(s)","subItem":"","problemDescription":"Do not comply with law","subProblem":"","location":"RESTAURANT","subLocation":"At the Bleach","corrected":"Yes","daysToCorrect":"10","correctedDate":"2018-09-19T00:00:00","correctionDescription":"Provide labels that comply with law."},{"violationCode":"4-602.12","violationDescription":"(A) The FOOD-CONTACT SURFACES of cooking and baking EQUIPMENT shall be cleaned at least every 24 hours. This section does not apply to hot oil cooking and filtering EQUIPMENT if it is cleaned as specified in Subparagraph 4-602.11(D)(6).   \r\n(B) The cavities and door seals of microwave ovens shall be cleaned at least every 24 hours by using the manufacturer's recommended cleaning procedure.","violationType":"Core","itemDescription":"Microwave oven door seals and cavities","subItem":"","problemDescription":"Not cleaned","subProblem":"","location":"KITCHEN","subLocation":"Inside the Microwave Oven(s)","corrected":"Not required","daysToCorrect":"30","correctedDate":null,"correctionDescription":"Clean as required above."}]}]}],"maxInspectionDate":[{"inspectionDate":"2020-10-30T00:00:00"}]}},"pageContext":{"eid":"483"}}