{"data":{"site":{"pathPrefix":"/restaurant-inspections"},"postgres":{"establishment":[{"establishmentid":"51622545","name":"Little Caesars Arena- Central Suite Kitc","address":"2645 Woodward Avenue","zipcode":"48201","owner":"Detroit District Sportservice","licenseNumber":"AA052517","licenseType":"Fixed Establishment","establishmentType":"Food Service Establishment","establishmentStatus":"Open","riskCategory":"High","reviewFrequencyDays":"180.0","coords":"-83.05481,42.34195","geojson":{"id":"51622545","type":"Feature","geometry":{"type":"Point","coordinates":[-83.054812494,42.341946353]},"properties":{"name":"Little Caesars Arena- Central Suite Kitc","owner":"Detroit District Sportservice","address":"2645 Woodward Avenue","zipcode":"48201","license_type":"Fixed Establishment","risk_category":"High","license_number":"AA052517","establishmentid":"51622545","establishment_type":"Food Service Establishment","establishment_status":"Open","review_frequency_days":"180.0","most_recent_license_date":"4/25/2018"}},"nearbyList":[{"establishmentid":"51622547","name":"Little Caesars Arena- Legends Club","address":"2645 Woodward Avenue","zipcode":"48201"},{"establishmentid":"51622542","name":"Little Caesars Arena- Gondola Pantries","address":"2645 Woodward Avenue","zipcode":"48201"},{"establishmentid":"51622509","name":"Little Caesars Arena Kid Rock Made in De","address":"2645 Woodward Avenue","zipcode":"48201"},{"establishmentid":"51622528","name":"Little Caesars Arena- Club Level Concess","address":"2645 Woodward Avenue","zipcode":"48201"},{"establishmentid":"51622526","name":"Little Caesars Arena- District Market","address":"2645 Woodward Avenue","zipcode":"48201"},{"establishmentid":"51622530","name":"Little Caesars Arena- Dough Room","address":"2645 Woodward Avenue","zipcode":"48201"},{"establishmentid":"51622529","name":"Little Caesars Arena- East Club","address":"2645 Woodward Avenue","zipcode":"48201"},{"establishmentid":"51622538","name":"Little Caesars Arena- Detroit House","address":"2645 Woodward Avenue","zipcode":"48201"},{"establishmentid":"51622543","name":"Little Caesars Arena- Alumni Club","address":"2645 Woodward Avenue","zipcode":"48201"},{"establishmentid":"51622537","name":"Little Caesars Arena-Main Concourse Conc","address":"2645 Woodward Avenue","zipcode":"48201"}],"inspectionsByEstablishmentidList":[{"inspectionid":"44214","inspectionDate":"2018-05-20T00:00:00","inspectionType":"Routine Inspection","inCompliance":"Yes","violationsByInspectionidList":[{"violationCode":"3-101.11","violationDescription":"FOOD shall be safe, unADULTERATED and honestly presented. (P)\r\n","violationType":"Priority","itemDescription":"Food","subItem":"","problemDescription":"Dishonestly presented","subProblem":"","location":"WALK-IN COOLER","subLocation":"","corrected":"Yes","daysToCorrect":"10.0","correctedDate":"2018-05-20T00:00:00","correctionDescription":"Discard"}]},{"inspectionid":"44213","inspectionDate":"2017-10-13T00:00:00","inspectionType":"Routine Inspection","inCompliance":"Yes","violationsByInspectionidList":[{"violationCode":"3-501.18","violationDescription":"A FOOD specified in ¶ 3-501.17(A) or (B) shall be discarded if it:  \r\n    (1) Exceeds the temperature and time combination specified in ¶ 3-501.17(A),              except time that the product is frozen; (P)\r\n    (2) Is in a container or PACKAGE that does not bear a date or day; (P) or\r\n    (3) Is appropriately marked with a date or day that exceeds a temperature and              time combination as specified in ¶ 3-501.17(A). (P)  \r\n\r\n","violationType":"Priority","itemDescription":"Ready to eat, potentially hazardous food(s)","subItem":"","problemDescription":"Beyond consume by date","subProblem":"","location":"WALK-IN COOLER","subLocation":"","corrected":"Yes","daysToCorrect":"10.0","correctedDate":"2017-10-13T00:00:00","correctionDescription":"Discard."},{"violationCode":"4-302.14","violationDescription":"A test kit or other device that accurately measures the concentration in mg/L of SANITIZING solutions shall be provided. (Pf)\r\n","violationType":"Foundation","itemDescription":"Sanitizer test kit","subItem":"","problemDescription":"Not provided","subProblem":"","location":"3 COMPARTMENT SINK AREA","subLocation":"","corrected":"Yes","daysToCorrect":"10.0","correctedDate":"2017-10-13T00:00:00","correctionDescription":"Provide."},{"violationCode":"4-602.13","violationDescription":"NonFOOD-CONTACT SURFACES of EQUIPMENT shall be cleaned at a frequency necessary to preclude accumulation of soil residues.\r\n","violationType":"Core","itemDescription":"Nonfood contact surface(s)","subItem":"","problemDescription":"Soiled","subProblem":"","location":"HOT HOLDING CABINET","subLocation":"","corrected":"Not required","daysToCorrect":"30.0","correctedDate":null,"correctionDescription":"Clean."},{"violationCode":"3-302.12","violationDescription":"Except for containers holding FOOD that can be readily and unmistakably recognized such as dry pasta, working containers holding FOOD or FOOD ingredients that are removed from their original packages for use in the FOOD ESTABLISHMENT, such as cooking oils, flour, herbs, potato flakes, salt, spices, and sugar shall be identified with the common name of the FOOD.","violationType":"Core","itemDescription":"Food item(s)","subItem":"","problemDescription":"Not identified","subProblem":"","location":"DRY STORAGE AREA","subLocation":"","corrected":"Not required","daysToCorrect":"30.0","correctedDate":null,"correctionDescription":"Label containers with common name."}]}]}],"maxInspectionDate":[{"inspectionDate":"2019-10-31T00:00:00"}]}},"pageContext":{"eid":"51622545"}}