{"componentChunkName":"component---src-templates-establishment-page-js","path":"/establishment/4949","result":{"data":{"site":{"pathPrefix":"/restaurant-inspections"},"postgres":{"establishment":[{"establishmentid":"4949","name":"Frontier International Academy","address":"13200 Conant","zipcode":"48212","owner":"Mohamad Issa","licenseNumber":"081079","licenseType":"Fixed Establishment","establishmentType":"Non-Public School","establishmentStatus":"Open","riskCategory":"Medium","reviewFrequencyDays":"180","coords":"-83.05786,42.41243","geojson":{"id":"4949","type":"Feature","geometry":{"type":"Point","coordinates":[-83.057861019,42.412430647]},"properties":{"name":"Frontier International Academy","owner":"Mohamad Issa","address":"13200 Conant","zipcode":"48212","license_type":"Fixed Establishment","risk_category":"Medium","license_number":"081079","establishmentid":"4949","establishment_type":"Non-Public School","establishment_status":"Open","review_frequency_days":"180","most_recent_license_date":null}},"nearbyList":[{"establishmentid":"750","name":"Starvin Marvin ","address":"12449 Conant","zipcode":"48212"},{"establishmentid":"3589","name":"HRs Lounge","address":"12449 Conant","zipcode":"48212"},{"establishmentid":"51623761","name":"Best Ice Cream ","address":"3886 Gravin ","zipcode":"48212"},{"establishmentid":"51622972","name":"Modhubann Sweet & Cafe ","address":"3611 Carpenter","zipcode":"48212"},{"establishmentid":"4115","name":"Al Baraka Restaurant","address":"3611  Carpenter St.","zipcode":"48212"},{"establishmentid":"51622666","name":"New Al Baraka Restaurant LLC","address":"3611  Carpenter St. Ste 1","zipcode":"48212"},{"establishmentid":"717","name":"J & S Bar","address":"12208 Conant Ave.","zipcode":"48212"},{"establishmentid":"3373","name":"Reshmi Sweets & Cafe","address":"12170 Conant Ave.","zipcode":"48212"},{"establishmentid":"51623776","name":"Coney Star","address":"13347 Conant","zipcode":"48212"},{"establishmentid":"581","name":"Commonwealth Community Development","address":"13477 Eureka","zipcode":"48238"}],"inspectionsByEstablishmentidList":[{"inspectionid":"62206","inspectionDate":"2023-04-11T00:00:00","inspectionType":"Routine Inspection","inCompliance":"Yes","violationsByInspectionidList":[]},{"inspectionid":"61257","inspectionDate":"2022-12-08T00:00:00","inspectionType":"Routine Inspection","inCompliance":"Yes","violationsByInspectionidList":[]},{"inspectionid":"58288","inspectionDate":"2022-04-12T00:00:00","inspectionType":"Routine Inspection","inCompliance":"Yes","violationsByInspectionidList":[]},{"inspectionid":"55459","inspectionDate":"2021-08-03T00:00:00","inspectionType":"Routine Inspection","inCompliance":"Yes","violationsByInspectionidList":[]},{"inspectionid":"53690","inspectionDate":"2020-12-15T00:00:00","inspectionType":"Routine Inspection","inCompliance":"Yes","violationsByInspectionidList":[]},{"inspectionid":"53405","inspectionDate":"2020-11-15T00:00:00","inspectionType":"Routine Inspection","inCompliance":"Yes","violationsByInspectionidList":[]},{"inspectionid":"49881","inspectionDate":"2019-11-19T00:00:00","inspectionType":"Routine Inspection","inCompliance":"Yes","violationsByInspectionidList":[]},{"inspectionid":"47969","inspectionDate":"2019-06-05T00:00:00","inspectionType":"Routine Inspection","inCompliance":"Yes","violationsByInspectionidList":[{"violationCode":"6-501.11","violationDescription":"PHYSICAL FACILITIES shall be maintained in good repair.\n","violationType":"Core","itemDescription":"Physical facilities","subItem":"","problemDescription":"In poor repair","subProblem":"","location":"STORAGE AREA(S)","subLocation":"","corrected":"False","daysToCorrect":"30","correctedDate":null,"correctionDescription":null}]},{"inspectionid":"44123","inspectionDate":"2018-11-12T00:00:00","inspectionType":"Routine Inspection","inCompliance":"Yes","violationsByInspectionidList":[]},{"inspectionid":"42205","inspectionDate":"2018-05-03T00:00:00","inspectionType":"Routine Inspection","inCompliance":"Yes","violationsByInspectionidList":[{"violationCode":"4-501.11","violationDescription":"EQUIPMENT shall be maintained in a state of repair and condition that meets the requirements of the code.\n","violationType":"Core","itemDescription":"Equipment","subItem":"","problemDescription":"In poor repair","subProblem":"","location":"WALK-IN FREEZER","subLocation":"","corrected":"False","daysToCorrect":"30","correctedDate":null,"correctionDescription":""}]},{"inspectionid":"40719","inspectionDate":"2017-11-02T00:00:00","inspectionType":"Routine Inspection","inCompliance":"Yes","violationsByInspectionidList":[]},{"inspectionid":"38747","inspectionDate":"2017-05-21T00:00:00","inspectionType":"Routine Inspection","inCompliance":"Yes","violationsByInspectionidList":[]},{"inspectionid":"36941","inspectionDate":"2016-10-24T00:00:00","inspectionType":"Routine Inspection","inCompliance":"Yes","violationsByInspectionidList":[]}]}],"maxInspectionDate":[{"inspectionDate":"2023-04-25T00:00:00"}]}},"pageContext":{"eid":"4949"}},"staticQueryHashes":["3649515864","63159454"]}