{"data":{"site":{"pathPrefix":"/restaurant-inspections"},"postgres":{"establishment":[{"establishmentid":"4065","name":"Ms. E-Vee's Soul Food","address":"201 W Eight Mile Ave","zipcode":"48203","owner":"Yvonne Waller","licenseNumber":"075136","licenseType":"Fixed Establishment","establishmentType":"Food Service Establishment","establishmentStatus":"Permanently Closed","riskCategory":"High","reviewFrequencyDays":"180.0","coords":"-83.10556,42.44659","geojson":{"id":"4065","type":"Feature","geometry":{"type":"Point","coordinates":[-83.1055606629999,42.446585914]},"properties":{"name":"Ms. E-Vee's Soul Food","owner":"Yvonne Waller","address":"201 W Eight Mile Ave","zipcode":"48203","license_type":"Fixed Establishment","risk_category":"High","license_number":"075136","establishmentid":"4065","establishment_type":"Food Service Establishment","establishment_status":"Permanently Closed","review_frequency_days":"180.0","most_recent_license_date":"4/26/2016"}},"nearbyList":[{"establishmentid":"51622461","name":"Magic City of Detroit-Dreams","address":"141 W Eight Mile","zipcode":"48203"},{"establishmentid":"382","name":"Centerfold","address":"20222 John R St","zipcode":"48203"},{"establishmentid":"1122","name":"Greenfield Union Annex","address":"420 W Seven Mile Rd","zipcode":"48238"},{"establishmentid":"4151","name":"Greenfield Union Elementary","address":"19150 Blake St","zipcode":"48207"},{"establishmentid":"270","name":"Stonehouse Bar","address":"19803 Ralston","zipcode":"48203"},{"establishmentid":"4636","name":"Bert's Market Place--Commissary","address":"2739 Russell St","zipcode":"48207"},{"establishmentid":"1461","name":"Bert's Market Place -Jazz Bar/Food Court","address":"2727-31 Russell St","zipcode":"48207"},{"establishmentid":"4637","name":"Bert's Market Place--Outdoor Cafe","address":"2727-39 Russell St","zipcode":"48207"},{"establishmentid":"4635","name":"Bert's Warehouse Theater","address":"2739 Russell St","zipcode":"48207"},{"establishmentid":"4683","name":"Wing Stop","address":"1331 W Eight Mile Rd","zipcode":"48203"},{"establishmentid":"51622792","name":"Lefty's","address":"1335 W Eight Mile Rd","zipcode":"48203"},{"establishmentid":"4826","name":"Starbucks Coffee Co","address":"1327 W Eight Mile","zipcode":"48203"},{"establishmentid":"51622662","name":"Wingstop","address":"1331 W Eight Mile Rd","zipcode":"48203"},{"establishmentid":"4704","name":"Subway","address":"1335 W Eight Mile ","zipcode":"48203"},{"establishmentid":"4836","name":"McDonald's","address":"1321 W Eight Mile Rd","zipcode":"4822"},{"establishmentid":"51622469","name":"Detroit One Coney Island","address":"5 W Seven Mile Rd","zipcode":"48203"},{"establishmentid":"4496","name":"Motown Coney Island","address":"1936 E Eight Mile Rd","zipcode":"48325"},{"establishmentid":"225","name":"Renaissance Bowling Center","address":"19600 Woodward Ave","zipcode":"48203"},{"establishmentid":"3191","name":"Sullaf Restaurant","address":"814 W Seven Mile Rd","zipcode":"48203"},{"establishmentid":"5032","name":"Tasty World","address":"19102 Woodward","zipcode":"48201"}],"inspectionsByEstablishmentidList":[{"inspectionid":"37976","inspectionDate":"2017-02-09T00:00:00","inspectionType":"Routine Inspection","inCompliance":"Yes","violationsByInspectionidList":[{"violationCode":"3-305.11","violationDescription":"FOOD shall be protected from contamination by storing the FOOD:\r\n(1)     In a clean, dry location;\r\n(2)     Where it is not exposed to splash, dust, or other contamination; and\r\n(3)     At least 15 cm (6 inches) above the floor, unless otherwise approved.\r\n","violationType":"Core","itemDescription":"Food item(s) in storage","subItem":"","problemDescription":"Exposed to dust, splash, or other contaminates","subProblem":"","location":"HOT HOLDING AREA","subLocation":"","corrected":"Yes","daysToCorrect":"30.0","correctedDate":"2017-02-09T00:00:00","correctionDescription":"Store in manner that does not contaminate items"},{"violationCode":"MFL289.2129","violationDescription":"Sec. 2129. (1) All of the following food establishments shall employ a minimum of 1 managerial employee who is currently certified under a personnel certification program accredited by the American national standards institute, utilizing the conference for food protection standards:  (a) A food service establishment that is not any of the following:    (i) Operating under a temporary food service establishment license.  (ii) A vending machine location.     (b) An extended retail food establishment.  (c) Operated within a retail grocery.  (2) An individual certified under subsection (1) shall be recognized with full faith and credit by the state and all local units of government throughout the state.  (3) The department may promulgate rules to do all of the following:  (a) Develop requirements for retail food establishments to follow when employing certified food safety managers or personnel.  (b) Set a reasonable date for compliance with the requirements under subdivision (a) taking into consideration existing local personnel certification requirements.  (c) Establish certification fees necessary to implement, maintain, and track certified individuals directly or by contract. The department may annually adjust the schedule of fees to provide that the fee charged is sufficient to cover the cost of the certification tracking program.  (d) Implement and enforce the requirements described in subdivision (a).    (4) The certification program developed by the American national standards institute, as it exists on April 1, 2008 , is incorporated by reference. The department may adopt updates to the certification program accreditation standards in subsection (1) by rule.     (5) This section does not prohibit any local legislative body from implementing a food handler program, an employee health certification program, or a manager certification program, if it is not in conflict with this section.","violationType":"Core","itemDescription":"Person-in-charge","subItem":"","problemDescription":"Failed to notify the health department that an employee is diagnosed with a \"big 4\" illness","subProblem":"","location":"PERSON IN CHARGE","subLocation":"","corrected":"Not required","daysToCorrect":"30.0","correctedDate":null,"correctionDescription":"Provide"}]}]}]}},"pageContext":{"eid":"4065"}}