{"data":{"site":{"pathPrefix":"/restaurant-inspections"},"postgres":{"establishment":[{"establishmentid":"317","name":"Elbow Lounge","address":"7310 Mack Ave","zipcode":"48214","owner":"Kevin Nottage","licenseNumber":"034011","licenseType":"Fixed Establishment","establishmentType":"Food Service Establishment","establishmentStatus":"Open","riskCategory":null,"reviewFrequencyDays":"365.0","coords":"-83.01120,42.36484","geojson":{"id":"317","type":"Feature","geometry":{"type":"Point","coordinates":[-83.011199088,42.364841674]},"properties":{"name":"Elbow Lounge","owner":"Kevin Nottage","address":"7310 Mack Ave","zipcode":"48214","license_type":"Fixed Establishment","risk_category":null,"license_number":"034011","establishmentid":"317","establishment_type":"Food Service Establishment","establishment_status":"Open","review_frequency_days":"365.0","most_recent_license_date":"4/17/2018"}},"nearbyList":[{"establishmentid":"3874","name":"Covenant East /Lifeskills","address":"7600 Goethe St","zipcode":"48214"},{"establishmentid":"51622465","name":"The Commons","address":"7900 Mack Ave","zipcode":"48214"},{"establishmentid":"4831","name":"Cesar Chavez Academy - East","address":"4130 Maxwell","zipcode":"48214"},{"establishmentid":"1158","name":"Franklin Gourmet Dairy Bar","address":"8405 Mack Ave","zipcode":"48214"},{"establishmentid":"3555","name":"Friends of Detroit & Tri County","address":"8230 E Forest Ave","zipcode":"48214"},{"establishmentid":"1578","name":"Grandy's Coney Island","address":"3570 Mt Elliott Rd","zipcode":"48207"},{"establishmentid":"1099","name":"Butzel Recreation Center","address":"7737 Kercheval Ave","zipcode":"48214"},{"establishmentid":"833","name":"Marcus Garvey","address":"2301 Van Dyke Ave","zipcode":"48207"},{"establishmentid":"1872","name":"Terry's Casablanca","address":"6366 Gratiot Ave              ","zipcode":"48207"},{"establishmentid":"4017","name":"Little Caesars Pizza","address":"7447 Gratiot Ave","zipcode":"48213"}],"inspectionsByEstablishmentidList":[{"inspectionid":"41437","inspectionDate":"2018-02-08T00:00:00","inspectionType":"Routine Inspection","inCompliance":"No","violationsByInspectionidList":[{"violationCode":"4-302.14","violationDescription":"A test kit or other device that accurately measures the concentration in mg/L of SANITIZING solutions shall be provided. (Pf)\r\n","violationType":"Foundation","itemDescription":"Sanitizer test kit","subItem":"quaternary ammonia","problemDescription":"Not provided","subProblem":"","location":"BAR","subLocation":"Missing Test strips","corrected":"No","daysToCorrect":"10.0","correctedDate":null,"correctionDescription":"Provide as required"},{"violationCode":"6-202.14","violationDescription":"Except as otherwise allowed, a toilet room located on the PREMISES shall be completely enclosed and provided with a tight-fitting and self-closing door. \r\n","violationType":"Core","itemDescription":"Toilet room door(s)","subItem":"","problemDescription":"Propped open","subProblem":"","location":"RESTROOM (WOMEN'S PUBLIC)","subLocation":"and the Self-closing device","corrected":"Not required","daysToCorrect":"30.0","correctedDate":null,"correctionDescription":"Do not prop door open."},{"violationCode":"5-501.17","violationDescription":"A toilet room used by females shall be provided with a covered receptacle for sanitary napkins.\r\n","violationType":"Core","itemDescription":"Covered waste receptacle(s)","subItem":"in ladies restroom","problemDescription":"Not provided","subProblem":"","location":"RESTROOM (WOMEN'S PUBLIC)","subLocation":"No Covered waste container","corrected":"Not required","daysToCorrect":"30.0","correctedDate":null,"correctionDescription":"Provide as required"}]},{"inspectionid":"37878","inspectionDate":"2017-02-02T00:00:00","inspectionType":"Routine Inspection","inCompliance":"Yes","violationsByInspectionidList":[{"violationCode":"6-501.11","violationDescription":"PHYSICAL FACILITIES shall be maintained in good repair.\r\n","violationType":"Core","itemDescription":"Physical facilities","subItem":"ceiling(s)","problemDescription":"In poor repair","subProblem":"","location":"RESTROOM (MEN'S PUBLIC)","subLocation":"Missing Ceiling tile(s)","corrected":"Not required","daysToCorrect":"30.0","correctedDate":null,"correctionDescription":null}]}]}],"maxInspectionDate":[{"inspectionDate":"2019-01-31T00:00:00"}]}},"pageContext":{"eid":"317"}}