{"data":{"site":{"pathPrefix":"/restaurant-inspections"},"postgres":{"establishment":[{"establishmentid":"51622879","name":"Chef Mel's Hotdogs","address":"5782 Kensington Ave","zipcode":"48224","owner":"Melvin Allen","licenseNumber":"241589","licenseType":"Special Transitory Food Unit","establishmentType":"LHD - Mobile Food Establishmen","establishmentStatus":"Open","riskCategory":"High","reviewFrequencyDays":"210.0","coords":"-82.93899,42.41037","geojson":{"id":"51622879","type":"Feature","geometry":{"type":"Point","coordinates":[-82.938986026,42.410369965]},"properties":{"name":"Chef Mel's Hotdogs","owner":"Melvin Allen","address":"5782 Kensington Ave","zipcode":"48224","license_type":"Special Transitory Food Unit","risk_category":"High","license_number":"241589","establishmentid":"51622879","establishment_type":"LHD - Mobile Food Establishmen","establishment_status":"Open","review_frequency_days":"210.0","most_recent_license_date":"4/30/2019"}},"nearbyList":[{"establishmentid":"2265","name":"Louie's Ham & Corn Beef","address":"16661 Harper Ave","zipcode":"48224"},{"establishmentid":"5243","name":"Vergotes Poultry & Fish Inc.","address":"16523 Harper","zipcode":"48224"},{"establishmentid":"4936","name":"Checker's Drive In Restuarant","address":"16511 Harper Rd","zipcode":"48224"},{"establishmentid":"3738","name":"Popeye's Chicken & Biscuits","address":"16701 Harper Ave","zipcode":"48205"},{"establishmentid":"2162","name":"White Castle #59","address":"16737 Harper Ave ","zipcode":"48224"},{"establishmentid":"465","name":"Firewater Bar & Grill","address":"16801 Harper Ave","zipcode":"48224"},{"establishmentid":"51622692","name":"J's Wings-N-Things","address":"12250 E Outer Drive","zipcode":"48224"},{"establishmentid":"51623094","name":"Sunday Cakes & Plates","address":"5953 Courville St","zipcode":"48224"},{"establishmentid":"4366","name":"Sweetwater Express (Harper)","address":"16849 Harper Ave","zipcode":"48224"},{"establishmentid":"1295","name":"McDonald's #5459 ","address":"16950 Harper Ave","zipcode":"48224"}],"inspectionsByEstablishmentidList":[{"inspectionid":"45298","inspectionDate":"2019-02-22T00:00:00","inspectionType":"Plan Review/Pre-Open","inCompliance":"Yes","violationsByInspectionidList":[{"violationCode":"7-204.11","violationDescription":"Chemical SANITIZERS and other chemical antimicrobials applied to FOOD-CONTACT SURFACES shall meet the requirements specified in this code. (P)\r\n","violationType":"Priority","itemDescription":"Sanitizer(s)","subItem":"","problemDescription":"Do not comply with law","subProblem":"","location":"STFU","subLocation":"Bleach","corrected":"Yes","daysToCorrect":"10.0","correctedDate":"2019-02-25T00:00:00","correctionDescription":"Remove and replace to be in compliance with law."},{"violationCode":"4-302.12","violationDescription":"(A) FOOD TEMPERATURE MEASURING DEVICES shall be provided and readily accessible for use in ensuring attainment and maintenance of FOOD temperatures as specified under Chapter 3. (Pf)   \r\n(B) A TEMPERATURE MEASURING DEVICE with a suitable small-diameter probe that is designed to measure the temperature of thin masses shall be provided and readily accessible to accurately measure the temperature in thin FOODS such as MEAT patties and FISH filets. (Pf)\r\n","violationType":"Foundation","itemDescription":"Food thermometer(s)","subItem":"probe","problemDescription":"Not provided","subProblem":"","location":"STFU","subLocation":"Thermometer(s)","corrected":"Yes","daysToCorrect":"10.0","correctedDate":"2019-02-25T00:00:00","correctionDescription":"Provide as required"},{"violationCode":"5-103.11","violationDescription":"(A) The water source and system shall be of sufficient capacity to meet the peak water demands of the FOOD ESTABLISHMENT. (Pf)\r\n(B) Hot water generation and distribution systems shall be sufficient to meet the peak hot water demands throughout the FOOD ESTABLISHMENT. (Pf)\r\n","violationType":"Foundation","itemDescription":"Hot water supply","subItem":"","problemDescription":"Insufficient to meet demands","subProblem":"","location":"STFU","subLocation":"HOT WATER","corrected":"Yes","daysToCorrect":"10.0","correctedDate":"2019-02-25T00:00:00","correctionDescription":"Provide sufficient supply if hot water such as a larger or additional hot water heater."},{"violationCode":"4-302.14","violationDescription":"A test kit or other device that accurately measures the concentration in mg/L of SANITIZING solutions shall be provided. (Pf)\r\n","violationType":"Foundation","itemDescription":"Sanitizer test kit","subItem":"chlorine","problemDescription":"Not provided","subProblem":"","location":"THREE COMPARTMENT SINK","subLocation":"Sanitizer","corrected":"Yes","daysToCorrect":"10.0","correctedDate":"2019-02-25T00:00:00","correctionDescription":"Provide as required"},{"violationCode":"5-205.15","violationDescription":"A PLUMBING SYSTEM shall be:\r\n(A) Repaired according to LAW; (P) and\r\n(B) Maintained in good repair.\r\n","violationType":"Core","itemDescription":"Plumbing system","subItem":"water line(s)","problemDescription":"Not maintained","subProblem":"","location":"STFU","subLocation":"Plumbing","corrected":"Yes","daysToCorrect":"10.0","correctedDate":"2019-02-25T00:00:00","correctionDescription":"Maintain in good repair"}]}]}],"maxInspectionDate":[{"inspectionDate":"2019-10-31T00:00:00"}]}},"pageContext":{"eid":"51622879"}}