{"data":{"site":{"pathPrefix":"/restaurant-inspections"},"postgres":{"establishment":[{"establishmentid":"51623248","name":"Everything Turtkey","address":"12548 Livernois Ave","zipcode":"48204","owner":"Leceto J Garrett","licenseNumber":"249618","licenseType":"Fixed Establishment","establishmentType":"Food Service Establishment","establishmentStatus":"Plan Review","riskCategory":null,"reviewFrequencyDays":"180","coords":"-83.13894,42.38064","geojson":{"id":"51623248","type":"Feature","geometry":{"type":"Point","coordinates":[-83.138936549,42.380636348]},"properties":{"name":"Everything Turtkey","owner":"Leceto J Garrett","address":"12548 Livernois Ave","zipcode":"48204","license_type":"Fixed Establishment","risk_category":null,"license_number":"249618","establishmentid":"51623248","establishment_type":"Food Service Establishment","establishment_status":"Plan Review","review_frequency_days":"180","most_recent_license_date":null}},"nearbyList":[{"establishmentid":"4169","name":"Lynn's Fish & Chicken","address":"12863 Livernois Ave","zipcode":"48238"},{"establishmentid":"4806","name":"Hope Academy","address":"12121 Broadstreet Ave","zipcode":"48204"},{"establishmentid":"3426","name":"Manhattan Fish & Chicken","address":"13325 Livernois Ave","zipcode":"48238"},{"establishmentid":"286","name":"Jerry's Pizza & B-B-Q Inc.","address":"11749 Livernois Ave","zipcode":"48204"},{"establishmentid":"271","name":"Bailey's Lounge","address":"11700 Livernois Ave","zipcode":"48204"},{"establishmentid":"1063","name":"L. A. Coney Island","address":"13550 Livernois Ave","zipcode":"48238"},{"establishmentid":"1128","name":"Royal Grill","address":"9850 Livernois Ave","zipcode":"48204"},{"establishmentid":"1493","name":"Taco Bell #4014","address":"14000 Livernois Ave","zipcode":"48238"},{"establishmentid":"2016","name":"Wendy's ","address":"14001 Livernois Ave","zipcode":"48238"},{"establishmentid":"1012","name":"Burger King ","address":"9871 Livernois Ave","zipcode":"48204"}],"inspectionsByEstablishmentidList":[{"inspectionid":"51982","inspectionDate":"2020-07-09T00:00:00","inspectionType":"Preopening/New","inCompliance":"Yes","violationsByInspectionidList":[{"violationCode":"4-402.11","violationDescription":"EQUIPMENT that is fixed because it is not EASILY MOVABLE shall be installed so that it is spaced to allow access for cleaning along the sides, behind, and above the EQUIPMENT or sealed as required,  COUNTER-MOUNTED EQUIPMENT that is not EASILY MOVABLE shall be installed to allow cleaning of the EQUIPMENT and areas underneath and around the EQUIPMENT .\r\n","violationType":"Core","itemDescription":"Fixed equipment","subItem":"","problemDescription":"Not sealed to adjoining","subProblem":"Wall(s)","location":"HANDSINK(S)","subLocation":"","corrected":"Not required","daysToCorrect":"30","correctedDate":null,"correctionDescription":null},{"violationCode":"6-201.11","violationDescription":"Except otherwise approved, and except for antislip floor coverings or applications may be used for safety reasons, floors, floor coverings, walls, wall coverings, and ceilings shall be designed, constructed, and installed so they are SMOOTH and EASILY CLEANABLE.\r\n","violationType":"Core","itemDescription":"wall(s)","subItem":"","problemDescription":"Not constructed, designed, installed to be","subProblem":"Easily cleanable","location":"KITCHEN","subLocation":"","corrected":"Not required","daysToCorrect":"30","correctedDate":null,"correctionDescription":null},{"violationCode":"4-204.112","violationDescription":"(A)  In a mechanically refrigerated or hot FOOD storage unit, the sensor of a TEMPERATURE MEASURING DEVICE shall be located to measure the air temperature in the warmest part of a mechanically refrigerated unit and in the coolest part of a hot FOOD storage unit.\r\n(B)  Cold or hot holding EQUIPMENT used for POTENTIALLY HAZARDOUS FOOD shall be designed to include and shall be equipped with at least one integral or permanently affixed TEMPERATURE MEASURING DEVICE that is located to allow easy viewing of the device's temperature display (EXCEPT, heat lamps, cold plates, steam tables, or other equipment where it is not practical).\r\n(C)  TEMPERATURE MEASURING DEVICES shall be designed to be easily readable.\r\n(D)  FOOD TEMPERATURE MEASURING DEVICES and water TEMPERATURE MEASURING DEVICES on WAREWASHING machines shall have a numerical scale, printed record, or digital readout in increments no greater than 1C or 2F in the intended range of use. (Pf)\r\n\r\n","violationType":"Core","itemDescription":"Thermometer(s)","subItem":"refrigeration","problemDescription":"Not provided","subProblem":"","location":"COOLERS THROUGHOUT","subLocation":"","corrected":"Not required","daysToCorrect":"10","correctedDate":null,"correctionDescription":null},{"violationCode":"6-201.13","violationDescription":"(A) In FOOD ESTABLISHMENTS in which cleaning methods other than water flushing are used for cleaning floors, the floor and wall junctures shall be coved and closed to no larger than one thirty-second inch.\r\n(B) The floors in FOOD ESTABLISHMENTS in which water flush cleaning methods are used shall be provided with drains and be graded to drain, and the floor and wall junctures shall be coved and SEALED.","violationType":"Core","itemDescription":"Floor(s)","subItem":"juncture","problemDescription":"Not coved","subProblem":"","location":"KITCHEN","subLocation":"","corrected":"Not required","daysToCorrect":"30","correctedDate":null,"correctionDescription":null}]}]}],"maxInspectionDate":[{"inspectionDate":"2020-10-30T00:00:00"}]}},"pageContext":{"eid":"51623248"}}