{"data":{"site":{"pathPrefix":"/restaurant-inspections"},"postgres":{"establishment":[{"establishmentid":"51622880","name":"Trix Academy","address":"20045 Joann St","zipcode":"48205","owner":"MECC","licenseNumber":"238012","licenseType":"Fixed Establishment","establishmentType":"Non-Public School","establishmentStatus":"Open","riskCategory":null,"reviewFrequencyDays":"180","coords":"-82.99097,42.44425","geojson":{"id":"51622880","type":"Feature","geometry":{"type":"Point","coordinates":[-82.990970757,42.444247708]},"properties":{"name":"Trix Academy","owner":"MECC","address":"20045 Joann St","zipcode":"48205","license_type":"Fixed Establishment","risk_category":null,"license_number":"238012","establishmentid":"51622880","establishment_type":"Non-Public School","establishment_status":"Open","review_frequency_days":"180","most_recent_license_date":null}},"nearbyList":[{"establishmentid":"51622450","name":"Detroit's Finest Coney Island","address":"12930 E Eight Mile Rd","zipcode":"48205"},{"establishmentid":"2141","name":"Maitais","address":"13310-18 E Eight Mile Rd","zipcode":"48205"},{"establishmentid":"1165","name":"Trix Elementary","address":"13700 Bringard","zipcode":"48205"},{"establishmentid":"1171","name":"Pulaski Elementary / Middle School","address":"19725 Strasburg St","zipcode":"48205"},{"establishmentid":"725","name":"Player's","address":"13710 E Eight Mile Rd","zipcode":"48205"},{"establishmentid":"3497","name":"Prince Pizza Chicken & Ribs","address":"13000 E Seven Mile Rd","zipcode":"48205"},{"establishmentid":"2375","name":"New Robert's Coney Island Inc.","address":"12701 E Seven Mile Rd","zipcode":"48205"},{"establishmentid":"1431","name":"BT'S (Tycoons DBA Celebrity Reservation)","address":"12210 E Eight Mile Rd","zipcode":"48205"},{"establishmentid":"51623159","name":"National Coney Island (Wayne)","address":"27947 Grossbeck","zipcode":"48066"},{"establishmentid":"3654","name":"State Fair Lounge, Inc.","address":"19910 Hoover Ave","zipcode":"48205"}],"inspectionsByEstablishmentidList":[{"inspectionid":"45853","inspectionDate":"2018-11-28T00:00:00","inspectionType":"Routine Inspection","inCompliance":"Yes","violationsByInspectionidList":[{"violationCode":"4-602.13","violationDescription":"NonFOOD-CONTACT SURFACES of EQUIPMENT shall be cleaned at a frequency necessary to preclude accumulation of soil residues.\r\n","violationType":"Core","itemDescription":"Nonfood contact surface(s)","subItem":"","problemDescription":"Soiled","subProblem":"","location":"COOLER","subLocation":"","corrected":"Not required","daysToCorrect":"30","correctedDate":null,"correctionDescription":null},{"violationCode":"4-204.112","violationDescription":"(A)  In a mechanically refrigerated or hot FOOD storage unit, the sensor of a TEMPERATURE MEASURING DEVICE shall be located to measure the air temperature in the warmest part of a mechanically refrigerated unit and in the coolest part of a hot FOOD storage unit.\r\n(B)  Cold or hot holding EQUIPMENT used for POTENTIALLY HAZARDOUS FOOD shall be designed to include and shall be equipped with at least one integral or permanently affixed TEMPERATURE MEASURING DEVICE that is located to allow easy viewing of the device's temperature display (EXCEPT, heat lamps, cold plates, steam tables, or other equipment where it is not practical).\r\n(C)  TEMPERATURE MEASURING DEVICES shall be designed to be easily readable.\r\n(D)  FOOD TEMPERATURE MEASURING DEVICES and water TEMPERATURE MEASURING DEVICES on WAREWASHING machines shall have a numerical scale, printed record, or digital readout in increments no greater than 1C or 2F in the intended range of use. (Pf)\r\n\r\n","violationType":"Core","itemDescription":"Thermometer(s)","subItem":"","problemDescription":"Not provided","subProblem":"","location":"COOLER","subLocation":"","corrected":"Not required","daysToCorrect":"10","correctedDate":null,"correctionDescription":null},{"violationCode":"6-501.11","violationDescription":"PHYSICAL FACILITIES shall be maintained in good repair.\r\n","violationType":"Core","itemDescription":"Physical facilities","subItem":"","problemDescription":"In poor repair","subProblem":"","location":"KITCHEN","subLocation":"","corrected":"Not required","daysToCorrect":"30","correctedDate":null,"correctionDescription":null},{"violationCode":"6-201.16","violationDescription":"(A) Wall and ceiling covering materials shall be attached so that they are EASILY CLEANABLE.\r\n(B) Except in areas used only for dry storage, concrete, porous blocks, or bricks used for indoor wall construction shall be finished and SEALED to provide a SMOOTH, nonabsorbent, EASILY CLEANABLE surface.\r\n","violationType":"Core","itemDescription":"Wall/ceiling covering(s)","subItem":"","problemDescription":"Not easily cleanable","subProblem":"","location":"KITCHEN","subLocation":"","corrected":"Not required","daysToCorrect":"30","correctedDate":null,"correctionDescription":null}]}]}],"maxInspectionDate":[{"inspectionDate":"2020-10-30T00:00:00"}]}},"pageContext":{"eid":"51622880"}}