{"componentChunkName":"component---src-templates-establishment-page-js","path":"/establishment/51623453","result":{"data":{"site":{"pathPrefix":"/restaurant-inspections"},"postgres":{"establishment":[{"establishmentid":"51623453","name":"Metropolitan Bar & Kitchen","address":"8047 Agnes","zipcode":"48214","owner":"Brendon Edwards","licenseNumber":"259439","licenseType":"Fixed Establishment","establishmentType":"Food Service Establishment","establishmentStatus":"Open","riskCategory":null,"reviewFrequencyDays":"150","coords":"-82.99664,42.35555","geojson":{"id":"51623453","type":"Feature","geometry":{"type":"Point","coordinates":[-82.99663543,42.35554504]},"properties":{"name":"Metropolitan Bar & Kitchen","owner":"Brendon Edwards","address":"8047 Agnes","zipcode":"48214","license_type":"Fixed Establishment","risk_category":null,"license_number":"259439","establishmentid":"51623453","establishment_type":"Food Service Establishment","establishment_status":"Open","review_frequency_days":"150","most_recent_license_date":null}},"nearbyList":[{"establishmentid":"2587","name":"Harlequin Cafe","address":"8047 Agnes","zipcode":"48214"},{"establishmentid":"4817","name":"Craft Work","address":"8047 Agnes St.","zipcode":"48214"},{"establishmentid":"51622473","name":"Yum Village Food Truck Works Detroit","address":"1415 Parker #867","zipcode":"48214"},{"establishmentid":"51622871","name":"Poppies Polish Deli","address":"1400 Vandyke","zipcode":"48214"},{"establishmentid":"4953","name":"The Red Hook, Detroit, LLC","address":"8025 Agnes","zipcode":"48214"},{"establishmentid":"1336","name":"Indian Village Tennis Club","address":"1502 Parker Ave.","zipcode":"48214"},{"establishmentid":"51623218","name":"Coriander LLC (Oakland Co.)","address":"1792 Parker St.","zipcode":"48212"},{"establishmentid":"51622513","name":"La Boheme","address":"8100 Kercheval","zipcode":"48214"},{"establishmentid":"51622821","name":"Destination 1905","address":"8130 Kercheval","zipcode":"48214"},{"establishmentid":"51623432","name":"Two Birds","address":"8130 Kercheval","zipcode":"48214"}],"inspectionsByEstablishmentidList":[{"inspectionid":"57162","inspectionDate":"2022-02-08T00:00:00","inspectionType":"Routine Inspection","inCompliance":"Yes","violationsByInspectionidList":[{"violationCode":"4-602.13","violationDescription":"NonFOOD-CONTACT SURFACES of EQUIPMENT shall be cleaned at a frequency necessary to preclude accumulation of soil residues.\n","violationType":"Core","itemDescription":"Nonfood contact surface(s)","subItem":null,"problemDescription":"With accumulation of debris","subProblem":null,"location":"KITCHEN","subLocation":"Inside the Stove","corrected":"False","daysToCorrect":"30","correctedDate":null,"correctionDescription":"Keep clean."},{"violationCode":"6-202.11","violationDescription":"Except as otherwise approved, light bulbs shall be shielded, coated, or otherwise shatter-resistant in areas where there is exposed FOOD; clean EQUIPMENT, UTENSILS, and LINENS; or unwrapped SINGLE-SERVICE and SINGLE-USE ARTICLES.\n","violationType":"Core","itemDescription":"Light shielding","subItem":null,"problemDescription":"Not provided","subProblem":"In prep area","location":"KITCHEN","subLocation":"At the Light Shield(s)","corrected":"False","daysToCorrect":"30","correctedDate":null,"correctionDescription":"Provide adequate light shields and end caps or shatter-proof bulbs."}]},{"inspectionid":"56255","inspectionDate":"2021-10-12T00:00:00","inspectionType":"Preopening/New","inCompliance":"Yes","violationsByInspectionidList":[]}]}],"maxInspectionDate":[{"inspectionDate":"2022-07-25T00:00:00"}]}},"pageContext":{"eid":"51623453"}},"staticQueryHashes":["3649515864","63159454"]}