{"data":{"site":{"pathPrefix":"/restaurant-inspections"},"postgres":{"establishment":[{"establishmentid":"5390","name":"Premier Ice Cream","address":"2217 Evaline St","zipcode":"48212","owner":"Tawfik Almasmari","licenseNumber":"221022","licenseType":"Mobile Food Establishment","establishmentType":"Food Service Establishment","establishmentStatus":"Seasonal","riskCategory":null,"reviewFrequencyDays":"395","coords":"-83.06380,42.39505","geojson":{"id":"5390","type":"Feature","geometry":{"type":"Point","coordinates":[-83.063804524,42.395049412]},"properties":{"name":"Premier Ice Cream","owner":"Tawfik Almasmari","address":"2217 Evaline St","zipcode":"48212","license_type":"Mobile Food Establishment","risk_category":null,"license_number":"221022","establishmentid":"5390","establishment_type":"Food Service Establishment","establishment_status":"Seasonal","review_frequency_days":"395","most_recent_license_date":"5/15/2019"}},"nearbyList":[{"establishmentid":"4453","name":"Beignet's, LLC","address":"2424 Florian St","zipcode":"48212"},{"establishmentid":"51622689","name":"American Axle Plant #6","address":"2020 Holbrook Ave","zipcode":"48212"},{"establishmentid":"51622757","name":"Supa Flavor ","address":"11514 St Aubin St","zipcode":"48212"},{"establishmentid":"5314","name":"Fresh Soft Serve","address":"11516 Saint Aubin St","zipcode":"48212"},{"establishmentid":"5217","name":"Fresh Creamer","address":"2236 Wyandotte St","zipcode":"48212"},{"establishmentid":"5312","name":"Wonka Soft Serve","address":"11609 Lumpkin St","zipcode":"48212"},{"establishmentid":"51623011","name":"Detroit Ice Cream","address":"11613 Lumpkin St","zipcode":"48212"},{"establishmentid":"4016","name":"Mr. Soft Serve","address":"11613 Lumpkin Street","zipcode":"48212"},{"establishmentid":"5214","name":"NYC Yogurt","address":"2261 Faber St","zipcode":"48212"},{"establishmentid":"3650","name":"American Axle","address":"1 Dauch Dr","zipcode":"48211"}],"inspectionsByEstablishmentidList":[{"inspectionid":"47725","inspectionDate":"2019-05-15T00:00:00","inspectionType":"Mobile Inspection","inCompliance":"Yes","violationsByInspectionidList":[{"violationCode":"5-102.11","violationDescription":"Water from a PUBLIC and NON-PUBLIC WATER SYSTEM shall meet applicable State DRINKING WATER quality standards. (P)\r\n","violationType":"Priority","itemDescription":"Water source","subItem":"","problemDescription":"Does not meet state drinking water quality standards","subProblem":"","location":"MOBILE UNIT","subLocation":"At the Sink","corrected":"Yes","daysToCorrect":"10","correctedDate":"2019-05-16T00:00:00","correctionDescription":null}]},{"inspectionid":"41140","inspectionDate":"2017-05-30T00:00:00","inspectionType":"Routine Inspection","inCompliance":"Yes","violationsByInspectionidList":[{"violationCode":"4-602.13","violationDescription":"NonFOOD-CONTACT SURFACES of EQUIPMENT shall be cleaned at a frequency necessary to preclude accumulation of soil residues.\r\n","violationType":"Core","itemDescription":"Nonfood contact surface(s)","subItem":"","problemDescription":"With accumulation of debris","subProblem":"","location":"ICE CREAM MACHINE","subLocation":"","corrected":"Not required","daysToCorrect":"30","correctedDate":null,"correctionDescription":"Keep clean."}]}]}],"maxInspectionDate":[{"inspectionDate":"2020-05-29T00:00:00"}]}},"pageContext":{"eid":"5390"}}