{"componentChunkName":"component---src-templates-establishment-page-js","path":"/establishment/51623398","result":{"data":{"site":{"pathPrefix":"/restaurant-inspections"},"postgres":{"establishment":[{"establishmentid":"51623398","name":"Sloppy Joe's LLC","address":"17590 James Couzens Fwy","zipcode":"48235","owner":"Bre Onna Collins","licenseNumber":"255930","licenseType":"Special Transitory Food Unit","establishmentType":"LHD - Special Transitory Food","establishmentStatus":"Open","riskCategory":"High","reviewFrequencyDays":"150","coords":"-83.17617,42.42150","geojson":{"id":"51623398","type":"Feature","geometry":{"type":"Point","coordinates":[-83.176170692,42.421497456]},"properties":{"name":"Sloppy Joe's LLC","owner":"Bre Onna Collins","address":"17590 James Couzens Fwy","zipcode":"48235","license_type":"Special Transitory Food Unit","risk_category":"High","license_number":"255930","establishmentid":"51623398","establishment_type":"LHD - Special Transitory Food","establishment_status":"Open","review_frequency_days":"150","most_recent_license_date":null}},"nearbyList":[{"establishmentid":"51622745","name":"Sloppy Chops","address":"13226 W. McNichols","zipcode":"48235"},{"establishmentid":"1150","name":"Pearl's Dining","address":"13308 McNichols Rd. W.","zipcode":"48235"},{"establishmentid":"2362","name":"Shirley Nelson's E & S Carryout","address":"13400 McNichols Rd. W.","zipcode":"48235"},{"establishmentid":"2875","name":"Blue Plate Diner","address":"17164 Schaefer","zipcode":"48235"},{"establishmentid":"5341","name":"QuickFire Grille","address":"6001 Outer Dr. W.","zipcode":"48235"},{"establishmentid":"51623567","name":"New Detroit 6 & Littlefield Food Plaza","address":"13241 McNichols W.","zipcode":"48235"},{"establishmentid":"1862","name":"MS DEB'S ICE CREAM","address":"13245 MCNICHOLS W.","zipcode":"48235"},{"establishmentid":"5163","name":"Brown's Kitchen","address":"17150 Schaefer Hwy.","zipcode":"48235"},{"establishmentid":"3896","name":"Gwen's Express Carry Out","address":"18320 James Couzens","zipcode":"48235"},{"establishmentid":"2578","name":"Expressway Carryout","address":"18320 James Couzens","zipcode":"48235"}],"inspectionsByEstablishmentidList":[{"inspectionid":"55072","inspectionDate":"2021-06-16T00:00:00","inspectionType":"Preopening/New","inCompliance":"No","violationsByInspectionidList":[{"violationCode":"5-103.11","violationDescription":"(A) The water source and system shall be of sufficient capacity to meet the peak water demands of the FOOD ESTABLISHMENT. (Pf)\n(B) Hot water generation and distribution systems shall be sufficient to meet the peak hot water demands throughout the FOOD ESTABLISHMENT. (Pf)\n","violationType":"Foundation","itemDescription":null,"subItem":"","problemDescription":null,"subProblem":"","location":"","subLocation":"","corrected":"False","daysToCorrect":"10","correctedDate":null,"correctionDescription":null},{"violationCode":"4-204.112","violationDescription":"(A)  In a mechanically refrigerated or hot FOOD storage unit, the sensor of a TEMPERATURE MEASURING DEVICE shall be located to measure the air temperature in the warmest part of a mechanically refrigerated unit and in the coolest part of a hot FOOD storage unit.\n(B)  Cold or hot holding EQUIPMENT used for POTENTIALLY HAZARDOUS FOOD shall be designed to include and shall be equipped with at least one integral or permanently affixed TEMPERATURE MEASURING DEVICE that is located to allow easy viewing of the device's temperature display (EXCEPT, heat lamps, cold plates, steam tables, or other equipment where it is not practical).\n(C)  TEMPERATURE MEASURING DEVICES shall be designed to be easily readable.\n(D)  FOOD TEMPERATURE MEASURING DEVICES and water TEMPERATURE MEASURING DEVICES on WAREWASHING machines shall have a numerical scale, printed record, or digital readout in increments no greater than 1C or 2F in the intended range of use. (Pf)\n\n","violationType":"Core","itemDescription":null,"subItem":"","problemDescription":null,"subProblem":"","location":"","subLocation":"","corrected":"False","daysToCorrect":"10","correctedDate":null,"correctionDescription":null},{"violationCode":"6-201.11","violationDescription":"Except otherwise approved, and except for antislip floor coverings or applications may be used for safety reasons, floors, floor coverings, walls, wall coverings, and ceilings shall be designed, constructed, and installed so they are SMOOTH and EASILY CLEANABLE.\n","violationType":"Core","itemDescription":null,"subItem":"","problemDescription":null,"subProblem":"","location":"","subLocation":"","corrected":"False","daysToCorrect":"30","correctedDate":null,"correctionDescription":null},{"violationCode":"4-402.11","violationDescription":"EQUIPMENT that is fixed because it is not EASILY MOVABLE shall be installed so that it is spaced to allow access for cleaning along the sides, behind, and above the EQUIPMENT or sealed as required,  COUNTER-MOUNTED EQUIPMENT that is not EASILY MOVABLE shall be installed to allow cleaning of the EQUIPMENT and areas underneath and around the EQUIPMENT .\n","violationType":"Core","itemDescription":null,"subItem":"","problemDescription":null,"subProblem":"","location":"","subLocation":"","corrected":"False","daysToCorrect":"30","correctedDate":null,"correctionDescription":null}]}]}],"maxInspectionDate":[{"inspectionDate":"2023-04-13T00:00:00"}]}},"pageContext":{"eid":"51623398"}},"staticQueryHashes":["3649515864","63159454"]}