{"componentChunkName":"component---src-templates-establishment-page-js","path":"/establishment/51623061","result":{"data":{"site":{"pathPrefix":"/restaurant-inspections"},"postgres":{"establishment":[{"establishmentid":"51623061","name":"Motor City Java House","address":"17336 Lahser","zipcode":"48219","owner":"Alicia George","licenseNumber":"238100","licenseType":"Fixed Establishment","establishmentType":"Food Service Establishment","establishmentStatus":"Open","riskCategory":null,"reviewFrequencyDays":"180","coords":"-83.25719,42.41721","geojson":{"id":"51623061","type":"Feature","geometry":{"type":"Point","coordinates":[-83.25719451,42.41720962]},"properties":{"name":"Motor City Java House","owner":"Alicia George","address":"17336 Lahser","zipcode":"48219","license_type":"Fixed Establishment","risk_category":null,"license_number":"238100","establishmentid":"51623061","establishment_type":"Food Service Establishment","establishment_status":"Open","review_frequency_days":"180","most_recent_license_date":null}},"nearbyList":[{"establishmentid":"4962","name":"Motor City Java & Tea House LLC","address":"17336 Lahser Rd","zipcode":"48219"},{"establishmentid":"4422","name":"Motor City Java House","address":"17336 Lahser Rd.","zipcode":"48219"},{"establishmentid":"3593","name":"Redford Theater","address":"17360  Lahser Rd.","zipcode":"48219"},{"establishmentid":"4722","name":"Sweet Potato Sensation","address":"17346 Lahser","zipcode":null},{"establishmentid":"5026","name":"Old Redford Kitchen & Cafe","address":"21733 Grand River W.","zipcode":"48219"},{"establishmentid":"4249","name":"Crazy Joe's Pizza","address":"22019 Grand River Ave.","zipcode":"48219"},{"establishmentid":"51623185","name":"Grub Detroit","address":"17442 Lahser","zipcode":"48219"},{"establishmentid":"2284","name":"Frank's Creative Catering","address":"17405 Lahser Ave. Suite 100","zipcode":"48219"},{"establishmentid":"4490","name":"Old Redford Community Development  LLC","address":"17405 Lahser","zipcode":"48219"},{"establishmentid":"2218","name":"JMC Inc VII dba McDonalds","address":"21640 Grand River Ave.","zipcode":"48219"}],"inspectionsByEstablishmentidList":[{"inspectionid":"61662","inspectionDate":"2023-02-22T00:00:00","inspectionType":"Routine Inspection","inCompliance":"Yes","violationsByInspectionidList":[]},{"inspectionid":"59349","inspectionDate":"2022-05-04T00:00:00","inspectionType":"Routine Inspection","inCompliance":"Yes","violationsByInspectionidList":[]},{"inspectionid":"54930","inspectionDate":"2021-05-19T00:00:00","inspectionType":"Routine Inspection","inCompliance":"Yes","violationsByInspectionidList":[]},{"inspectionid":"50846","inspectionDate":"2020-02-18T00:00:00","inspectionType":"Routine Inspection","inCompliance":"Yes","violationsByInspectionidList":[{"violationCode":"3-101.11","violationDescription":"FOOD shall be safe, unADULTERATED and honestly presented. (P)\n","violationType":"Priority","itemDescription":"Food","subItem":"","problemDescription":"Not safe","subProblem":"","location":"KITCHEN","subLocation":"","corrected":"True","daysToCorrect":"10","correctedDate":"2020-02-19T00:00:00","correctionDescription":null},{"violationCode":"7-102.11","violationDescription":"Working containers used for storing POISONOUS OR TOXIC MATERIALS such as cleaners and SANITIZERS taken from bulk supplies shall be clearly and individually identified with the common name of the material. (Pf)\n","violationType":"Foundation","itemDescription":"Working containers-toxics","subItem":"cleaner","problemDescription":"Not labeled as to content","subProblem":"","location":"3 COMPARTMENT SINK AREA","subLocation":"","corrected":"True","daysToCorrect":"10","correctedDate":"2020-02-19T00:00:00","correctionDescription":null}]},{"inspectionid":"50852","inspectionDate":"2019-07-08T00:00:00","inspectionType":"Routine Inspection","inCompliance":"No","violationsByInspectionidList":[{"violationCode":"4-302.14","violationDescription":"A test kit or other device that accurately measures the concentration in mg/L of SANITIZING solutions shall be provided. (Pf)\n","violationType":"Foundation","itemDescription":"Sanitizer test kit","subItem":"chlorine","problemDescription":"Not provided","subProblem":"At hand sink","location":"3 COMPARTMENT SINK AREA","subLocation":"","corrected":"False","daysToCorrect":"10","correctedDate":null,"correctionDescription":null}]}]}],"maxInspectionDate":[{"inspectionDate":"2023-04-25T00:00:00"}]}},"pageContext":{"eid":"51623061"}},"staticQueryHashes":["3649515864","63159454"]}