{"componentChunkName":"component---src-templates-establishment-page-js","path":"/establishment/51623917","result":{"data":{"site":{"pathPrefix":"/restaurant-inspections"},"postgres":{"establishment":[{"establishmentid":"51623917","name":"Vik's Coney Island","address":"21370 McNichols W.","zipcode":"48219","owner":"Viktor Gjykaj","licenseNumber":"351170","licenseType":"Fixed Establishment","establishmentType":"Food Service Establishment","establishmentStatus":"Open","riskCategory":"High","reviewFrequencyDays":"150","coords":"-83.25248,42.41517","geojson":{"id":"51623917","type":"Feature","geometry":{"type":"Point","coordinates":[-83.252479621,42.41517207]},"properties":{"name":"Vik's Coney Island","owner":"Viktor Gjykaj","address":"21370 McNichols W.","zipcode":"48219","license_type":"Fixed Establishment","risk_category":"High","license_number":"351170","establishmentid":"51623917","establishment_type":"Food Service Establishment","establishment_status":"Open","review_frequency_days":"150","most_recent_license_date":null}},"nearbyList":[{"establishmentid":"51623246","name":"Detroit's Finest Coney Island","address":"21370 McNichols","zipcode":"48219"},{"establishmentid":"51623542","name":"Bella's Chicken and Waffles","address":"21370 McNichols W.","zipcode":"48219"},{"establishmentid":"5424","name":"China House ","address":"21427  Grand River","zipcode":"48219"},{"establishmentid":"2138","name":"Delonda's Hot Dogs & Snacks","address":"17177 Bentler","zipcode":"48219"},{"establishmentid":"712","name":"Albert's Hamburgers","address":"21576 Grand River Ave.","zipcode":"48219"},{"establishmentid":"2248","name":"Subway #12448 ","address":"21559 Grand River Ave.","zipcode":"48219"},{"establishmentid":"5177","name":"Asian Corned Beef","address":"21559 Grand River","zipcode":"48219"},{"establishmentid":"216","name":"Prince Pizza","address":"21227 Grand River Ave.","zipcode":"48219"},{"establishmentid":"4250","name":"Sloppy Fingers Bar-B-Que & Soul Food","address":"21611 Grand River Ave.","zipcode":"48219"},{"establishmentid":"4320","name":"Simply Soul","address":"21611 Grand River Ave.","zipcode":"48219"}],"inspectionsByEstablishmentidList":[{"inspectionid":"61906","inspectionDate":"2023-03-22T00:00:00","inspectionType":"Routine Inspection","inCompliance":"Yes","violationsByInspectionidList":[{"violationCode":"3-501.17","violationDescription":"(A)  READY-TO-EAT, POTENTIALLY HAZARDOUS FOOD (TIME/TEMPERATURE CONTROL FOR SAFETY FOOD)  prepared and held refrigerated for more than 24 hours in a FOOD ESTABLISHMENT  shall be clearly marked at the time of preparation to indicate the date or day by which the FOOD shall be consumed. (Pf)\n(B)  A container of refrigerated, commercially prepared READY-TO-EAT POTENTIALLY HAZARDOUS FOOD (TIME/TEMPERATURE CONTROL FOR SAFETY FOOD)  shall be clearly marked, at the time the original container is opened in a FOOD ESTABLISHMENT, to indicate the date or day by which the FOOD shall be consumed. (Pf)\n\nA date marking system that does not exceed 7 days, including date of preparation, or opening is to be used. (Pf)\n","violationType":"Foundation","itemDescription":"In house prepared ready-to-eat potentially hazardous  food(s)","subItem":"","problemDescription":"Without date of consumption marking","subProblem":"","location":"WALK-IN COOLER","subLocation":"","corrected":"True","daysToCorrect":"10","correctedDate":"0001-01-01T00:00:00","correctionDescription":null},{"violationCode":"3-304.12","violationDescription":"During pauses in FOOD preparation or dispensing, UTENSILS shall be stored:\n(A) In the FOOD with their handles above the top of the FOOD and the container;\n(B) In FOOD that is not POTENTIALLY HAZARDOUS with their handles above the      top of the FOOD within containers or EQUIPMENT that can be closed, such as      bins of sugar, flour, or cinnamon;\n(C) On a clean portion of the FOOD preparation table or cooking EQUIPMENT\n(D)  In running water, such as dipper well.\n(E)  In a clean, protected location if the UTENSILS, such as ice scoops, are   used only with a FOOD that is not POTENTIALLY HAZARDOUS; or\n(F)  In a container of water maintained at a temperature of at least 135Â° F.\n","violationType":"Core","itemDescription":"Dispensing utensil(s)","subItem":"","problemDescription":"Improperly stored","subProblem":"With handle in product","location":"BACK PREPARATION AREA","subLocation":"","corrected":"True","daysToCorrect":"30","correctedDate":"0001-01-01T00:00:00","correctionDescription":null}]}]}],"maxInspectionDate":[{"inspectionDate":"2023-04-13T00:00:00"}]}},"pageContext":{"eid":"51623917"}},"staticQueryHashes":["3649515864","63159454"]}