{"componentChunkName":"component---src-templates-establishment-page-js","path":"/establishment/51623326","result":{"data":{"site":{"pathPrefix":"/restaurant-inspections"},"postgres":{"establishment":[{"establishmentid":"51623326","name":"East Eats","address":"1018 Navahoe","zipcode":"48215","owner":"Tiny Dine LLC/Lloyd Talley","licenseNumber":"PS101620","licenseType":"Fixed Establishment","establishmentType":"Food Service Establishment","establishmentStatus":"Open","riskCategory":"Medium","reviewFrequencyDays":"150","coords":"-82.95727,42.36944","geojson":{"id":"51623326","type":"Feature","geometry":{"type":"Point","coordinates":[-82.957266661,42.369443689]},"properties":{"name":"East Eats","owner":"Tiny Dine LLC/Lloyd Talley","address":"1018 Navahoe","zipcode":"48215","license_type":"Fixed Establishment","risk_category":"Medium","license_number":"PS101620","establishmentid":"51623326","establishment_type":"Food Service Establishment","establishment_status":"Open","review_frequency_days":"150","most_recent_license_date":"1/27/2021"}},"nearbyList":[{"establishmentid":"51623756","name":"East Eats ","address":"1018 Navahoe St ","zipcode":null},{"establishmentid":"1391","name":"Joseph's Coney Island","address":"12500 Jefferson Ave. E.","zipcode":"48215"},{"establishmentid":"5139","name":"Historic Eastlake Baptist Church","address":"12440 Jefferson, E.","zipcode":"48215"},{"establishmentid":"3516","name":"SOUTHSHORE EDUCATIONAL CENTER","address":"1021 Clairpointe","zipcode":"48213"},{"establishmentid":"1952","name":"Historic Eastlake Church","address":"12400 Jefferson Ave. E.","zipcode":"48215"},{"establishmentid":"3259","name":"Eastlake Men's Cafe","address":"12400 Jefferson E.","zipcode":"48214"},{"establishmentid":"3045","name":"Total Vending","address":"11851 Freud","zipcode":"48214"},{"establishmentid":"4500","name":"All Star Services","address":"11851 Freud St.","zipcode":"48214"},{"establishmentid":"349","name":"Jimmie Coopers Bar Inc.","address":"12625 Kercheval","zipcode":"48215"},{"establishmentid":"4440","name":"Jimmie's Lounge","address":"12625  Kercheval","zipcode":"48215"}],"inspectionsByEstablishmentidList":[{"inspectionid":"54053","inspectionDate":"2021-01-27T00:00:00","inspectionType":"Preopening/New","inCompliance":"Yes","violationsByInspectionidList":[{"violationCode":"6-301.14","violationDescription":"A sign or poster that notifies FOOD EMPLOYEES to wash their hands shall be provided at all HANDWASHING SINKS used by FOOD EMPLOYEES and shall be clearly visible to FOOD EMPLOYEES.\n","violationType":"Core","itemDescription":"Handwashing signage","subItem":null,"problemDescription":"Not provided","subProblem":"At hand sink","location":"OUTSIDE","subLocation":"Missing Hand washing signage","corrected":"False","daysToCorrect":"30","correctedDate":null,"correctionDescription":"Provide"},{"violationCode":"5-501.15","violationDescription":"(A) Receptacles and waste handling units for REFUSE, recyclables, and returnables used with materials containing FOOD residue and used outside the FOOD ESTABLISHMENT shall be designed and constructed to have tight-fitting lids, doors, or covers.\n(B) Receptacles and waste handling units for REFUSE and recyclables such as an on-site compactor shall be installed so that accumulation of debris and insect and rodent attraction and harborage are minimized and effective cleaning is facilitated around and, if the unit is not installed flush with the base pad, under the unit.\n","violationType":"Core","itemDescription":"Waste receptacle(s)","subItem":"dumpster","problemDescription":"With doors,lids or covers","subProblem":null,"location":"OUTSIDE","subLocation":"At the Garbage dumpster","corrected":"True","daysToCorrect":"30","correctedDate":"2021-02-11T00:00:00","correctionDescription":null}]}]}],"maxInspectionDate":[{"inspectionDate":"2022-08-31T00:00:00"}]}},"pageContext":{"eid":"51623326"}},"staticQueryHashes":["3649515864","63159454"]}