{"data":{"postgres":{"establishment":[{"establishmentid":"1992","name":"Domino's Pizza","address":"17140 E Warren Ave","zipcode":"48224","owner":"East Warren Pizza, LLC","licenseNumber":"072450","licenseType":"Fixed Establishment","establishmentType":"Food Service Establishment","establishmentStatus":"Open","riskCategory":null,"reviewFrequencyDays":"365.0","coords":"-82.92879,42.40620","geojson":{"id":"1992","type":"Feature","geometry":{"type":"Point","coordinates":[-82.928791707,42.406197723]},"properties":{"name":"Domino's Pizza","owner":"East Warren Pizza, LLC","address":"17140 E Warren Ave","zipcode":"48224","license_type":"Fixed Establishment","risk_category":null,"license_number":"072450","establishmentid":"1992","establishment_type":"Food Service Establishment","establishment_status":"Open","review_frequency_days":"365.0","most_recent_license_date":"4/27/2018"}},"nearbyList":[{"establishmentid":"51622709","name":"Wing Snob Detroit","address":"17101 E Warren Ave","zipcode":"48224"},{"establishmentid":"51622784","name":"York Sussex Partners","address":"17017 E Warren","zipcode":"48224"},{"establishmentid":"5172","name":"Danny's Diner","address":"17017 E Warren","zipcode":"48224"},{"establishmentid":"4412","name":"East English Village Preparatory Academy","address":"5020 Cadieux","zipcode":"48224"},{"establishmentid":"2268","name":"High Noon Saloon","address":"17339 E Warren Ave","zipcode":"48224"},{"establishmentid":"418","name":"East English Village Bar & Grill","address":"16915 E Warren Ave","zipcode":"48224"},{"establishmentid":"1068","name":"Burger King","address":"17440 E Warren Ave","zipcode":"48224"},{"establishmentid":"2466","name":"Pizza Hut #26290","address":"16835 E Warren Ave","zipcode":"48224"},{"establishmentid":"318","name":"Cadieux Cafe","address":"4300 Cadieux  Rd","zipcode":"48224"},{"establishmentid":"4467","name":"Big Burgzs","address":"17627 E Warren","zipcode":"48224"}],"inspectionsByEstablishmentidList":[{"inspectionid":"43734","inspectionDate":"2018-10-13T00:00:00","inspectionType":"Routine Inspection","inCompliance":"Yes","violationsByInspectionidList":[{"violationCode":"4-602.13","violationDescription":"NonFOOD-CONTACT SURFACES of EQUIPMENT shall be cleaned at a frequency necessary to preclude accumulation of soil residues.\r\n","violationType":"Core","itemDescription":"Nonfood contact surface(s)","subItem":"","problemDescription":"With accumulation of debris","subProblem":"","location":"FOOD PREP.","subLocation":"At the Pizza oven","corrected":"Not required","daysToCorrect":"30.0","correctedDate":null,"correctionDescription":"Keep clean."},{"violationCode":"4-202.18","violationDescription":"Filters or other grease extracting EQUIPMENT shall be designed to be readily removable for cleaning and replacement if not designed to be cleaned in place.\r\n","violationType":"Core","itemDescription":"Ventilation hood filter(s)","subItem":"","problemDescription":null,"subProblem":"","location":"FOOD PREP.","subLocation":"At the Pizza oven","corrected":"Not required","daysToCorrect":"30.0","correctedDate":null,"correctionDescription":null},{"violationCode":"6-202.14","violationDescription":"Except as otherwise allowed, a toilet room located on the PREMISES shall be completely enclosed and provided with a tight-fitting and self-closing door. \r\n","violationType":"Core","itemDescription":"Toilet room(s)","subItem":"employee","problemDescription":"Not provided with","subProblem":"Self-closing door","location":"RESTROOM (EMPLOYEE)","subLocation":"Missing Self-closing device","corrected":"Not required","daysToCorrect":"30.0","correctedDate":null,"correctionDescription":"Provide self-closing door."},{"violationCode":"4-501.11","violationDescription":"EQUIPMENT shall be maintained in a state of repair and condition that meets the requirements of the code.\r\n","violationType":"Core","itemDescription":"Equipment components","subItem":"","problemDescription":"In poor repair","subProblem":"","location":"WALK-IN COOLER","subLocation":"Inside the WALK-IN COOLER","corrected":"Not required","daysToCorrect":"30.0","correctedDate":null,"correctionDescription":null}]},{"inspectionid":"40519","inspectionDate":"2017-10-20T00:00:00","inspectionType":"Routine Inspection","inCompliance":"Yes","violationsByInspectionidList":[{"violationCode":"6-202.14","violationDescription":"Except as otherwise allowed, a toilet room located on the PREMISES shall be completely enclosed and provided with a tight-fitting and self-closing door. \r\n","violationType":"Core","itemDescription":"Toilet room door(s)","subItem":"","problemDescription":null,"subProblem":"","location":"RESTROOM (EMPLOYEE)","subLocation":"At the Self-closing device","corrected":"Not required","daysToCorrect":"30.0","correctedDate":null,"correctionDescription":null}]},{"inspectionid":"36690","inspectionDate":"2016-10-07T00:00:00","inspectionType":"Routine Inspection","inCompliance":"Yes","violationsByInspectionidList":[{"violationCode":"4-302.14","violationDescription":"A test kit or other device that accurately measures the concentration in mg/L of SANITIZING solutions shall be provided. (Pf)\r\n","violationType":"Foundation","itemDescription":"Sanitizer test kit","subItem":"","problemDescription":"Not provided","subProblem":"","location":"RESTAURANT","subLocation":"No Test strips","corrected":"Yes","daysToCorrect":"10.0","correctedDate":"2016-10-17T00:00:00","correctionDescription":"Provide as required"}]}]}]}},"pageContext":{"eid":"1992"}}