{"data":{"site":{"pathPrefix":"/restaurant-inspections"},"postgres":{"establishment":[{"establishmentid":"51622877","name":"Element Detroit at the Metro- Banquets","address":"33 John R Ave","zipcode":"48226","owner":"Metropolitan Master Tenant LLC","licenseNumber":"238183","licenseType":"Fixed Establishment","establishmentType":"Food Service Establishment","establishmentStatus":"Open","riskCategory":"High","reviewFrequencyDays":"180","coords":"-83.04886,42.33545","geojson":{"id":"51622877","type":"Feature","geometry":{"type":"Point","coordinates":[-83.048859699,42.335453491]},"properties":{"name":"Element Detroit at the Metro- Banquets","owner":"Metropolitan Master Tenant LLC","address":"33 John R Ave","zipcode":"48226","license_type":"Fixed Establishment","risk_category":"High","license_number":"238183","establishmentid":"51622877","establishment_type":"Food Service Establishment","establishment_status":"Open","review_frequency_days":"180","most_recent_license_date":"5/19/2020"}},"nearbyList":[{"establishmentid":"51622878","name":"Element Detroit at the Metropolitan 1A","address":"33 John R Ave","zipcode":"48226"},{"establishmentid":"51622965","name":"The Monarch Club","address":"33 John R","zipcode":"48226"},{"establishmentid":"51622844","name":"Paramita Sound","address":"1515 Broadway Suite C","zipcode":"48226"},{"establishmentid":"51622822","name":"Sid Gold's Request Room","address":"1515 Broadway St","zipcode":"48226"},{"establishmentid":"51622594","name":"Albena- Taste Everything LLC","address":"1509 Broadway St","zipcode":"48226"},{"establishmentid":"51622595","name":"The Wurlitzer MT DBA Candy Bar","address":"1509 Broadway St","zipcode":"48226"},{"establishmentid":"51622842","name":"HMWW Food LLC dba Karl's The Siren ","address":"1509 Broadway St","zipcode":"48226"},{"establishmentid":"51622592","name":"1509 Populace LLC","address":"1509 Broadway St","zipcode":"48226"},{"establishmentid":"4373","name":"Small Plates LLC","address":"1521 Broadway St","zipcode":"48226"},{"establishmentid":"4843","name":"Wright & Co.","address":"1500 Woodward Ave","zipcode":"48226"}],"inspectionsByEstablishmentidList":[{"inspectionid":"50632","inspectionDate":"2020-01-31T00:00:00","inspectionType":"Routine Inspection","inCompliance":"No","violationsByInspectionidList":[{"violationCode":"4-601.11","violationDescription":"(A) EQUIPMENT FOOD-CONTACT SURFACES and UTENSILS shall be clean to sight and touch. (Pf)\r\n(B) The FOOD-CONTACT SURFACES of cooking EQUIPMENT and pans shall be kept free of encrusted grease deposits and other soil accumulations. \r\n(C) NonFOOD-CONTACT SURFACES of EQUIPMENT shall be kept free of an accumulation of dust, dirt, FOOD residue, and other debris. \r\n","violationType":"Foundation","itemDescription":"Food-contact surface(s)","subItem":"Equipment can openers","problemDescription":"Soiled","subProblem":"","location":"PREP AREA(S)","subLocation":"At the Can opener","corrected":"No","daysToCorrect":"10","correctedDate":null,"correctionDescription":null},{"violationCode":"4-302.14","violationDescription":"A test kit or other device that accurately measures the concentration in mg/L of SANITIZING solutions shall be provided. (Pf)\r\n","violationType":"Foundation","itemDescription":"Sanitizer test kit","subItem":"","problemDescription":"Not provided","subProblem":"","location":"DISHWASHING AREA","subLocation":"and the Prep area","corrected":"No","daysToCorrect":"10","correctedDate":null,"correctionDescription":null},{"violationCode":"MFL289.4119","violationDescription":"Sec. 4119. (1) Except as otherwise provided in subsection (2), a person licensed as a food establishment under this chapter shall keep a copy of the current license or temporary license furnished by the department posted and exposed in a conspicuous place for public inspection. A conspicuous place is the principal place where food business is transacted.  (2) In the case of vending machines, the name and address and telephone number of the current vending machine location operator shall be conspicuously displayed on each vending machine.","violationType":"Core","itemDescription":"Food Service License","subItem":"","problemDescription":"Not displayed","subProblem":"","location":"FACILITY","subLocation":"","corrected":"Not required","daysToCorrect":"30","correctedDate":null,"correctionDescription":null}]},{"inspectionid":"47861","inspectionDate":"2019-05-24T00:00:00","inspectionType":"Preopening/New","inCompliance":"Yes","violationsByInspectionidList":[{"violationCode":"4-402.11","violationDescription":"EQUIPMENT that is fixed because it is not EASILY MOVABLE shall be installed so that it is spaced to allow access for cleaning along the sides, behind, and above the EQUIPMENT or sealed as required,  COUNTER-MOUNTED EQUIPMENT that is not EASILY MOVABLE shall be installed to allow cleaning of the EQUIPMENT and areas underneath and around the EQUIPMENT .\r\n","violationType":"Core","itemDescription":"Fixed equipment","subItem":"","problemDescription":"Not sealed to adjoining","subProblem":"Wall(s)","location":"VENTILATION HOOD SYSTEM","subLocation":"","corrected":"Not required","daysToCorrect":"30","correctedDate":null,"correctionDescription":null},{"violationCode":"5-205.15","violationDescription":"A PLUMBING SYSTEM shall be:\r\n(A) Repaired according to LAW; (P) and\r\n(B) Maintained in good repair.\r\n","violationType":"Core","itemDescription":"Plumbing system","subItem":"drain line(s)","problemDescription":"Not repaired according to law","subProblem":"","location":"3 COMPARTMENT SINK AREA","subLocation":"","corrected":"Not required","daysToCorrect":"10","correctedDate":null,"correctionDescription":null}]}]}],"maxInspectionDate":[{"inspectionDate":"2020-05-29T00:00:00"}]}},"pageContext":{"eid":"51622877"}}