{"componentChunkName":"component---src-templates-establishment-page-js","path":"/establishment/1433","result":{"data":{"site":{"pathPrefix":"/restaurant-inspections"},"postgres":{"establishment":[{"establishmentid":"1433","name":"Fisher Middle School","address":"10125 King Richard","zipcode":"48224","owner":"p","licenseNumber":"035612","licenseType":"Fixed Establishment","establishmentType":"Public School","establishmentStatus":"Permanently Closed","riskCategory":null,"reviewFrequencyDays":"150","coords":"-82.94255,42.41878","geojson":{"id":"1433","type":"Feature","geometry":{"type":"Point","coordinates":[-82.942546463,42.418777536]},"properties":{"name":"Fisher Middle School","owner":"p","address":"10125 King Richard","zipcode":"48224","license_type":"Fixed Establishment","risk_category":null,"license_number":"035612","establishmentid":"1433","establishment_type":"Public School","establishment_status":"Permanently Closed","review_frequency_days":"150","most_recent_license_date":"4/12/2006"}},"nearbyList":[{"establishmentid":"4430","name":"Franks 'N' Dranks","address":"10535  McKinney","zipcode":"48224"},{"establishmentid":"1417","name":"All American Coney Island","address":"11001 Morang Dr.","zipcode":"48224"},{"establishmentid":"51622809","name":"Valentino's Deluxe ","address":"11001 Morang","zipcode":"48224"},{"establishmentid":"1671","name":"Happy's Pizza #3","address":"11025 Morang Dr.","zipcode":"48234"},{"establishmentid":"2382","name":"Cafe Pharoahs Inc.","address":"10021 Cadieux","zipcode":"48224"},{"establishmentid":"4858","name":"Larry's","address":"10630 Morang St.","zipcode":"48224"},{"establishmentid":"51623230","name":"Good Vibes Lounge","address":"16801 Harper","zipcode":"48224"},{"establishmentid":"465","name":"Firewater Bar & Grill","address":"16801 Harper Ave.","zipcode":"48224"},{"establishmentid":"2162","name":"White Castle #59","address":"16701 Harper Ave. ","zipcode":"48224"},{"establishmentid":"3738","name":"Popeye's #941","address":"16701 Harper Ave.","zipcode":"48205"}],"inspectionsByEstablishmentidList":[{"inspectionid":"49894","inspectionDate":"2019-06-11T00:00:00","inspectionType":"Routine Inspection","inCompliance":"No","violationsByInspectionidList":[{"violationCode":"6-501.11","violationDescription":"PHYSICAL FACILITIES shall be maintained in good repair.\n","violationType":"Core","itemDescription":"Physical facilities","subItem":"","problemDescription":"In poor repair","subProblem":"","location":"KITCHEN","subLocation":"","corrected":"False","daysToCorrect":"30","correctedDate":null,"correctionDescription":null},{"violationCode":"4-101.11","violationDescription":"Materials that are used in the construction of UTENSILS and FOOD-CONTACT SURFACES of EQUIPMENT  shall be :\n(A) Safe;(P)\n(B) Durable, CORROSION-RESISTANT, and nonabsorbent;\n(C) Sufficient in weight and thickness to withstand repeated WAREWASHING;\n(D) Finished to have a SMOOTH, EASILY CLEANABLE surface; and \n(E) Resistant to pitting, chipping, crazing, scratching, scoring, distortion, and  decomposition.\n","violationType":"Core","itemDescription":"Food-contact surface(s) and utensils","subItem":"","problemDescription":"Constructed from materials that are not","subProblem":"Finished to be smooth & easily cleanable","location":"HANDSINK(S)","subLocation":"","corrected":"False","daysToCorrect":"10","correctedDate":null,"correctionDescription":null}]},{"inspectionid":"49893","inspectionDate":"2019-06-11T00:00:00","inspectionType":"Routine Inspection","inCompliance":"Yes","violationsByInspectionidList":[]},{"inspectionid":"49895","inspectionDate":"2019-06-11T00:00:00","inspectionType":"Routine Inspection","inCompliance":"Yes","violationsByInspectionidList":[]}]}],"maxInspectionDate":[{"inspectionDate":"2023-04-13T00:00:00"}]}},"pageContext":{"eid":"1433"}},"staticQueryHashes":["3649515864","63159454"]}