{"data":{"site":{"pathPrefix":"/restaurant-inspections"},"postgres":{"establishment":[{"establishmentid":"1523","name":"Latin American Social Ed. Development","address":"7150 W Vernor","zipcode":"48209","owner":"Latin American for Social Inc","licenseNumber":"081274","licenseType":"Fixed Establishment","establishmentType":"Food Service Establishment","establishmentStatus":"Open","riskCategory":null,"reviewFrequencyDays":"180","coords":"-83.12056,42.31446","geojson":{"id":"1523","type":"Feature","geometry":{"type":"Point","coordinates":[-83.120563645,42.314459283]},"properties":{"name":"Latin American Social Ed. Development","owner":"Latin American for Social Inc","address":"7150 W Vernor","zipcode":"48209","license_type":"Fixed Establishment","risk_category":null,"license_number":"081274","establishmentid":"1523","establishment_type":"Food Service Establishment","establishment_status":"Open","review_frequency_days":"180","most_recent_license_date":"6/30/2020"}},"nearbyList":[{"establishmentid":"454","name":"Taqueria Los Altos","address":"7056 W Vernor","zipcode":"48209"},{"establishmentid":"1494","name":"J & J Coney Island #3","address":"7220 W Vernor","zipcode":"48209"},{"establishmentid":"4792","name":"Las Palmas Neveria Y Cafeteria","address":"7009 W Vernor","zipcode":"48209"},{"establishmentid":"201","name":"Taqueria El Nacimiento","address":"7400 W Vernor","zipcode":"48209"},{"establishmentid":"51623109","name":"Ice Cream & Cafe La Niña","address":"7431 W Vernor","zipcode":"48209"},{"establishmentid":"3858","name":"Pollos Los Gallos","address":"7135 Dix Ave","zipcode":"48209"},{"establishmentid":"4358","name":"Domino's Pizza","address":"7603 W Vernor","zipcode":"48209"},{"establishmentid":"1342","name":"Restaurant Nuestra Familia","address":"7620 W Vernor","zipcode":"48209"},{"establishmentid":"279","name":"Pauls Pizzeria","address":"7635 W Vernor","zipcode":"48209"},{"establishmentid":"51623131","name":"Ice Cream & Cafe La Niña","address":"2257 Waterman St","zipcode":"48209"}],"inspectionsByEstablishmentidList":[{"inspectionid":"44273","inspectionDate":"2018-11-29T00:00:00","inspectionType":"Routine Inspection","inCompliance":"Yes","violationsByInspectionidList":[{"violationCode":"MFL289.2129","violationDescription":"Sec. 2129. (1) All food establishments shall employ a minimum of 1 managerial employee as a food safety manager, who must be an individual who is currently certified under a personnel certification program accredited by the American National Standards Institute, utilizing the Conference for Food Protection standards:\r\n(2) Beginning January 14, 2017 and every 5 years thereafter, a certified  food safety manager who supervises the operations of a food service establishment shall have completed a food safety training program\r\ncontaining an allergen awareness  component that has been approved by  the department. A food service establishment shall retain records on the  site of the food service establishment documenting compliance of its  certified food safety managers with this subsection. ","violationType":"Core","itemDescription":"Person-in-charge","subItem":"","problemDescription":null,"subProblem":"","location":"ESTABLISHMENT","subLocation":"","corrected":"Not required","daysToCorrect":"30","correctedDate":null,"correctionDescription":null}]},{"inspectionid":"40798","inspectionDate":"2017-11-08T00:00:00","inspectionType":"Routine Inspection","inCompliance":"Yes","violationsByInspectionidList":[{"violationCode":"4-302.14","violationDescription":"A test kit or other device that accurately measures the concentration in mg/L of SANITIZING solutions shall be provided. (Pf)\r\n","violationType":"Foundation","itemDescription":"Sanitizer test kit","subItem":"","problemDescription":"Not provided","subProblem":"","location":"ESTABLISHMENT","subLocation":"Across from the ","corrected":"Yes","daysToCorrect":"10","correctedDate":"2017-11-08T00:00:00","correctionDescription":"Provide."}]}]}],"maxInspectionDate":[{"inspectionDate":"2020-10-30T00:00:00"}]}},"pageContext":{"eid":"1523"}}