{"data":{"site":{"pathPrefix":"/restaurant-inspections"},"postgres":{"establishment":[{"establishmentid":"4097","name":"Subway","address":"11435 Kelly Road","zipcode":"48224","owner":"Maysser Mikhail","licenseNumber":"208237","licenseType":"Fixed Establishment","establishmentType":"Food Service Establishment","establishmentStatus":"Permanently Closed","riskCategory":null,"reviewFrequencyDays":"365.0","coords":"-82.96434,42.41976","geojson":{"id":"4097","type":"Feature","geometry":{"type":"Point","coordinates":[-82.9643385319999,42.419762975]},"properties":{"name":"Subway","owner":"Maysser Mikhail","address":"11435 Kelly Road","zipcode":"48224","license_type":"Fixed Establishment","risk_category":null,"license_number":"208237","establishmentid":"4097","establishment_type":"Food Service Establishment","establishment_status":"Permanently Closed","review_frequency_days":"365.0","most_recent_license_date":"10/31/2016"}},"nearbyList":[{"establishmentid":"3309","name":"Wendy's Old Fashioned Hamburgers","address":"19100 Kelly Rd","zipcode":"48224"},{"establishmentid":"1019","name":"Little Caesar's Pizza #90","address":"19190 Kelly Rd","zipcode":"48224"},{"establishmentid":"1734","name":"Empire Lounge","address":"15000 Houston-Whittier","zipcode":"48205"},{"establishmentid":"4888","name":"Chung's","address":"12518 Kelly Rd","zipcode":"48224"},{"establishmentid":"841","name":"Denby High School","address":"12800 Kelly Rd","zipcode":"48224"},{"establishmentid":"845","name":"Brewer Elementary (K-8)","address":"18025 Brock St","zipcode":"48205"},{"establishmentid":"843","name":"Wayne Elementary","address":"10633 Courville","zipcode":"48224"},{"establishmentid":"661","name":"Burger King ","address":"18021 Kelly Rd","zipcode":"48224"},{"establishmentid":"51622593","name":"E & G Food Market","address":"18081 Kelly Rd","zipcode":"48224"},{"establishmentid":"3099","name":"AAA Panda Inc.","address":"18087 Kelly Rd","zipcode":"48224"},{"establishmentid":"2696","name":"Fush LLC DBA Cover Girls Lounge","address":"10631 Whittier","zipcode":"48224"},{"establishmentid":"51622719","name":"Toarmina's Pizza","address":"12400 Morang","zipcode":"48224"},{"establishmentid":"921","name":"Mt. Calvary Lutheran School","address":"17100 Chalmers  Ave","zipcode":"48205"},{"establishmentid":"1714","name":"Universal Coney Island","address":"14729 Harper Ave","zipcode":"48224"},{"establishmentid":"4191","name":"Captain Jay's Fish & Chicken #108","address":"14401 Harper Ave","zipcode":"48224"},{"establishmentid":"1376","name":"Kentucky Fried Chicken H730220","address":"9041 Chalmers St","zipcode":"48213"},{"establishmentid":"1292","name":"Little Caesar's Pizza #18","address":"14351 Harper Ave","zipcode":"48224"},{"establishmentid":"2043","name":"Olympia Coney Island","address":"14350 Harper Ave","zipcode":"48207"},{"establishmentid":"1088","name":"Koney Time Restaurant","address":"15098 E Seven Mile Rd","zipcode":"48205"},{"establishmentid":"4989","name":"Lape Soul Food","address":"15236 E Seven Mile Rd","zipcode":"48205"}],"inspectionsByEstablishmentidList":[{"inspectionid":"38460","inspectionDate":"2017-04-11T00:00:00","inspectionType":"Routine Inspection","inCompliance":"Yes","violationsByInspectionidList":[{"violationCode":"3-501.16","violationDescription":"Except during preparation, cooking, or cooling, or when time is used as the public health control POTENTIALLY HAZARDOUS FOOD (TIME/TEMPERATURE CONTROL FOR SAFETY FOOD) shall be maintained:\r\n(A)  135ºF or above, except that roasts properly cooked and cooled may be held              at a temperature of 130ºF; or (P)\r\n(B)   At 41ºF or less (P)\r\n","violationType":"Priority","itemDescription":"Cold food item(s)","subItem":"","problemDescription":"Stored above 41 degrees F","subProblem":"","location":"FRONT AREA","subLocation":"","corrected":"Yes","daysToCorrect":"10.0","correctedDate":"2017-04-11T00:00:00","correctionDescription":"Store below 41 degrees F."},{"violationCode":"4-501.11","violationDescription":"EQUIPMENT shall be maintained in a state of repair and condition that meets the requirements of the code.\r\n","violationType":"Core","itemDescription":"Equipment","subItem":"","problemDescription":"In poor repair","subProblem":"","location":"COOLER","subLocation":"","corrected":"Not required","daysToCorrect":"30.0","correctedDate":null,"correctionDescription":"Repair"}]}]}]}},"pageContext":{"eid":"4097"}}