{"data":{"site":{"pathPrefix":"/restaurant-inspections"},"postgres":{"establishment":[{"establishmentid":"1560","name":"Mr. Steve's Pizza","address":"9911 Greenfield Ave","zipcode":"48227","owner":"Stephen Albert Zelenka, Jr.","licenseNumber":"229927","licenseType":"Fixed Establishment","establishmentType":"Food Service Establishment","establishmentStatus":"Open","riskCategory":"High","reviewFrequencyDays":"180.0","coords":"-83.19765,42.36806","geojson":{"id":"1560","type":"Feature","geometry":{"type":"Point","coordinates":[-83.197651224,42.3680601130001]},"properties":{"name":"Mr. Steve's Pizza","owner":"Stephen Albert Zelenka, Jr.","address":"9911 Greenfield Ave","zipcode":"48227","license_type":"Fixed Establishment","risk_category":"High","license_number":"229927","establishmentid":"1560","establishment_type":"Food Service Establishment","establishment_status":"Open","review_frequency_days":"180.0","most_recent_license_date":null}},"nearbyList":[{"establishmentid":"631","name":"Ice Night Club","address":"9933 Greenfield","zipcode":"48227"},{"establishmentid":"1075","name":"Omega Coney Island","address":"9500 Greenfield Rd","zipcode":"48227"},{"establishmentid":"1162","name":"Church's Fried Chicken #868","address":"15525 W Chicago","zipcode":"48228"},{"establishmentid":"1699","name":"Salvation Army-Detroit Grandale Corp.","address":"11325 Montrose Ave","zipcode":"48227"},{"establishmentid":"1587","name":"McDonald's #12308","address":"15501 Plymouth Rd","zipcode":"48227"},{"establishmentid":"2647","name":"Captain Jay's Fish & Chicken #101","address":"9233 Greenfield Ave","zipcode":"48228"},{"establishmentid":"3431","name":"Checkers Hamburgers #6238","address":"11641 Greenfield Rd","zipcode":"48227"},{"establishmentid":"2454","name":"Happy's Pizza #6","address":"15128 Plymouth Rd","zipcode":"48227"},{"establishmentid":"1581","name":"Club Jovonnes","address":"9138 Greenfield Rd","zipcode":"48228"},{"establishmentid":"892","name":"Henderson Jemison Academy PK-8","address":"16101 W Chicago Rd","zipcode":"48228"}],"inspectionsByEstablishmentidList":[{"inspectionid":"42103","inspectionDate":"2018-05-02T00:00:00","inspectionType":"Routine Inspection","inCompliance":"Yes","violationsByInspectionidList":[{"violationCode":"6-501.11","violationDescription":"PHYSICAL FACILITIES shall be maintained in good repair.\r\n","violationType":"Core","itemDescription":"Physical facilities","subItem":"","problemDescription":"In poor repair","subProblem":"","location":"PREP AREA(S)","subLocation":"","corrected":"Not required","daysToCorrect":"30.0","correctedDate":null,"correctionDescription":"Repair"}]},{"inspectionid":"40194","inspectionDate":"2017-09-26T00:00:00","inspectionType":"Routine Inspection","inCompliance":"Yes","violationsByInspectionidList":[{"violationCode":"MFL289.2129","violationDescription":"Sec. 2129. (1) All food establishments shall employ a minimum of 1 managerial employee as a food safety manager, who must be an individual who is currently certified under a personnel certification program accredited by the American National Standards Institute, utilizing the Conference for Food Protection standards:\r\n(2) Beginning January 14, 2017 and every 5 years thereafter, a certified  food safety manager who supervises the operations of a food service establishment shall have completed a food safety training program\r\ncontaining an allergen awareness  component that has been approved by  the department. A food service establishment shall retain records on the  site of the food service establishment documenting compliance of its  certified food safety managers with this subsection. ","violationType":"Core","itemDescription":"Person-in-charge","subItem":"","problemDescription":null,"subProblem":"","location":"ESTABLISHMENT","subLocation":"","corrected":"Not required","daysToCorrect":"30.0","correctedDate":null,"correctionDescription":null},{"violationCode":"6-501.11","violationDescription":"PHYSICAL FACILITIES shall be maintained in good repair.\r\n","violationType":"Core","itemDescription":"Physical facilities","subItem":"","problemDescription":"In poor repair","subProblem":"","location":"PREP AREA(S)","subLocation":"","corrected":"Not required","daysToCorrect":"30.0","correctedDate":null,"correctionDescription":"Repair"}]},{"inspectionid":"38232","inspectionDate":"2017-03-14T00:00:00","inspectionType":"Routine Inspection","inCompliance":"Yes","violationsByInspectionidList":[{"violationCode":"MFL289.2129","violationDescription":"Sec. 2129. (1) All food establishments shall employ a minimum of 1 managerial employee as a food safety manager, who must be an individual who is currently certified under a personnel certification program accredited by the American National Standards Institute, utilizing the Conference for Food Protection standards:\r\n(2) Beginning January 14, 2017 and every 5 years thereafter, a certified  food safety manager who supervises the operations of a food service establishment shall have completed a food safety training program\r\ncontaining an allergen awareness  component that has been approved by  the department. A food service establishment shall retain records on the  site of the food service establishment documenting compliance of its  certified food safety managers with this subsection. ","violationType":"Core","itemDescription":"Person-in-charge","subItem":"","problemDescription":null,"subProblem":"","location":"ESTABLISHMENT","subLocation":"","corrected":"Not required","daysToCorrect":"30.0","correctedDate":null,"correctionDescription":null}]},{"inspectionid":"36337","inspectionDate":"2016-08-24T00:00:00","inspectionType":"Routine Inspection","inCompliance":"Yes","violationsByInspectionidList":[]}]}],"maxInspectionDate":[{"inspectionDate":"2019-03-31T00:00:00"}]}},"pageContext":{"eid":"1560"}}