{"componentChunkName":"component---src-templates-establishment-page-js","path":"/establishment/51623208","result":{"data":{"site":{"pathPrefix":"/restaurant-inspections"},"postgres":{"establishment":[{"establishmentid":"51623208","name":"LeCulture Cafe","address":"1452 Brush St","zipcode":"48226","owner":"Drew Matthes","licenseNumber":"252335","licenseType":"Fixed Establishment","establishmentType":"Food Service Establishment","establishmentStatus":"Permanently Closed","riskCategory":null,"reviewFrequencyDays":null,"coords":"-83.04503,42.33683","geojson":{"id":"51623208","type":"Feature","geometry":{"type":"Point","coordinates":[-83.045034453,42.336827956]},"properties":{"name":"LeCulture Cafe","owner":"Drew Matthes","address":"1452 Brush St","zipcode":"48226","license_type":"Fixed Establishment","risk_category":null,"license_number":"252335","establishmentid":"51623208","establishment_type":"Food Service Establishment","establishment_status":"Permanently Closed","review_frequency_days":null,"most_recent_license_date":null}},"nearbyList":[{"establishmentid":"1374","name":"The Courthouse Brasserie","address":"1436 Brush","zipcode":"48226"},{"establishmentid":"1681","name":"Hilton Garden Inn/ American Grill","address":"351 Gratiot Ave.","zipcode":"48226"},{"establishmentid":"1106","name":"Music Hall Center","address":"350 Madison","zipcode":"48226"},{"establishmentid":"51623847","name":"Honey Detroit","address":"1452 Randolph","zipcode":"48201"},{"establishmentid":"51623331","name":"La Casa De La Habana Detroit","address":"1502 Randolph St.","zipcode":"48226"},{"establishmentid":"3925","name":"La Casa De La Habana Detroit","address":"1502 Randolph St.","zipcode":"48226"},{"establishmentid":"2007","name":"Subway #44796","address":"1401 Beaubien","zipcode":"48226"},{"establishmentid":"1622","name":"J & B Vending","address":"421 Madison","zipcode":"48226"},{"establishmentid":"4547","name":"J and B Vending Inc ","address":"421 Madison","zipcode":"48226"},{"establishmentid":"2420","name":"Detroit Pub","address":"1326 Brush","zipcode":"48226"}],"inspectionsByEstablishmentidList":[{"inspectionid":"52234","inspectionDate":"2020-04-01T00:00:00","inspectionType":"COVID19-temp closed","inCompliance":"Yes","violationsByInspectionidList":[]},{"inspectionid":"50778","inspectionDate":"2020-02-14T00:00:00","inspectionType":"Routine Inspection","inCompliance":"Yes","violationsByInspectionidList":[{"violationCode":"4-501.114","violationDescription":"A chemical SANITIZER used in a SANITIZING solution for a manual or\nmechanical operation shall meet these limits or as otherwise approved: (P)\n\tChlorine        ppm           pH<10             pH<8\n\t\t      25              120 F              120 F\n\t\t      50              100 F              75 F\n\t\t     100              55 F               55 F\n                 Iodine           a concentration of between 12.5 and 25 ppm and minimum temp of 75 F and pH of 5 or less or meets manufacturer's specifications. (P)\n\n                Quats            minimum temperature of 75 F, hardness of 500 ppm or less and meet manufacturers use directions. (P)\n","violationType":"Priority","itemDescription":"Chlorine solution concentration","subItem":null,"problemDescription":"Below 25 ppm","subProblem":null,"location":"PREP AREA(S)","subLocation":null,"corrected":"True","daysToCorrect":"10","correctedDate":"2020-02-14T00:00:00","correctionDescription":null},{"violationCode":"3-302.12","violationDescription":"Except for containers holding FOOD that can be readily and unmistakably recognized such as dry pasta, working containers holding FOOD or FOOD ingredients that are removed from their original packages for use in the FOOD ESTABLISHMENT, such as cooking oils, flour, herbs, potato flakes, salt, spices, and sugar shall be identified with the common name of the FOOD.","violationType":"Core","itemDescription":"Food item(s)","subItem":null,"problemDescription":"Not identified","subProblem":null,"location":"KITCHEN","subLocation":null,"corrected":"True","daysToCorrect":"30","correctedDate":"2020-02-14T00:00:00","correctionDescription":"Label containers with common name."},{"violationCode":"6-501.14","violationDescription":"(A) Intake and exhaust air ducts shall be cleaned and filters changed so they are not a source of contamination by dust, dirt, and other materials. \n(B) If vented to the outside, ventilation systems may not create a public health HAZARD or nuisance or unLAWful discharge.\n","violationType":"Core","itemDescription":"Ventilation system","subItem":null,"problemDescription":"Not clean","subProblem":null,"location":"KITCHEN","subLocation":null,"corrected":"False","daysToCorrect":"30","correctedDate":null,"correctionDescription":"Clean"}]}]}],"maxInspectionDate":[{"inspectionDate":"2022-08-31T00:00:00"}]}},"pageContext":{"eid":"51623208"}},"staticQueryHashes":["3649515864","63159454"]}