{"data":{"postgres":{"establishment":[{"establishmentid":"4796","name":"Horatio Williams Foundation","address":"1010 Antietam","zipcode":"48207","owner":"Horatio Williams","licenseNumber":"209339","licenseType":"Fixed Establishment","establishmentType":"Food Service Establishment","establishmentStatus":"Plan Review","riskCategory":null,"reviewFrequencyDays":"180.0","coords":"-83.03896,42.33969","geojson":{"id":"4796","type":"Feature","geometry":{"type":"Point","coordinates":[-83.0389645559999,42.3396910550001]},"properties":{"name":"Horatio Williams Foundation","owner":"Horatio Williams","address":"1010 Antietam","zipcode":"48207","license_type":"Fixed Establishment","risk_category":null,"license_number":"209339","establishmentid":"4796","establishment_type":"Food Service Establishment","establishment_status":"Plan Review","review_frequency_days":"180.0","most_recent_license_date":"4/23/2018"}},"nearbyList":[{"establishmentid":"213","name":"Woodward Academy","address":"951 E Lafayette Ave","zipcode":"48207"},{"establishmentid":"5057","name":"Starbucks #25844 Greektown ","address":"1200 St Antoine St","zipcode":"48226"},{"establishmentid":"1565","name":"Brewery Park Deli","address":"1155 Brewery Park","zipcode":"48207"},{"establishmentid":"51622859","name":"LeCulture Cafe","address":"1428 Gratiot","zipcode":"48207"},{"establishmentid":"4461","name":"Antietam","address":"1428 Gratiot Ave","zipcode":"48207"},{"establishmentid":"4865","name":"Birmingham Deli","address":"1441 St Antoine St","zipcode":"48226"},{"establishmentid":"5397","name":"Gather Detroit LLC","address":"1454 Gratiot Ave","zipcode":"48207"},{"establishmentid":"5245","name":"Wahlburgers","address":"569 Monroe St","zipcode":"48226"},{"establishmentid":"5024","name":"Trinosophes LLC","address":"1464 Gratiot Ave","zipcode":"48207"},{"establishmentid":"5205","name":"Coriander","address":"1464 Gratiot Ave","zipcode":"48207"},{"establishmentid":"1447","name":"Monroe Street Cafe","address":"561 Monroe St","zipcode":"48226"},{"establishmentid":"4110","name":"Red Smoke","address":"573 Monroe St","zipcode":"48226"},{"establishmentid":"1403","name":"Pizza Papalis Taverna","address":"553 Monroe St","zipcode":"48226"},{"establishmentid":"1261","name":"Pegasus Taverna","address":"558 Monroe St","zipcode":"48226"},{"establishmentid":"1488","name":"New Parthenon","address":"547 Monroe St","zipcode":"48226"},{"establishmentid":"1202","name":"The Greek","address":"535 Monroe St","zipcode":"48226"},{"establishmentid":"4487","name":"Plaka Level 2","address":"535 Monroe St","zipcode":"48226"},{"establishmentid":"1108","name":"Flood's Bar & Grill","address":"731 St Antoine St","zipcode":"48226"},{"establishmentid":"1039","name":"Chrysler Elementary","address":"1445 E Lafayette Ave","zipcode":"48238"},{"establishmentid":"4627","name":"Starbucks Blue Cross Blue Shield","address":"600 E Lafayette Ave","zipcode":"48226"}],"inspectionsByEstablishmentidList":[{"inspectionid":"42865","inspectionDate":"2018-07-12T00:00:00","inspectionType":"Routine Inspection","inCompliance":"Yes","violationsByInspectionidList":[{"violationCode":"6-303.11","violationDescription":"Light of the proper intensity shall be provided as specified.\r\n","violationType":"Core","itemDescription":"Lighting intensity","subItem":"at 30 inches above the floor","problemDescription":"Not maintained","subProblem":"","location":"KITCHEN","subLocation":"Under the Ventilation hood","corrected":"Not required","daysToCorrect":"30.0","correctedDate":null,"correctionDescription":"Maintain in good repair"},{"violationCode":"4-602.13","violationDescription":"NonFOOD-CONTACT SURFACES of EQUIPMENT shall be cleaned at a frequency necessary to preclude accumulation of soil residues.\r\n","violationType":"Core","itemDescription":"Nonfood contact surface(s)","subItem":"","problemDescription":"Soiled","subProblem":"","location":"KITCHEN","subLocation":"Inside the Oven (convection)","corrected":"Not required","daysToCorrect":"30.0","correctedDate":null,"correctionDescription":"Keep clean."}]},{"inspectionid":"41160","inspectionDate":"2017-12-05T00:00:00","inspectionType":"Routine Inspection","inCompliance":"Yes","violationsByInspectionidList":[{"violationCode":"4-501.11","violationDescription":"EQUIPMENT shall be maintained in a state of repair and condition that meets the requirements of the code.\r\n","violationType":"Core","itemDescription":"Equipment components","subItem":"","problemDescription":"In poor repair","subProblem":"","location":"KITCHEN","subLocation":"","corrected":"Not required","daysToCorrect":"30.0","correctedDate":null,"correctionDescription":"Repair"}]},{"inspectionid":"39091","inspectionDate":"2017-06-20T00:00:00","inspectionType":"Routine Inspection","inCompliance":"Yes","violationsByInspectionidList":[{"violationCode":"3-302.11","violationDescription":"(A) FOOD shall be protected from cross contamination by:  \r\n(1) Except as specified in (1)(c) below, separating raw animal FOODS during         storage, preparation, holding, and display from:\r\n(a) Raw READY-TO-EAT FOOD including other raw animal FOOD such as FISH for sushi or MOLLUSCAN SHELLFISH, or other raw READY-TO-EAT FOOD such as fruits and vegetables,(P) and\r\n(b) Cooked READY-TO-EAT FOOD; (P)\r\n(c) Frozen, commercially processed and packaged raw animal FOOD may be          stored or displayed with or above frozen, commercially processed and           packaged, ready-to-eat food.\r\n(2) Except when combined as ingredients, separating types of raw animal FOODS    from each other such as beef, FISH, lamb, pork, and POULTRY during storage,        preparation, holding, and display by:\r\n(a) Using separate EQUIPMENT for each type, (P) or\r\n(b) Arranging each type of FOOD in EQUIPMENT so that cross contamination of one type with another is prevented, (P) and\r\n(c) Preparing each type of FOOD at different times or in separate areas; (P)\r\n","violationType":"Priority","itemDescription":"Raw animal food(s)","subItem":"","problemDescription":"Stored over/next to","subProblem":"Ready-to-eat food(s)","location":"COOLER","subLocation":"At the RAW FOOD STORAGE","corrected":"Yes","daysToCorrect":"10.0","correctedDate":"2017-06-20T00:00:00","correctionDescription":"Store raw animal foods below and away from foods needing little or no further prep."},{"violationCode":"6-301.12","violationDescription":"Each HANDWASHING SINK or group of adjacent HANDWASHING SINKS shall be provided with:\r\n(A) Individual, disposable towels; (Pf)\r\n(B) A continuous towel system that supplies the user with a clean towel;(Pf) or \r\n(C) A heated-air hand drying device.(Pf)\r\n(D) A hand drying device that employs an air-knife system that delivers high velocity pressurized air at ambient temperatures.(Pf)\r\n","violationType":"Foundation","itemDescription":"Sanitary hand drying provisions","subItem":"disposable, paper towels","problemDescription":"Not provided","subProblem":"At hand sink","location":"HANDSINK(S)","subLocation":"At the Hand-drying towels","corrected":"Yes","daysToCorrect":"10.0","correctedDate":"2017-06-20T00:00:00","correctionDescription":"Provide"},{"violationCode":"6-301.11","violationDescription":"Each HANDWASHING SINK or group of 2 adjacent HANDWASHING SINKS shall be provided with a supply of hand cleaning liquid, powder, or bar soap. (Pf)\r\n","violationType":"Foundation","itemDescription":"Soap","subItem":"","problemDescription":"Not provided","subProblem":"At hand sink","location":"HANDSINK(S)","subLocation":"At the Handwashing soap","corrected":"Yes","daysToCorrect":"10.0","correctedDate":"2017-06-20T00:00:00","correctionDescription":"Provide"},{"violationCode":"6-501.14","violationDescription":"(A) Intake and exhaust air ducts shall be cleaned and filters changed so they are not a source of contamination by dust, dirt, and other materials. \r\n(B) If vented to the outside, ventilation systems may not create a public health HAZARD or nuisance or unLAWful discharge.\r\n","violationType":"Core","itemDescription":"Ventilation system","subItem":"exhaust air ducts","problemDescription":"Not clean","subProblem":"","location":"COOK LINE AREA","subLocation":"At the Hood filters","corrected":"Yes","daysToCorrect":"30.0","correctedDate":"2017-12-05T00:00:00","correctionDescription":"Clean"}]},{"inspectionid":"37236","inspectionDate":"2016-11-23T00:00:00","inspectionType":"Routine Inspection","inCompliance":"Yes","violationsByInspectionidList":[{"violationCode":"4-602.13","violationDescription":"NonFOOD-CONTACT SURFACES of EQUIPMENT shall be cleaned at a frequency necessary to preclude accumulation of soil residues.\r\n","violationType":"Core","itemDescription":"Nonfood contact surface(s)","subItem":"","problemDescription":"With accumulation of debris","subProblem":"","location":"EQUIPMENT","subLocation":"At the Debris","corrected":"Not required","daysToCorrect":"30.0","correctedDate":null,"correctionDescription":"Keep clean."}]}]}]}},"pageContext":{"eid":"4796"}}