{"data":{"site":{"pathPrefix":"/restaurant-inspections"},"postgres":{"establishment":[{"establishmentid":"1502","name":"Fish King Restaurant","address":"20351 Conant Ave","zipcode":"48234","owner":"Robert Mapps","licenseNumber":"035717","licenseType":"Fixed Establishment","establishmentType":"Food Service Establishment","establishmentStatus":"Permanently Closed","riskCategory":null,"reviewFrequencyDays":"180.0","coords":"-83.08243,42.44472","geojson":{"id":"1502","type":"Feature","geometry":{"type":"Point","coordinates":[-83.082432947,42.44472038]},"properties":{"name":"Fish King Restaurant","owner":"Robert Mapps","address":"20351 Conant Ave","zipcode":"48234","license_type":"Fixed Establishment","risk_category":null,"license_number":"035717","establishmentid":"1502","establishment_type":"Food Service Establishment","establishment_status":"Permanently Closed","review_frequency_days":"180.0","most_recent_license_date":"4/28/2016"}},"nearbyList":[{"establishmentid":"1017","name":"McDonald's Detroit","address":"20405 Conant Ave","zipcode":"48234"},{"establishmentid":"1212","name":"Little Caesar's Pizza #15","address":"2024 E Eight Mile Rd","zipcode":"48234"},{"establishmentid":"953","name":"Golden Greek Lounge","address":"1800 E Eight Mile Rd","zipcode":"48203"},{"establishmentid":"4475","name":"Applebee's #7833","address":"2111 W Eight Mile Rd","zipcode":"48203"},{"establishmentid":"384","name":"Subway #66","address":"2240 E Eight Mile Rd","zipcode":"48234"},{"establishmentid":"1919","name":"L & L Adult Day Care","address":"1485 E Outer Dr","zipcode":"48234"},{"establishmentid":"2377","name":"Pete's Grill","address":"1400 E Outer Dr","zipcode":"48234"},{"establishmentid":"210","name":"Domino's Pizza #1169","address":"1636 E Eight Mile Rd","zipcode":"48203"},{"establishmentid":"2127","name":"Kentucky Fried Chicken","address":"2600 E Eight Mile Rd","zipcode":"48234"},{"establishmentid":"1461","name":"Bert's Market Place -Jazz Bar/Food Court","address":"2727-31 Russell St","zipcode":"48207"},{"establishmentid":"4635","name":"Bert's Warehouse Theater","address":"2739 Russell St","zipcode":"48207"},{"establishmentid":"4636","name":"Bert's Market Place--Commissary","address":"2739 Russell St","zipcode":"48207"},{"establishmentid":"4637","name":"Bert's Market Place--Outdoor Cafe","address":"2727-39 Russell St","zipcode":"48207"},{"establishmentid":"5046","name":"Detroit Soul","address":"2900 E Eight Mile Rd","zipcode":"48234"},{"establishmentid":"3220","name":"Hash Brown Cafe","address":"19458 Conant Ave","zipcode":"48234"},{"establishmentid":"1164","name":"Kwong Tung Inn","address":"3040 E Eight Mile Rd","zipcode":"48234"},{"establishmentid":"250","name":"Erotic City","address":"19326 Conant Ave","zipcode":"48234"},{"establishmentid":"3072","name":"Munchee's Mania","address":"19310 Conant Ave","zipcode":"48234"},{"establishmentid":"686","name":"West Indian Amerian Assn","address":"2015 E Seven Mile Rd","zipcode":"48234"},{"establishmentid":"4486","name":"Christian Guidance Center","address":"19211 Anglin St","zipcode":"48234"}],"inspectionsByEstablishmentidList":[{"inspectionid":"40994","inspectionDate":"2017-12-07T00:00:00","inspectionType":"Routine Inspection","inCompliance":"Yes","violationsByInspectionidList":[{"violationCode":"6-501.114","violationDescription":"The PREMISES shall be free of items that are unnecessary to the operation or maintenance of the establishment such as EQUIPMENT that is nonfunctional, no longer used and free of litter.\r\n","violationType":"Core","itemDescription":"Unnecessary item(s)","subItem":"","problemDescription":"Not removed from facility","subProblem":"","location":"THROUGHOUT FACILITY","subLocation":"","corrected":"Not required","daysToCorrect":"30.0","correctedDate":null,"correctionDescription":"Remove from facility/premises."},{"violationCode":"4-501.11","violationDescription":"EQUIPMENT shall be maintained in a state of repair and condition that meets the requirements of the code.\r\n","violationType":"Core","itemDescription":"Equipment","subItem":"","problemDescription":"In poor repair","subProblem":"","location":"THROUGHOUT FACILITY","subLocation":"","corrected":"Not required","daysToCorrect":"30.0","correctedDate":null,"correctionDescription":null}]},{"inspectionid":"39097","inspectionDate":"2017-06-14T00:00:00","inspectionType":"Routine Inspection","inCompliance":"Yes","violationsByInspectionidList":[{"violationCode":"6-501.114","violationDescription":"The PREMISES shall be free of items that are unnecessary to the operation or maintenance of the establishment such as EQUIPMENT that is nonfunctional, no longer used and free of litter.\r\n","violationType":"Core","itemDescription":"Unnecessary item(s)","subItem":"","problemDescription":"Not removed from facility","subProblem":"","location":"THROUGHOUT FACILITY","subLocation":"","corrected":"Not required","daysToCorrect":"30.0","correctedDate":null,"correctionDescription":"Remove from facility/premises."},{"violationCode":"MFL289.2129","violationDescription":"Sec. 2129. (1) All of the following food establishments shall employ a minimum of 1 managerial employee who is currently certified under a personnel certification program accredited by the American national standards institute, utilizing the conference for food protection standards:  (a) A food service establishment that is not any of the following:    (i) Operating under a temporary food service establishment license.  (ii) A vending machine location.     (b) An extended retail food establishment.  (c) Operated within a retail grocery.  (2) An individual certified under subsection (1) shall be recognized with full faith and credit by the state and all local units of government throughout the state.  (3) The department may promulgate rules to do all of the following:  (a) Develop requirements for retail food establishments to follow when employing certified food safety managers or personnel.  (b) Set a reasonable date for compliance with the requirements under subdivision (a) taking into consideration existing local personnel certification requirements.  (c) Establish certification fees necessary to implement, maintain, and track certified individuals directly or by contract. The department may annually adjust the schedule of fees to provide that the fee charged is sufficient to cover the cost of the certification tracking program.  (d) Implement and enforce the requirements described in subdivision (a).    (4) The certification program developed by the American national standards institute, as it exists on April 1, 2008 , is incorporated by reference. The department may adopt updates to the certification program accreditation standards in subsection (1) by rule.     (5) This section does not prohibit any local legislative body from implementing a food handler program, an employee health certification program, or a manager certification program, if it is not in conflict with this section.","violationType":"Core","itemDescription":"Person-in-charge","subItem":"","problemDescription":"Missing","subProblem":"","location":"PERSON IN CHARGE","subLocation":"At customer seat booths","corrected":"Not required","daysToCorrect":"30.0","correctedDate":null,"correctionDescription":"Provide manufacture lable "}]},{"inspectionid":"37123","inspectionDate":"2016-11-15T00:00:00","inspectionType":"Routine Inspection","inCompliance":"No","violationsByInspectionidList":[{"violationCode":"4-204.112","violationDescription":"(A)  In a mechanically refrigerated or hot FOOD storage unit, the sensor of a TEMPERATURE MEASURING DEVICE shall be located to measure the air temperature in the warmest part of a mechanically refrigerated unit and in the coolest part of a hot FOOD storage unit.\r\n(B)  Cold or hot holding EQUIPMENT used for POTENTIALLY HAZARDOUS FOOD shall be designed to include and shall be equipped with at least one integral or permanently affixed TEMPERATURE MEASURING DEVICE that is located to allow easy viewing of the device's temperature display (EXCEPT, heat lamps, cold plates, steam tables, or other equipment where it is not practical).\r\n(C)  TEMPERATURE MEASURING DEVICES shall be designed to be easily readable.\r\n(D)  FOOD TEMPERATURE MEASURING DEVICES and water TEMPERATURE MEASURING DEVICES on WAREWASHING machines shall have a numerical scale, printed record, or digital readout in increments no greater than 1C or 2F in the intended range of use. (Pf)\r\n\r\n","violationType":"Foundation","itemDescription":"Thermometer(s)","subItem":"","problemDescription":"Not provided","subProblem":"","location":"COOLER","subLocation":"","corrected":"No","daysToCorrect":"10.0","correctedDate":null,"correctionDescription":"Provide."},{"violationCode":"6-501.114","violationDescription":"The PREMISES shall be free of items that are unnecessary to the operation or maintenance of the establishment such as EQUIPMENT that is nonfunctional, no longer used and free of litter.\r\n","violationType":"Core","itemDescription":"Unnecessary item(s)","subItem":"","problemDescription":"Not removed from facility","subProblem":"","location":"THROUGHOUT FACILITY","subLocation":"","corrected":"Not required","daysToCorrect":"30.0","correctedDate":null,"correctionDescription":"."}]}]}]}},"pageContext":{"eid":"1502"}}