{"data":{"site":{"pathPrefix":"/restaurant-inspections"},"postgres":{"establishment":[{"establishmentid":"4766","name":"Marquette Elementary (Main Building)","address":"6145 Canyon","zipcode":"48238","owner":"Detroit Board of Education","licenseNumber":"079468","licenseType":"Fixed Establishment","establishmentType":"Public School","establishmentStatus":"Open","riskCategory":"Medium","reviewFrequencyDays":"210.0","coords":"-82.92387,42.41990","geojson":{"id":"4766","type":"Feature","geometry":{"type":"Point","coordinates":[-82.923873042,42.419902902]},"properties":{"name":"Marquette Elementary (Main Building)","owner":"Detroit Board of Education","address":"6145 Canyon","zipcode":"48238","license_type":"Fixed Establishment","risk_category":"Medium","license_number":"079468","establishmentid":"4766","establishment_type":"Public School","establishment_status":"Open","review_frequency_days":"210.0","most_recent_license_date":"4/29/2016"}},"nearbyList":[{"establishmentid":"1116","name":"Marquette Elementary School (Annex)","address":"6145 Canyon","zipcode":"48236"},{"establishmentid":"51622679","name":"Sushi Do","address":"22101 Moross Ave","zipcode":"48236"},{"establishmentid":"2419","name":"Guild Coffee Bar- Central Hub","address":"22101 Moross Ave","zipcode":"48236"},{"establishmentid":"1633","name":"St. John Moross Market Cafe","address":"22101 Moross Ave","zipcode":"48236"},{"establishmentid":"3586","name":"Brioche Doree","address":"22101 Moross Ave","zipcode":"48224"},{"establishmentid":"511","name":"Champagnes Steak and Soul","address":"17323 Harper Ave","zipcode":"48224"},{"establishmentid":"1902","name":"Nikki's Place & Lounge","address":"17200 Harper Ave","zipcode":"48224"},{"establishmentid":"4467","name":"Big Burgzs","address":"17627 E Warren","zipcode":"48224"},{"establishmentid":"446","name":"Tubby's Sub Shop #37","address":"17195 Harper Ave","zipcode":"48224"},{"establishmentid":"51622597","name":"The Den Sports Grill and Bar","address":"17175 Harper Ave","zipcode":"48224"}],"inspectionsByEstablishmentidList":[{"inspectionid":"44488","inspectionDate":"2018-11-29T00:00:00","inspectionType":"Routine Inspection","inCompliance":"Yes","violationsByInspectionidList":[]},{"inspectionid":"42369","inspectionDate":"2018-05-23T00:00:00","inspectionType":"Routine Inspection","inCompliance":"Yes","violationsByInspectionidList":[{"violationCode":"4-501.11","violationDescription":"EQUIPMENT shall be maintained in a state of repair and condition that meets the requirements of the code.\r\n","violationType":"Core","itemDescription":"Equipment","subItem":"","problemDescription":"In poor repair","subProblem":"","location":"HANDSINK(S)","subLocation":"","corrected":"Not required","daysToCorrect":"30.0","correctedDate":null,"correctionDescription":"Repair"}]},{"inspectionid":"40678","inspectionDate":"2017-11-02T00:00:00","inspectionType":"Routine Inspection","inCompliance":"Yes","violationsByInspectionidList":[{"violationCode":"5-205.15","violationDescription":"A PLUMBING SYSTEM shall be:\r\n(A) Repaired according to LAW; (P) and\r\n(B) Maintained in good repair.\r\n","violationType":"Core","itemDescription":"Plumbing system","subItem":"","problemDescription":"Not maintained","subProblem":"","location":"HANDSINK(S)","subLocation":"","corrected":"Not required","daysToCorrect":"10.0","correctedDate":null,"correctionDescription":"Maintain in good repair"}]},{"inspectionid":"38508","inspectionDate":"2017-04-13T00:00:00","inspectionType":"Routine Inspection","inCompliance":"Yes","violationsByInspectionidList":[]},{"inspectionid":"36651","inspectionDate":"2016-10-04T00:00:00","inspectionType":"Routine Inspection","inCompliance":"Yes","violationsByInspectionidList":[{"violationCode":"4-501.11","violationDescription":"EQUIPMENT shall be maintained in a state of repair and condition that meets the requirements of the code.\r\n","violationType":"Core","itemDescription":"Equipment","subItem":"","problemDescription":"In poor repair","subProblem":"","location":"3 COMPARTMENT SINK AREA","subLocation":"","corrected":"Not required","daysToCorrect":"30.0","correctedDate":null,"correctionDescription":null}]}]}],"maxInspectionDate":[{"inspectionDate":"2019-01-31T00:00:00"}]}},"pageContext":{"eid":"4766"}}