{"data":{"site":{"pathPrefix":"/restaurant-inspections"},"postgres":{"establishment":[{"establishmentid":"51622731","name":"Greektown Casino- Bluff Bar","address":"555 E Lafayette","zipcode":"48226","owner":"Greektown Casino LLC","licenseNumber":"226537","licenseType":"Fixed Establishment","establishmentType":"Food Service Establishment","establishmentStatus":"Open","riskCategory":"Medium","reviewFrequencyDays":"365.0","coords":"-83.04132,42.33457","geojson":{"id":"51622731","type":"Feature","geometry":{"type":"Point","coordinates":[-83.041319668,42.33456876]},"properties":{"name":"Greektown Casino- Bluff Bar","owner":"Greektown Casino LLC","address":"555 E Lafayette","zipcode":"48226","license_type":"Fixed Establishment","risk_category":"Medium","license_number":"226537","establishmentid":"51622731","establishment_type":"Food Service Establishment","establishment_status":"Open","review_frequency_days":"365.0","most_recent_license_date":"4/12/2018"}},"nearbyList":[{"establishmentid":"1261","name":"Pegasus Taverna","address":"558 Monroe St","zipcode":"48226"},{"establishmentid":"5181","name":"Coldstone Creamery","address":"510 Monroe St","zipcode":"48226"},{"establishmentid":"51622559","name":"Market District Grill","address":"514 Monroe St","zipcode":"48226"},{"establishmentid":"4011","name":"Five Guy's Burgers & Fries","address":"508 Monroe St","zipcode":"48226"},{"establishmentid":"4110","name":"Red Smoke","address":"573 Monroe St","zipcode":"48226"},{"establishmentid":"1108","name":"Flood's Bar & Grill","address":"731 St Antoine St","zipcode":"48226"},{"establishmentid":"1403","name":"Pizza Papalis Taverna","address":"553 Monroe St","zipcode":"48226"},{"establishmentid":"1488","name":"New Parthenon","address":"547 Monroe St","zipcode":"48226"},{"establishmentid":"1447","name":"Monroe Street Cafe","address":"561 Monroe St","zipcode":"48226"},{"establishmentid":"5245","name":"Wahlburgers","address":"569 Monroe St","zipcode":"48226"},{"establishmentid":"4487","name":"Plaka Level 2","address":"535 Monroe St","zipcode":"48226"},{"establishmentid":"1202","name":"The Greek","address":"535 Monroe St","zipcode":"48226"},{"establishmentid":"51622604","name":"Eat N Out Pizza & Gelato","address":"531 Monroe","zipcode":"48226"},{"establishmentid":"389","name":"Golden Fleece Restaurant Inc.","address":"525 Monroe St","zipcode":"48226"},{"establishmentid":"388","name":"Pappy's Bar and Grill","address":"517 Monroe St","zipcode":"48226"},{"establishmentid":"3179","name":"Santorini","address":"501 Monroe St","zipcode":"48226"},{"establishmentid":"1191","name":"Niki's Pizzeria","address":"735-37 Beaubien St","zipcode":"48226"},{"establishmentid":"4682","name":"Niki's Lounge","address":"735 Beaubien St","zipcode":"48226"},{"establishmentid":"964","name":"Bouzouki Club","address":"432 E Lafayette Ave","zipcode":"48226"},{"establishmentid":"1089","name":"Loco Bar & Grill","address":"454 E Lafayette Ave","zipcode":"48226"}],"inspectionsByEstablishmentidList":[{"inspectionid":"44290","inspectionDate":"2018-11-29T00:00:00","inspectionType":"Routine Inspection","inCompliance":"Yes","violationsByInspectionidList":[{"violationCode":"7-102.11","violationDescription":"Working containers used for storing POISONOUS OR TOXIC MATERIALS such as cleaners and SANITIZERS taken from bulk supplies shall be clearly and individually identified with the common name of the material. (Pf)\r\n","violationType":"Foundation","itemDescription":"Working containers-toxics","subItem":"cleaner","problemDescription":"Not labeled as to content","subProblem":"","location":"BAR","subLocation":"Counter(s)","corrected":"Yes","daysToCorrect":"10.0","correctedDate":"2018-11-29T00:00:00","correctionDescription":"Label containers with common name."},{"violationCode":"6-301.14","violationDescription":"A sign or poster that notifies FOOD EMPLOYEES to wash their hands shall be provided at all HANDWASHING SINKS used by FOOD EMPLOYEES and shall be clearly visible to FOOD EMPLOYEES.\r\n","violationType":"Core","itemDescription":"Handwashing signage","subItem":"Not provided At hand sink","problemDescription":"Not provided","subProblem":"At hand sink","location":"BAR","subLocation":"Hand washing signage","corrected":"Not required","daysToCorrect":"30.0","correctedDate":null,"correctionDescription":"Provide"}]},{"inspectionid":"44289","inspectionDate":"2018-07-26T00:00:00","inspectionType":"Preopening/New","inCompliance":"Yes","violationsByInspectionidList":[]}]}]}},"pageContext":{"eid":"51622731"}}