{"data":{"site":{"pathPrefix":"/restaurant-inspections"},"postgres":{"establishment":[{"establishmentid":"1052","name":"Blue Diamond","address":"2453 Campbell St N","zipcode":"48209","owner":"Daniel Vega","licenseNumber":"078800","licenseType":"Fixed Establishment","establishmentType":"Food Service Establishment","establishmentStatus":"Open","riskCategory":null,"reviewFrequencyDays":"365.0","coords":"-83.10734,42.32147","geojson":{"id":"1052","type":"Feature","geometry":{"type":"Point","coordinates":[-83.107338199,42.321473]},"properties":{"name":"Blue Diamond","owner":"Daniel Vega","address":"2453 Campbell St N","zipcode":"48209","license_type":"Fixed Establishment","risk_category":null,"license_number":"078800","establishmentid":"1052","establishment_type":"Food Service Establishment","establishment_status":"Open","review_frequency_days":"365.0","most_recent_license_date":"4/29/2019"}},"nearbyList":[{"establishmentid":"5104","name":"Bella's Coffee House ","address":"2303 Campbell St","zipcode":"48209"},{"establishmentid":"4280","name":"El Durango Bar","address":"2508-10 Junction St","zipcode":"48209"},{"establishmentid":"51622920","name":"El Taco Veloz #3","address":"6170 Toledo St","zipcode":"48209"},{"establishmentid":"4342","name":"El Taco Veloz","address":"6170 Toledo St","zipcode":"48209"},{"establishmentid":"4613","name":"El Taco Veloz #1","address":"6170 Toledo","zipcode":"48209"},{"establishmentid":"4668","name":"El Taco Veloz #2","address":"6170 Toledo Rd","zipcode":"48209"},{"establishmentid":"51622911","name":"El Taco Veloz #1","address":"6170 Toledo St","zipcode":"48209"},{"establishmentid":"3095","name":"Los Corrales","address":"2244 Junction Ave","zipcode":"48209"},{"establishmentid":"931","name":"Neinas Elementary","address":"6021 McMillan St","zipcode":"48209"},{"establishmentid":"3143","name":"Tacos El Taquito Mexican Food","address":"1985 Military St","zipcode":"48209"}],"inspectionsByEstablishmentidList":[{"inspectionid":"44947","inspectionDate":"2019-01-22T00:00:00","inspectionType":"Routine Inspection","inCompliance":"Yes","violationsByInspectionidList":[{"violationCode":"6-301.11","violationDescription":"Each HANDWASHING SINK or group of 2 adjacent HANDWASHING SINKS shall be provided with a supply of hand cleaning liquid, powder, or bar soap. (Pf)\r\n","violationType":"Foundation","itemDescription":"Soap","subItem":"","problemDescription":"Not provided","subProblem":"","location":"ESTABLISHMENT","subLocation":"Handwashing soap","corrected":"Yes","daysToCorrect":"10.0","correctedDate":"2019-01-22T00:00:00","correctionDescription":"Provide adequate supply of soap at all hand sinks."},{"violationCode":"4-601.11","violationDescription":"(A) EQUIPMENT FOOD-CONTACT SURFACES and UTENSILS shall be clean to sight and touch. (Pf)\r\n(B) The FOOD-CONTACT SURFACES of cooking EQUIPMENT and pans shall be kept free of encrusted grease deposits and other soil accumulations. \r\n(C) NonFOOD-CONTACT SURFACES of EQUIPMENT shall be kept free of an accumulation of dust, dirt, FOOD residue, and other debris. \r\n","violationType":"Foundation","itemDescription":"Food-contact surface(s)","subItem":"","problemDescription":"Soiled","subProblem":"","location":"EQUIPMENT","subLocation":"Bar","corrected":"Yes","daysToCorrect":"10.0","correctedDate":"2019-01-22T00:00:00","correctionDescription":"Clean."}]},{"inspectionid":"37816","inspectionDate":"2017-01-27T00:00:00","inspectionType":"Routine Inspection","inCompliance":"No","violationsByInspectionidList":[{"violationCode":"6-301.12","violationDescription":"Each HANDWASHING SINK or group of adjacent HANDWASHING SINKS shall be provided with:\r\n(A) Individual, disposable towels; (Pf)\r\n(B) A continuous towel system that supplies the user with a clean towel;(Pf) or \r\n(C) A heated-air hand drying device.(Pf)\r\n(D) A hand drying device that employs an air-knife system that delivers high velocity pressurized air at ambient temperatures.(Pf)\r\n","violationType":"Foundation","itemDescription":null,"subItem":"","problemDescription":null,"subProblem":"","location":"BAR","subLocation":"","corrected":"Yes","daysToCorrect":"10.0","correctedDate":"2017-01-27T00:00:00","correctionDescription":null},{"violationCode":"6-301.11","violationDescription":"Each HANDWASHING SINK or group of 2 adjacent HANDWASHING SINKS shall be provided with a supply of hand cleaning liquid, powder, or bar soap. (Pf)\r\n","violationType":"Foundation","itemDescription":null,"subItem":"","problemDescription":null,"subProblem":"","location":"BAR","subLocation":"","corrected":"No","daysToCorrect":"10.0","correctedDate":null,"correctionDescription":null},{"violationCode":"6-301.14","violationDescription":"A sign or poster that notifies FOOD EMPLOYEES to wash their hands shall be provided at all HANDWASHING SINKS used by FOOD EMPLOYEES and shall be clearly visible to FOOD EMPLOYEES.\r\n","violationType":"Core","itemDescription":null,"subItem":"","problemDescription":null,"subProblem":"","location":"BAR","subLocation":"","corrected":"Not required","daysToCorrect":"30.0","correctedDate":null,"correctionDescription":null}]}]}],"maxInspectionDate":[{"inspectionDate":"2019-10-31T00:00:00"}]}},"pageContext":{"eid":"1052"}}