{"data":{"site":{"pathPrefix":"/restaurant-inspections"},"postgres":{"establishment":[{"establishmentid":"968","name":"Escuela Avancemos/Logan Elementary","address":"3811 Cicotte St","zipcode":"48217","owner":"Detroit Board of Education","licenseNumber":"035010","licenseType":"Fixed Establishment","establishmentType":"Non-Public School","establishmentStatus":"Open","riskCategory":null,"reviewFrequencyDays":"210.0","coords":"-83.12210,42.32810","geojson":{"id":"968","type":"Feature","geometry":{"type":"Point","coordinates":[-83.122098545,42.3281033740001]},"properties":{"name":"Escuela Avancemos/Logan Elementary","owner":"Detroit Board of Education","address":"3811 Cicotte St","zipcode":"48217","license_type":"Fixed Establishment","risk_category":null,"license_number":"035010","establishmentid":"968","establishment_type":"Non-Public School","establishment_status":"Open","review_frequency_days":"210.0","most_recent_license_date":"5/14/2015"}},"nearbyList":[{"establishmentid":"802","name":"Tommy T's Pub","address":"3511 Clippert St","zipcode":"4821"},{"establishmentid":"51622860","name":"Pietrzyk Pierogi","address":"3700 Gilbert Street","zipcode":"4821"},{"establishmentid":"5354","name":"Kaleidoscope Catering","address":"3700 Gilbert Street","zipcode":"4821"},{"establishmentid":"3526","name":"St. Peter & Paul Orthodox Cathedral","address":"3700 Gilbert Street","zipcode":"4821"},{"establishmentid":"51622462","name":"Better Woodman","address":"3700 Gilbert Street","zipcode":"4821"},{"establishmentid":"2308","name":"George's Famous Coney Island","address":"6362 Michigan Ave","zipcode":"4821"},{"establishmentid":"2070","name":"Cesar Chavez Academy","address":"4100 Martin St","zipcode":"4821"},{"establishmentid":"815","name":"Abicks Bar","address":"3500 Gilbert St","zipcode":"4821"},{"establishmentid":"51622875","name":"Happy's Pizza #9","address":"4220 Livernois Ave","zipcode":"4821"},{"establishmentid":"51622499","name":"Happys Southwest Detroit","address":"4220 Livernois Ave","zipcode":"4821"},{"establishmentid":"4966","name":"Rincon Tropical","address":"6538 Michigan Ave","zipcode":"4821"},{"establishmentid":"2953","name":"The Sting","address":"6609 Michigan Ave","zipcode":"4821"},{"establishmentid":"950","name":"Kwong Village Chinese American","address":"6600 Michigan Ave","zipcode":"4821"},{"establishmentid":"3553","name":"Adi's Coney Island ","address":"6171 Michigan Ave","zipcode":"4821"},{"establishmentid":"51622797","name":"Avdolli Adis Coney Island","address":"6171 Michigan Avenue","zipcode":"4821"},{"establishmentid":"2654","name":"Voyager Academy","address":"4321 N Military","zipcode":"4821"},{"establishmentid":"434","name":"Dairy Queen #10216","address":"6677 Michigan Ave","zipcode":"4821"},{"establishmentid":"4443","name":"Voyager Consortium","address":"4366 Military","zipcode":"4821"},{"establishmentid":"4069","name":"Pupuseria Y Restaurant Sal","address":"3149 Livernois","zipcode":"4821"},{"establishmentid":"1375","name":"McDonald's #7453","address":"6876 Michigan Ave","zipcode":"4821"}],"inspectionsByEstablishmentidList":[{"inspectionid":"44331","inspectionDate":"2018-12-04T00:00:00","inspectionType":"Routine Inspection","inCompliance":"Yes","violationsByInspectionidList":[{"violationCode":"4-501.11","violationDescription":"EQUIPMENT shall be maintained in a state of repair and condition that meets the requirements of the code.\r\n","violationType":"Core","itemDescription":"Equipment","subItem":"","problemDescription":"In poor repair","subProblem":"","location":"KITCHEN (2nd FLOOR)","subLocation":"Equipment","corrected":"Not required","daysToCorrect":"30.0","correctedDate":null,"correctionDescription":"Repair"},{"violationCode":"6-501.14","violationDescription":"(A) Intake and exhaust air ducts shall be cleaned and filters changed so they are not a source of contamination by dust, dirt, and other materials. \r\n(B) If vented to the outside, ventilation systems may not create a public health HAZARD or nuisance or unLAWful discharge.\r\n","violationType":"Core","itemDescription":"Ventilation system","subItem":"exhaust air ducts","problemDescription":"Not clean","subProblem":"","location":"KITCHEN (2nd FLOOR)","subLocation":"VENT PANEL","corrected":"Not required","daysToCorrect":"30.0","correctedDate":null,"correctionDescription":"Clean"}]},{"inspectionid":"40695","inspectionDate":"2017-10-24T00:00:00","inspectionType":"Routine Inspection","inCompliance":"Yes","violationsByInspectionidList":[]},{"inspectionid":"38970","inspectionDate":"2017-06-08T00:00:00","inspectionType":"Routine Inspection","inCompliance":"Yes","violationsByInspectionidList":[{"violationCode":"4-501.11","violationDescription":"EQUIPMENT shall be maintained in a state of repair and condition that meets the requirements of the code.\r\n","violationType":"Core","itemDescription":null,"subItem":"","problemDescription":null,"subProblem":"","location":"KITCHEN","subLocation":"","corrected":"Not required","daysToCorrect":"30.0","correctedDate":null,"correctionDescription":null}]},{"inspectionid":"37299","inspectionDate":"2016-11-29T00:00:00","inspectionType":"Routine Inspection","inCompliance":"Yes","violationsByInspectionidList":[]}]}]}},"pageContext":{"eid":"968"}}