{"componentChunkName":"component---src-templates-establishment-page-js","path":"/establishment/51622703","result":{"data":{"site":{"pathPrefix":"/restaurant-inspections"},"postgres":{"establishment":[{"establishmentid":"51622703","name":"Shinola Hotel-Birdie Room","address":"1400 Woodward","zipcode":"48226","owner":"1400 Webward Ave LLC","licenseNumber":"238085","licenseType":"Fixed Establishment","establishmentType":"Food Service Establishment","establishmentStatus":"Open","riskCategory":"High","reviewFrequencyDays":"150","coords":"-83.04845,42.33439","geojson":{"id":"51622703","type":"Feature","geometry":{"type":"Point","coordinates":[-83.048446799,42.334393261]},"properties":{"name":"Shinola Hotel-Birdie Room","owner":"1400 Webward Ave LLC","address":"1400 Woodward","zipcode":"48226","license_type":"Fixed Establishment","risk_category":"High","license_number":"238085","establishmentid":"51622703","establishment_type":"Food Service Establishment","establishment_status":"Open","review_frequency_days":"150","most_recent_license_date":"4/23/2019"}},"nearbyList":[{"establishmentid":"51622787","name":"The Brakeman","address":"1400 Woodward","zipcode":"48226"},{"establishmentid":"51622886","name":"Shinola Hotel- Evening Bar","address":"1400 Woodward","zipcode":"48226"},{"establishmentid":"51622881","name":"Shinola Hotel- San Morello","address":"1400 Woodward","zipcode":"48226"},{"establishmentid":"51623040","name":"Mister Dips","address":"1400 Woodward Avenue","zipcode":"48226"},{"establishmentid":"51622882","name":"Penny Red's","address":"1400 Woodward","zipcode":"48226"},{"establishmentid":"51622701","name":"Shinola Hotel- Banquet Kitchen","address":"1400 Woodward","zipcode":"48226"},{"establishmentid":"51622702","name":"Shinola Hotel- WW Basement Kitchen","address":"1400 Woodward","zipcode":"48226"},{"establishmentid":"51622901","name":"Madcap Coffee Company","address":"1413 Farmer","zipcode":"48226"},{"establishmentid":"3734","name":"Good Girls Go To Paris Crepes","address":"2 John R.","zipcode":"48226"},{"establishmentid":"2166","name":"Motor City Pit Stop Cafe","address":"2 John R","zipcode":"48226"}],"inspectionsByEstablishmentidList":[{"inspectionid":"59744","inspectionDate":"2022-07-07T00:00:00","inspectionType":"Routine Inspection","inCompliance":"Yes","violationsByInspectionidList":[]},{"inspectionid":"57149","inspectionDate":"2022-02-04T00:00:00","inspectionType":"Routine Inspection","inCompliance":"Yes","violationsByInspectionidList":[]},{"inspectionid":"54852","inspectionDate":"2021-05-14T00:00:00","inspectionType":"Routine Inspection","inCompliance":"Yes","violationsByInspectionidList":[]},{"inspectionid":"52927","inspectionDate":"2020-10-01T00:00:00","inspectionType":"Routine Inspection","inCompliance":"Yes","violationsByInspectionidList":[]},{"inspectionid":"52936","inspectionDate":"2020-03-30T00:00:00","inspectionType":"COVID19-temp closed","inCompliance":"Yes","violationsByInspectionidList":[]},{"inspectionid":"51108","inspectionDate":"2020-03-12T00:00:00","inspectionType":"Routine Inspection","inCompliance":"Yes","violationsByInspectionidList":[]},{"inspectionid":"49421","inspectionDate":"2019-10-09T00:00:00","inspectionType":"Routine Inspection","inCompliance":"Yes","violationsByInspectionidList":[]},{"inspectionid":"45786","inspectionDate":"2019-04-03T00:00:00","inspectionType":"Routine Inspection","inCompliance":"Yes","violationsByInspectionidList":[]},{"inspectionid":"45060","inspectionDate":"2019-01-17T00:00:00","inspectionType":"Preopening/New","inCompliance":"Yes","violationsByInspectionidList":[{"violationCode":"6-201.13","violationDescription":"(A) In FOOD ESTABLISHMENTS in which cleaning methods other than water flushing are used for cleaning floors, the floor and wall junctures shall be coved and closed to no larger than one thirty-second inch.\n(B) The floors in FOOD ESTABLISHMENTS in which water flush cleaning methods are used shall be provided with drains and be graded to drain, and the floor and wall junctures shall be coved and SEALED.","violationType":"Core","itemDescription":"Floor(s)","subItem":null,"problemDescription":"Not coved","subProblem":null,"location":"BAR","subLocation":null,"corrected":"False","daysToCorrect":"30","correctedDate":null,"correctionDescription":"Provide / install coved molding."},{"violationCode":"4-903.11","violationDescription":"Cleaned EQUIPMENT and UTENSILS, laundered LINENS, and SINGLE-SERVICE and SINGLE-USE ARTICLES shall be stored in an approved manner and location.\n","violationType":"Core","itemDescription":"Clean equipment/utensil(s)","subItem":null,"problemDescription":"Exposed to dust, splash, or other contaminates","subProblem":null,"location":"BAR","subLocation":null,"corrected":"False","daysToCorrect":"30","correctedDate":null,"correctionDescription":null},{"violationCode":"6-101.11","violationDescription":"Materials for indoor floor, wall, and ceiling surfaces under conditions of normal use shall be:\n(1) SMOOTH, durable, and EASILY CLEANABLE for areas where FOOD ESTABLISHMENT operations are conducted;\n(2) Closely woven and EASILY CLEANABLE carpet for carpeted areas; and\n(3) Nonabsorbent for areas subject to moisture such as FOOD preparation areas, walk-in refrigerators, WAREWASHING areas, toilet rooms, mobile FOOD ESTABLISHMENT SERVICING AREAS, and areas subject to flushing or spray cleaning methods.\n","violationType":"Core","itemDescription":"Floor(s)","subItem":"floor covering(s)","problemDescription":"Not constructed, designed, installed to be","subProblem":"Smooth","location":"BAR","subLocation":null,"corrected":"False","daysToCorrect":"30","correctedDate":null,"correctionDescription":"Repair/replace to be smooth and easily cleanable."}]}]}],"maxInspectionDate":[{"inspectionDate":"2022-08-31T00:00:00"}]}},"pageContext":{"eid":"51622703"}},"staticQueryHashes":["3649515864","63159454"]}