{"data":{"site":{"pathPrefix":"/restaurant-inspections"},"postgres":{"establishment":[{"establishmentid":"5406","name":"Norma G's Detroit","address":"14628 E Jefferson Ave","zipcode":"48215","owner":"Lester Gouvia","licenseNumber":"226565","licenseType":"Mobile Food Commissary","establishmentType":"Food Service Establishment","establishmentStatus":"Open","riskCategory":"High","reviewFrequencyDays":"180.0","coords":"-82.94141,42.37381","geojson":{"id":"5406","type":"Feature","geometry":{"type":"Point","coordinates":[-82.9414053209999,42.3738104940001]},"properties":{"name":"Norma G's Detroit","owner":"Lester Gouvia","address":"14628 E Jefferson Ave","zipcode":"48215","license_type":"Mobile Food Commissary","risk_category":"High","license_number":"226565","establishmentid":"5406","establishment_type":"Food Service Establishment","establishment_status":"Open","review_frequency_days":"180.0","most_recent_license_date":"4/16/2019"}},"nearbyList":[{"establishmentid":"282","name":"Marshalls Bar","address":"14716 E Jefferson Ave","zipcode":"48215"},{"establishmentid":"2317","name":"Detroit Merit Academy","address":"1091 Alter Rd","zipcode":"48215"},{"establishmentid":"4126","name":"My Dad's Bar","address":"14911 Kercheval Ave","zipcode":"48215"},{"establishmentid":"51622812","name":"Turn Around Sports Bar & Grille","address":"14619 Kercheval Ave","zipcode":"48215"},{"establishmentid":"2676","name":"Texas Bar and Grill","address":"14619 Kercheval","zipcode":"48215"},{"establishmentid":"5148","name":"Detroits Finest Coney Island","address":"13337 E Jefferson Ave. ","zipcode":"48215"},{"establishmentid":"1711","name":"Dynasty Chinese","address":"13340 E Jefferson Ave","zipcode":"48215"},{"establishmentid":"3260","name":"St. John's Congregational Church","address":"14320 Kercheval Ave","zipcode":"48215"},{"establishmentid":"1961","name":"Subway 12011","address":"13222 E Jefferson Ave","zipcode":"48215"},{"establishmentid":"1388","name":"Golightly  Career Tech","address":"900 Dickerson Ave","zipcode":"48215"}],"inspectionsByEstablishmentidList":[{"inspectionid":"45145","inspectionDate":"2019-02-14T00:00:00","inspectionType":"Routine Inspection","inCompliance":"Yes","violationsByInspectionidList":[{"violationCode":"3-501.17","violationDescription":"(A)  READY-TO-EAT, POTENTIALLY HAZARDOUS FOOD (TIME/TEMPERATURE CONTROL FOR SAFETY FOOD)  prepared and held refrigerated for more than 24 hours in a FOOD ESTABLISHMENT  shall be clearly marked at the time of preparation to indicate the date or day by which the FOOD shall be consumed. (Pf)\r\n(B)  A container of refrigerated, commercially prepared READY-TO-EAT POTENTIALLY HAZARDOUS FOOD (TIME/TEMPERATURE CONTROL FOR SAFETY FOOD)  shall be clearly marked, at the time the original container is opened in a FOOD ESTABLISHMENT, to indicate the date or day by which the FOOD shall be consumed. (Pf)\r\n\r\nA date marking system that does not exceed 7 days, including date of preparation, or opening is to be used. (Pf)\r\n","violationType":"Foundation","itemDescription":"In house prepared ready-to-eat potentially hazardous  food(s)","subItem":"","problemDescription":"Improperly date marked","subProblem":"Longer than 7 days stored at 41 degrees f After preparation","location":"KITCHEN","subLocation":"Inside the Cooler(s)","corrected":"Yes","daysToCorrect":"10.0","correctedDate":"2019-02-14T00:00:00","correctionDescription":"Provide proper date marks as stated above."}]},{"inspectionid":"43080","inspectionDate":"2018-08-08T00:00:00","inspectionType":"Routine Inspection","inCompliance":"Yes","violationsByInspectionidList":[{"violationCode":"4-602.13","violationDescription":"NonFOOD-CONTACT SURFACES of EQUIPMENT shall be cleaned at a frequency necessary to preclude accumulation of soil residues.\r\n","violationType":"Core","itemDescription":"Nonfood contact surface(s)","subItem":"","problemDescription":"Soiled","subProblem":"","location":"BAR","subLocation":"On top of the Cooler (beer)","corrected":"Yes","daysToCorrect":"30.0","correctedDate":"2018-08-08T00:00:00","correctionDescription":"Keep clean."}]},{"inspectionid":"41963","inspectionDate":"2018-04-17T00:00:00","inspectionType":"Preopening/New","inCompliance":"Yes","violationsByInspectionidList":[]}]}],"maxInspectionDate":[{"inspectionDate":"2019-05-31T00:00:00"}]}},"pageContext":{"eid":"5406"}}