{"componentChunkName":"component---src-templates-establishment-page-js","path":"/establishment/4202","result":{"data":{"site":{"pathPrefix":"/restaurant-inspections"},"postgres":{"establishment":[{"establishmentid":"4202","name":"Joe Louis Arena- Buffalo Wild Wings","address":"600 Civic Center Dr.","zipcode":"48226","owner":"Olympia Entertainment","licenseNumber":"069250","licenseType":"Fixed Establishment","establishmentType":"Food Service Establishment","establishmentStatus":"Permanently Closed","riskCategory":null,"reviewFrequencyDays":"335","coords":"-83.05151,42.32519","geojson":{"id":"4202","type":"Feature","geometry":{"type":"Point","coordinates":[-83.051505837,42.325189874]},"properties":{"name":"Joe Louis Arena- Buffalo Wild Wings","owner":"Olympia Entertainment","address":"600 Civic Center Dr.","zipcode":"48226","license_type":"Fixed Establishment","risk_category":null,"license_number":"069250","establishmentid":"4202","establishment_type":"Food Service Establishment","establishment_status":"Permanently Closed","review_frequency_days":"335","most_recent_license_date":"10/5/2017"}},"nearbyList":[{"establishmentid":"4205","name":"Joe Louis Arena- Little Ceasars Kiosk","address":"600 Civic Center Dr.","zipcode":"48226"},{"establishmentid":"4207","name":"Joe Louis Arena- Bars","address":"600 Civic Center Dr.","zipcode":"48226"},{"establishmentid":"4203","name":"Joe Louis Arena- Eastend Joes","address":"600 Civic Center Dr.","zipcode":"48226"},{"establishmentid":"4204","name":"Joe Louis Arena- Little Ceasars","address":"600 Civic Center Dr.","zipcode":"48226"},{"establishmentid":"1193","name":"Joe Louis Sports Arena","address":"600 Civic Center Dr.","zipcode":"48226"},{"establishmentid":"4206","name":"Joe Louis Arena- Concessions","address":"600 Civic Center Dr.","zipcode":"48226"},{"establishmentid":"4200","name":"Joe Louis Arena-Suite Kitchen","address":"600 Civic Center Dr.","zipcode":"48226"},{"establishmentid":"4201","name":"Joe Louis Arena-VIP Service Buffet","address":"600 Civic Center Dr.","zipcode":"48226"},{"establishmentid":"1148","name":"Cobo Arena","address":"600 Civic Center Dr.","zipcode":"48226"},{"establishmentid":"4208","name":"Joe Louis Arena - Beer Portables","address":"600 Civic Center Dr.","zipcode":"48226"}],"inspectionsByEstablishmentidList":[{"inspectionid":"37992","inspectionDate":"2017-01-31T00:00:00","inspectionType":"Routine Inspection","inCompliance":"Yes","violationsByInspectionidList":[{"violationCode":"3-304.14","violationDescription":"(A)  Cloths that are in use for wiping FOOD spills on TABLEWARE shall be maintained dry and used for no other purpose. \n(B)  Cloths in-use for wiping counters and equipment shall be held between uses in   a chemical sanitizer solution, and laundered daily.\n(C)  Cloths in-use for wiping surfaces in contact with raw animal FOODS shall be      kept separate from cloths used for other purposes.\n(D)  Dry wiping cloths and the chemical sanitizing solutions shall be free of FOOD    debris or visible soil.\n(E)  Containers of chemical sanitizing solutions shall be stored off the floor and         used in a manner that prevents contamination of FOOD, EQUIPMENT, UTENSILS, LINENS, SINGLE-SERVICE, or SINGLE-USE ARTICLES.\n(E)  SINGLE-USE disposable sanitizer wipes shall be used in accordance lable               instructions.\n","violationType":"Core","itemDescription":"Wiping cloth(s)","subItem":"","problemDescription":"Stored on","subProblem":"Counter","location":"SANITIZER BUCKETS","subLocation":"","corrected":"True","daysToCorrect":"30","correctedDate":"0001-01-01T00:00:00","correctionDescription":"Store wiping cloths completely submersed in sanitizer."},{"violationCode":"4-501.11","violationDescription":"EQUIPMENT shall be maintained in a state of repair and condition that meets the requirements of the code.\n","violationType":"Core","itemDescription":"Equipment","subItem":"","problemDescription":"Do not meet requirements of rule","subProblem":"","location":"COOLER","subLocation":"","corrected":"False","daysToCorrect":"30","correctedDate":null,"correctionDescription":"Repair/replace to meet requirements of rule."}]}]}],"maxInspectionDate":[{"inspectionDate":"2023-04-13T00:00:00"}]}},"pageContext":{"eid":"4202"}},"staticQueryHashes":["3649515864","63159454"]}