{"data":{"site":{"pathPrefix":"/restaurant-inspections"},"postgres":{"establishment":[{"establishmentid":"4089","name":"Cafe D'Mongo's Speakeasy","address":"1439 Griswold St","zipcode":"48226","owner":"DEE & L Development","licenseNumber":"072503","licenseType":"Fixed Establishment","establishmentType":"Food Service Establishment","establishmentStatus":"Open","riskCategory":"Medium","reviewFrequencyDays":"365.0","coords":"-83.05011,42.33429","geojson":{"id":"4089","type":"Feature","geometry":{"type":"Point","coordinates":[-83.0501100239999,42.3342891510001]},"properties":{"name":"Cafe D'Mongo's Speakeasy","owner":"DEE & L Development","address":"1439 Griswold St","zipcode":"48226","license_type":"Fixed Establishment","risk_category":"Medium","license_number":"072503","establishmentid":"4089","establishment_type":"Food Service Establishment","establishment_status":"Open","review_frequency_days":"365.0","most_recent_license_date":"4/30/2018"}},"nearbyList":[{"establishmentid":"4855","name":"GO! Smoothies, LLC","address":"110 Clifford","zipcode":"48226"},{"establishmentid":"51622700","name":"ChickP","address":"110 Clifford St","zipcode":"48226"},{"establishmentid":"4853","name":"Downtown Louie's","address":"30 Clifford St","zipcode":"48226"},{"establishmentid":"5374","name":"La Pecora Nera","address":"1514 Washington Blvd Ste. 104","zipcode":"48226"},{"establishmentid":"51623064","name":"Huddle Soft Serve","address":"2 John R","zipcode":"48226"},{"establishmentid":"4775","name":"Chickpea in the D","address":"2 John R St","zipcode":"48226"},{"establishmentid":"5155","name":"Shopper's Lounge DBA Queens Bar","address":"35 E Grand River Ave","zipcode":"48226"},{"establishmentid":"51622578","name":"Lover's Only","address":"34 W Grand River Ave","zipcode":"48226"},{"establishmentid":"51622763","name":"Cannelle Detroit LLC","address":"45 W Grand River Ave","zipcode":"48226"},{"establishmentid":"4975","name":"Aloft Detroit W XYZ","address":"1 Park Ave","zipcode":"48226"}],"inspectionsByEstablishmentidList":[{"inspectionid":"44424","inspectionDate":"2018-12-11T00:00:00","inspectionType":"Routine Inspection","inCompliance":"Yes","violationsByInspectionidList":[{"violationCode":"6-501.11","violationDescription":"PHYSICAL FACILITIES shall be maintained in good repair.\r\n","violationType":"Core","itemDescription":"Physical facilities","subItem":"ceiling(s)","problemDescription":"In poor repair","subProblem":"","location":"CEILING","subLocation":"","corrected":"Not required","daysToCorrect":"30.0","correctedDate":null,"correctionDescription":"Replace."},{"violationCode":"5-205.15","violationDescription":"A PLUMBING SYSTEM shall be:\r\n(A) Repaired according to LAW; (P) and\r\n(B) Maintained in good repair.\r\n","violationType":"Core","itemDescription":"Plumbing system","subItem":"","problemDescription":"Not maintained","subProblem":"","location":"HANDSINK(S)","subLocation":"","corrected":"Not required","daysToCorrect":"10.0","correctedDate":null,"correctionDescription":"Maintain in good repair"}]},{"inspectionid":"40742","inspectionDate":"2017-11-09T00:00:00","inspectionType":"Routine Inspection","inCompliance":"No","violationsByInspectionidList":[{"violationCode":"7-201.11","violationDescription":"POISONOUS OR TOXIC MATERIAL shall be stored so they can not contaminate FOOD, EQUIPMENT, UTENSILS, LINENS, AND SINGLE-SERVICE AND SINGLE-USE ARTICLES by:   \r\n(A) Separating the POISONOUS OR TOXIC MATERIAL by spacing or partitioning; (P) and   \r\n(B) Locating the POISONOUS OR TOXIC MATERIAL in an area that is not above FOOD, EQUIPMENT, UTENSILS, LINENS, AND SINGLE-SERVICE AND SINGLE-USE ARTICLES.  This paragraph does not apply to EQUIPMENT and UTENSIL cleaners and sanitizers that are stored in WAREWASHING areas for availability and convenience if the materials are stored to prevent contamination of FOOD, EQUIPMENT, UTENSILS, LINENS, AND SINGLE-SERVICE and SINGLE-USE ARTICLES. (P)","violationType":"Priority","itemDescription":"Poisonous/toxic material(s)","subItem":"","problemDescription":"Stored over/with","subProblem":"Single-service/use items","location":"RESTROOM (WOMEN'S)","subLocation":"","corrected":"Yes","daysToCorrect":"10.0","correctedDate":"2017-11-09T00:00:00","correctionDescription":"Store toxics below and away from all other items."},{"violationCode":"4-302.14","violationDescription":"A test kit or other device that accurately measures the concentration in mg/L of SANITIZING solutions shall be provided. (Pf)\r\n","violationType":"Foundation","itemDescription":"Sanitizer test kit","subItem":"","problemDescription":"Not provided","subProblem":"","location":"FACILITY","subLocation":"","corrected":"No","daysToCorrect":"10.0","correctedDate":null,"correctionDescription":"Provide."},{"violationCode":"6-301.11","violationDescription":"Each HANDWASHING SINK or group of 2 adjacent HANDWASHING SINKS shall be provided with a supply of hand cleaning liquid, powder, or bar soap. (Pf)\r\n","violationType":"Foundation","itemDescription":"Soap","subItem":"at handsink","problemDescription":"Not provided","subProblem":"At hand sink","location":"HANDSINK(S)","subLocation":"","corrected":"Yes","daysToCorrect":"10.0","correctedDate":"2017-11-09T00:00:00","correctionDescription":"Provide"}]},{"inspectionid":"36675","inspectionDate":"2016-10-05T00:00:00","inspectionType":"Routine Inspection","inCompliance":"Yes","violationsByInspectionidList":[]}]}],"maxInspectionDate":[{"inspectionDate":"2019-10-31T00:00:00"}]}},"pageContext":{"eid":"4089"}}