{"data":{"site":{"pathPrefix":"/restaurant-inspections"},"postgres":{"establishment":[{"establishmentid":"4659","name":"Motor City Casino- Expansion Service Bar","address":"2901 Grand River Ave","zipcode":"48201","owner":"Detroit Ent. LLC DBA MC Casino","licenseNumber":"075700","licenseType":"Fixed Establishment","establishmentType":"Food Service Establishment","establishmentStatus":"Open","riskCategory":"Medium","reviewFrequencyDays":"365.0","coords":"-83.06763,42.33944","geojson":{"id":"4659","type":"Feature","geometry":{"type":"Point","coordinates":[-83.067633488,42.3394391140001]},"properties":{"name":"Motor City Casino- Expansion Service Bar","owner":"Detroit Ent. LLC DBA MC Casino","address":"2901 Grand River Ave","zipcode":"48201","license_type":"Fixed Establishment","risk_category":"Medium","license_number":"075700","establishmentid":"4659","establishment_type":"Food Service Establishment","establishment_status":"Open","review_frequency_days":"365.0","most_recent_license_date":"4/13/2018"}},"nearbyList":[{"establishmentid":"4847","name":"Motor City Casino - Food/Beverage Cart","address":"2901 Grand River Ave","zipcode":"48201"},{"establishmentid":"5027","name":"Motor City Casino - Food Truck","address":"2901 Grand River Ave","zipcode":"48201"},{"establishmentid":"4776","name":"Motor City Casino - First Floor Service ","address":"2901 Grand River Ave ","zipcode":"48201"},{"establishmentid":"3770","name":"Motor City Casino - Associates Dining Rm","address":"2901 Grand River Ave","zipcode":"48201"},{"establishmentid":"3779","name":"Motor City Casino - Chromatics Bar","address":"2901 Grand River Ave","zipcode":"48201"},{"establishmentid":"3725","name":"Motor City Casino- Club Amnesia","address":"2901 Grand River Ave","zipcode":"48201"},{"establishmentid":"4114","name":"Motor City Casino - Concierge Lounge","address":"2901 Grand River Ave","zipcode":"48201"},{"establishmentid":"3782","name":"Motor City Casino- 2nd flr service bar","address":"2901 Grand River Ave","zipcode":"48201"},{"establishmentid":"3769","name":"Motor City Casino - Assembly Line Buffet","address":"2901 Grand River Ave","zipcode":"48201"},{"establishmentid":"3771","name":"Motor City Casino-Grand River Deli & Bur","address":"2901 Grand River Ave","zipcode":"48201"}],"inspectionsByEstablishmentidList":[{"inspectionid":"43085","inspectionDate":"2018-06-05T00:00:00","inspectionType":"Routine Inspection","inCompliance":"Yes","violationsByInspectionidList":[{"violationCode":"4-302.14","violationDescription":"A test kit or other device that accurately measures the concentration in mg/L of SANITIZING solutions shall be provided. (Pf)\r\n","violationType":"Foundation","itemDescription":"Sanitizer test kit","subItem":"chlorine","problemDescription":"Not provided","subProblem":"","location":"FACILITY","subLocation":"","corrected":"Yes","daysToCorrect":"10.0","correctedDate":"2018-07-05T00:00:00","correctionDescription":"Provide."}]},{"inspectionid":"39174","inspectionDate":"2017-04-28T00:00:00","inspectionType":"Routine Inspection","inCompliance":"No","violationsByInspectionidList":[{"violationCode":"6-301.11","violationDescription":"Each HANDWASHING SINK or group of 2 adjacent HANDWASHING SINKS shall be provided with a supply of hand cleaning liquid, powder, or bar soap. (Pf)\r\n","violationType":"Foundation","itemDescription":"Soap","subItem":"at handsink","problemDescription":"Not provided","subProblem":"At hand sink","location":"HANDSINK(S)","subLocation":"","corrected":"No","daysToCorrect":"10.0","correctedDate":null,"correctionDescription":"Provide"},{"violationCode":"4-302.14","violationDescription":"A test kit or other device that accurately measures the concentration in mg/L of SANITIZING solutions shall be provided. (Pf)\r\n","violationType":"Foundation","itemDescription":"Sanitizer test kit","subItem":"iodine","problemDescription":"Not provided","subProblem":"","location":"DISH MACHINE","subLocation":"","corrected":"No","daysToCorrect":"10.0","correctedDate":null,"correctionDescription":"Provide."},{"violationCode":"6-501.12","violationDescription":"(A) PHYSICAL FACILITIES shall be cleaned as often as necessary to keep them clean.\r\n(B) Except spill cleanup, cleaning shall be done during periods when the least amount of FOOD is exposed such as after closing. ","violationType":"Core","itemDescription":"Physical facilities/structures","subItem":"floors","problemDescription":"Soiled","subProblem":"","location":"FLOOR","subLocation":"","corrected":"Not required","daysToCorrect":"30.0","correctedDate":null,"correctionDescription":"Clean."},{"violationCode":"4-602.13","violationDescription":"NonFOOD-CONTACT SURFACES of EQUIPMENT shall be cleaned at a frequency necessary to preclude accumulation of soil residues.\r\n","violationType":"Core","itemDescription":"Nonfood contact surface(s)","subItem":"","problemDescription":"Soiled","subProblem":"","location":"BAR","subLocation":"","corrected":"Not required","daysToCorrect":"30.0","correctedDate":null,"correctionDescription":"Clean."}]}]}],"maxInspectionDate":[{"inspectionDate":"2019-03-31T00:00:00"}]}},"pageContext":{"eid":"4659"}}