{"data":{"site":{"pathPrefix":"/restaurant-inspections"},"postgres":{"establishment":[{"establishmentid":"703","name":"Roberto Clemente Elementary","address":"1551 Beard St","zipcode":"48209","owner":"DETROIT BOARD OF EDUCATION","licenseNumber":"034662","licenseType":"Fixed Establishment","establishmentType":"Public School","establishmentStatus":"Open","riskCategory":null,"reviewFrequencyDays":"210","coords":"-83.11607,42.30937","geojson":{"id":"703","type":"Feature","geometry":{"type":"Point","coordinates":[-83.11607229,42.309372757]},"properties":{"name":"Roberto Clemente Elementary","owner":"DETROIT BOARD OF EDUCATION","address":"1551 Beard St","zipcode":"48209","license_type":"Fixed Establishment","risk_category":null,"license_number":"034662","establishmentid":"703","establishment_type":"Public School","establishment_status":"Open","review_frequency_days":"210","most_recent_license_date":"4/15/2019"}},"nearbyList":[{"establishmentid":"732","name":"Sidekicks Saloon","address":"7023 Chatsfield St","zipcode":"48209"},{"establishmentid":"3304","name":"Cesar Chavez Middle School","address":"6782 Goldsmith St","zipcode":"48209"},{"establishmentid":"735","name":"Happy Bar","address":"1247 Green St N","zipcode":"48209"},{"establishmentid":"1650","name":"Dino's Cafe Inc.","address":"1601 Waterman St","zipcode":"48209"},{"establishmentid":"2343","name":"Cesar Chavez Academy High School","address":"1761 Waterman St","zipcode":"48209"},{"establishmentid":"3926","name":"Taqueria Camino Real","address":"1100 Central Ave","zipcode":"48209"},{"establishmentid":"51622712","name":"Tacos Regios Mexican Grill","address":"2257 Waterman St","zipcode":"48209"},{"establishmentid":"51623131","name":"Ice Cream & Cafe La Ni√±a","address":"2257 Waterman St","zipcode":"48209"},{"establishmentid":"4792","name":"Las Palmas Neveria Y Cafeteria","address":"7009 W Vernor","zipcode":"48209"},{"establishmentid":"454","name":"Taqueria Los Altos","address":"7056 W Vernor","zipcode":"48209"}],"inspectionsByEstablishmentidList":[{"inspectionid":"49330","inspectionDate":"2019-10-03T00:00:00","inspectionType":"Routine Inspection","inCompliance":"Yes","violationsByInspectionidList":[{"violationCode":"4-501.11","violationDescription":"EQUIPMENT shall be maintained in a state of repair and condition that meets the requirements of the code.\r\n","violationType":"Core","itemDescription":"Equipment","subItem":"","problemDescription":"In poor repair","subProblem":"","location":"WALK-IN FREEZER","subLocation":"Door of freezer","corrected":"Not required","daysToCorrect":"30","correctedDate":null,"correctionDescription":null}]},{"inspectionid":"47984","inspectionDate":"2019-06-06T00:00:00","inspectionType":"Routine Inspection","inCompliance":"Yes","violationsByInspectionidList":[{"violationCode":"6-501.14","violationDescription":"(A) Intake and exhaust air ducts shall be cleaned and filters changed so they are not a source of contamination by dust, dirt, and other materials. \r\n(B) If vented to the outside, ventilation systems may not create a public health HAZARD or nuisance or unLAWful discharge.\r\n","violationType":"Core","itemDescription":"Ventilation system","subItem":"intake air ducts","problemDescription":"Not clean","subProblem":"","location":"KITCHEN","subLocation":"Vent cover","corrected":"Not required","daysToCorrect":"30","correctedDate":null,"correctionDescription":"Clean"}]},{"inspectionid":"44332","inspectionDate":"2018-12-04T00:00:00","inspectionType":"Routine Inspection","inCompliance":"Yes","violationsByInspectionidList":[{"violationCode":"4-501.11","violationDescription":"EQUIPMENT shall be maintained in a state of repair and condition that meets the requirements of the code.\r\n","violationType":"Core","itemDescription":"Equipment","subItem":"","problemDescription":"Broken","subProblem":"","location":"KITCHEN","subLocation":"Equipment","corrected":"Not required","daysToCorrect":"30","correctedDate":null,"correctionDescription":"Repair/replace."}]},{"inspectionid":"38801","inspectionDate":"2017-05-17T00:00:00","inspectionType":"Routine Inspection","inCompliance":"Yes","violationsByInspectionidList":[]}]}],"maxInspectionDate":[{"inspectionDate":"2020-05-29T00:00:00"}]}},"pageContext":{"eid":"703"}}