{"componentChunkName":"component---src-templates-establishment-page-js","path":"/establishment/2808","result":{"data":{"site":{"pathPrefix":"/restaurant-inspections"},"postgres":{"establishment":[{"establishmentid":"2808","name":"College for Creative Studies","address":"201 Kirby St. E.","zipcode":"48202","owner":"Sodexo Management Inc. Lic Dep","licenseNumber":"202844","licenseType":"Fixed Establishment","establishmentType":"Food Service Establishment","establishmentStatus":"Open","riskCategory":"High","reviewFrequencyDays":"150","coords":"-83.06424,42.36132","geojson":{"id":"2808","type":"Feature","geometry":{"type":"Point","coordinates":[-83.064237272,42.361323903]},"properties":{"name":"College for Creative Studies","owner":"Sodexo Management Inc. Lic Dep","address":"201 Kirby St. E.","zipcode":"48202","license_type":"Fixed Establishment","risk_category":"High","license_number":"202844","establishmentid":"2808","establishment_type":"Food Service Establishment","establishment_status":"Open","review_frequency_days":"150","most_recent_license_date":"4/30/2018"}},"nearbyList":[{"establishmentid":"3437","name":"Sodexo Mgmt. Inc.","address":"201 Kirby E.","zipcode":"48201"},{"establishmentid":"3435","name":"Sodexo Mgmt. Inc.","address":"201 Kirby E.","zipcode":"48201"},{"establishmentid":"3436","name":"Sodexo Mgmt. Inc.","address":"201 Kirby E.","zipcode":"48201"},{"establishmentid":"2906","name":"AVI Foodsystems","address":"201 Kirby E.","zipcode":"48202"},{"establishmentid":"2564","name":"AVI Foodsystems","address":"201 Kirby E.","zipcode":"48202"},{"establishmentid":"2908","name":"AVI Foodsystems","address":"201 Kirby E.","zipcode":"48202"},{"establishmentid":"2122","name":"Robinson Dairy Vending","address":"201 Kirby E.","zipcode":"48202"},{"establishmentid":"2907","name":"AVI Foodsystems","address":"201 Kirby E.","zipcode":"48202"},{"establishmentid":"2705","name":"AVI Foodsystem (CCS)","address":"201 Kirby E.","zipcode":"48202"},{"establishmentid":"4511","name":"Sodexo Mgmt. Inc.","address":"201 E. Kirby","zipcode":"48206"}],"inspectionsByEstablishmentidList":[{"inspectionid":"42522","inspectionDate":"2018-06-13T00:00:00","inspectionType":"Routine Inspection","inCompliance":"Yes","violationsByInspectionidList":[]},{"inspectionid":"40973","inspectionDate":"2017-11-21T00:00:00","inspectionType":"Routine Inspection","inCompliance":"No","violationsByInspectionidList":[{"violationCode":"4-301.11","violationDescription":"EQUIPMENT for cooling and heating FOOD, and holding cold and hot FOOD, shall be sufficient in number and capacity to provide FOOD temperatures as required. (Pf)\n","violationType":"Foundation","itemDescription":"Equipment","subItem":"cold holding","problemDescription":"Inadequate","subProblem":null,"location":"ZIME","subLocation":null,"corrected":"False","daysToCorrect":"10","correctedDate":null,"correctionDescription":"Provide additional equipment to meet requirement above."},{"violationCode":"2-402.11","violationDescription":"FOOD EMPLOYEES shall wear hair restraints such as hats, hair coverings or nets, beard restraints, and clothing that covers body hair, that are designed and worn to effectively keep their hair from contacting exposed FOOD; clean EQUIPMENT, UTENSILS, and LINENS; or unwrapped SINGLE-SERVICE or SINGLE-USE ARTICLES.","violationType":"Core","itemDescription":"Hair restraint","subItem":"hair/beard net","problemDescription":"Not properly","subProblem":null,"location":"KITCHEN","subLocation":null,"corrected":"True","daysToCorrect":"30","correctedDate":"2017-11-21T00:00:00","correctionDescription":"Replace/maintain to meet requirements above."}]},{"inspectionid":"38900","inspectionDate":"2017-05-19T00:00:00","inspectionType":"Routine Inspection","inCompliance":"Yes","violationsByInspectionidList":[]},{"inspectionid":"36982","inspectionDate":"2016-10-20T00:00:00","inspectionType":"Routine Inspection","inCompliance":"Yes","violationsByInspectionidList":[{"violationCode":"6-501.12","violationDescription":"(A) PHYSICAL FACILITIES shall be cleaned as often as necessary to keep them clean.\n(B) Except spill cleanup, cleaning shall be done during periods when the least amount of FOOD is exposed such as after closing. ","violationType":"Core","itemDescription":"Physical facilities/structures","subItem":null,"problemDescription":"With accumulation of debris","subProblem":null,"location":"FACILITY","subLocation":"Throughout","corrected":"False","daysToCorrect":"30","correctedDate":null,"correctionDescription":"Keep clean."},{"violationCode":"4-602.13","violationDescription":"NonFOOD-CONTACT SURFACES of EQUIPMENT shall be cleaned at a frequency necessary to preclude accumulation of soil residues.\n","violationType":"Core","itemDescription":"Nonfood contact surface(s)","subItem":null,"problemDescription":"Soiled","subProblem":null,"location":"FACILITY","subLocation":"Throughout Equipment","corrected":"False","daysToCorrect":"30","correctedDate":null,"correctionDescription":"Clean."}]}]}],"maxInspectionDate":[{"inspectionDate":"2022-07-25T00:00:00"}]}},"pageContext":{"eid":"2808"}},"staticQueryHashes":["3649515864","63159454"]}