{"data":{"postgres":{"establishment":[{"establishmentid":"597","name":"Subway #53184","address":"2799 W Grand Blvd","zipcode":"48202","owner":"Subway","licenseNumber":"073377","licenseType":"Fixed Establishment","establishmentType":"Food Service Establishment","establishmentStatus":"Open","riskCategory":"Medium","reviewFrequencyDays":"365.0","coords":"-83.08635,42.36787","geojson":{"id":"597","type":"Feature","geometry":{"type":"Point","coordinates":[-83.086346885,42.367873973]},"properties":{"name":"Subway #53184","owner":"Subway","address":"2799 W Grand Blvd","zipcode":"48202","license_type":"Fixed Establishment","risk_category":"Medium","license_number":"073377","establishmentid":"597","establishment_type":"Food Service Establishment","establishment_status":"Open","review_frequency_days":"365.0","most_recent_license_date":null}},"nearbyList":[{"establishmentid":"4332","name":"Papa's Pizza","address":"2697 W Grand Blvd","zipcode":"48208"},{"establishmentid":"1051","name":"Kentucky Fried Chicken H730215","address":"2716 W Grand Blvd","zipcode":"48208"},{"establishmentid":"5129","name":"The Marble Bar","address":"1501 Holden ","zipcode":"48208"},{"establishmentid":"1103","name":"McDonald's #4496","address":"2889 W Grand Blvd","zipcode":"48202"},{"establishmentid":"4122","name":"City Wings","address":"2896 W Grand Blvd","zipcode":"48202"},{"establishmentid":"1460","name":"Joe's Deli (Birmingham Deli)","address":"3011 W Grand Blvd","zipcode":"48202"},{"establishmentid":"51622618","name":"The Platform Concession Stand","address":"3011 W Grand Blvd","zipcode":"48202"},{"establishmentid":"3950","name":"Fisher Theatre","address":"3011 W Grand Blvd","zipcode":"48202"},{"establishmentid":"51622616","name":"The City Bakery","address":"3011 W Grand Blvd","zipcode":"48202"},{"establishmentid":"2706","name":"Stella International Cafe","address":"3011 W Grand Blvd","zipcode":"48202"},{"establishmentid":"1537","name":"Cuisine","address":"670 Lothrop St","zipcode":"48202"},{"establishmentid":"3892","name":"Evans Solutions","address":"8045 Second","zipcode":"48202"},{"establishmentid":"51622570","name":"Avalon Cafe and Biscuit Bar","address":"2990 W Grand Blvd","zipcode":"48202"},{"establishmentid":"4878","name":"Cafe Con Leche - Nord","address":"2990 W Grand Blvd","zipcode":"48202"},{"establishmentid":"4376","name":"Mount Zion New Covenant Baptist Church","address":"8231 Second Ave","zipcode":"48202"},{"establishmentid":"4170","name":"New Center Park","address":"2998 W Grand Blvd","zipcode":"48202"},{"establishmentid":"662","name":"Northern Lights Lounge","address":"660 W Baltimore St","zipcode":"48202"},{"establishmentid":"865","name":"Thirkell Elementary","address":"7724 Fourteenth St","zipcode":"48206"},{"establishmentid":"1683","name":"Coffee Master","address":"3031 W Grand Blvd. #206","zipcode":"48202"},{"establishmentid":"2076","name":"The Coney Man","address":"3031 W Grand Blvd. ","zipcode":"48202"}],"inspectionsByEstablishmentidList":[{"inspectionid":"43776","inspectionDate":"2018-10-16T00:00:00","inspectionType":"Complaint","inCompliance":"Yes","violationsByInspectionidList":[]},{"inspectionid":"43216","inspectionDate":"2018-08-20T00:00:00","inspectionType":"Routine Inspection","inCompliance":"Yes","violationsByInspectionidList":[{"violationCode":"MFL289.2129","violationDescription":"Sec. 2129. (1) All of the following food establishments shall employ a minimum of 1 managerial employee who is currently certified under a personnel certification program accredited by the American national standards institute, utilizing the conference for food protection standards:  (a) A food service establishment that is not any of the following:    (i) Operating under a temporary food service establishment license.  (ii) A vending machine location.     (b) An extended retail food establishment.  (c) Operated within a retail grocery.  (2) An individual certified under subsection (1) shall be recognized with full faith and credit by the state and all local units of government throughout the state.  (3) The department may promulgate rules to do all of the following:  (a) Develop requirements for retail food establishments to follow when employing certified food safety managers or personnel.  (b) Set a reasonable date for compliance with the requirements under subdivision (a) taking into consideration existing local personnel certification requirements.  (c) Establish certification fees necessary to implement, maintain, and track certified individuals directly or by contract. The department may annually adjust the schedule of fees to provide that the fee charged is sufficient to cover the cost of the certification tracking program.  (d) Implement and enforce the requirements described in subdivision (a).    (4) The certification program developed by the American national standards institute, as it exists on April 1, 2008 , is incorporated by reference. The department may adopt updates to the certification program accreditation standards in subsection (1) by rule.     (5) This section does not prohibit any local legislative body from implementing a food handler program, an employee health certification program, or a manager certification program, if it is not in conflict with this section.","violationType":"Core","itemDescription":"Person-in-charge","subItem":"","problemDescription":null,"subProblem":"","location":"ESTABLISHMENT","subLocation":"","corrected":"Not required","daysToCorrect":"30.0","correctedDate":null,"correctionDescription":null},{"violationCode":"MFL289.4119","violationDescription":"Sec. 4119. (1) Except as otherwise provided in subsection (2), a person licensed as a food establishment under this chapter shall keep a copy of the current license or temporary license furnished by the department posted and exposed in a conspicuous place for public inspection. A conspicuous place is the principal place where food business is transacted.  (2) In the case of vending machines, the name and address and telephone number of the current vending machine location operator shall be conspicuously displayed on each vending machine.","violationType":"Core","itemDescription":"Food Service License","subItem":"","problemDescription":"Not displayed","subProblem":"","location":"ESTABLISHMENT","subLocation":"","corrected":"Not required","daysToCorrect":"30.0","correctedDate":null,"correctionDescription":null}]},{"inspectionid":"44048","inspectionDate":"2018-06-26T00:00:00","inspectionType":"Routine Inspection","inCompliance":"Yes","violationsByInspectionidList":[{"violationCode":"MFL289.4119","violationDescription":"Sec. 4119. (1) Except as otherwise provided in subsection (2), a person licensed as a food establishment under this chapter shall keep a copy of the current license or temporary license furnished by the department posted and exposed in a conspicuous place for public inspection. A conspicuous place is the principal place where food business is transacted.  (2) In the case of vending machines, the name and address and telephone number of the current vending machine location operator shall be conspicuously displayed on each vending machine.","violationType":"Core","itemDescription":"Food Service License","subItem":"","problemDescription":"Not displayed","subProblem":"","location":"ESTABLISHMENT","subLocation":"","corrected":"Not required","daysToCorrect":"30.0","correctedDate":null,"correctionDescription":null},{"violationCode":"MFL289.2129","violationDescription":"Sec. 2129. (1) All of the following food establishments shall employ a minimum of 1 managerial employee who is currently certified under a personnel certification program accredited by the American national standards institute, utilizing the conference for food protection standards:  (a) A food service establishment that is not any of the following:    (i) Operating under a temporary food service establishment license.  (ii) A vending machine location.     (b) An extended retail food establishment.  (c) Operated within a retail grocery.  (2) An individual certified under subsection (1) shall be recognized with full faith and credit by the state and all local units of government throughout the state.  (3) The department may promulgate rules to do all of the following:  (a) Develop requirements for retail food establishments to follow when employing certified food safety managers or personnel.  (b) Set a reasonable date for compliance with the requirements under subdivision (a) taking into consideration existing local personnel certification requirements.  (c) Establish certification fees necessary to implement, maintain, and track certified individuals directly or by contract. The department may annually adjust the schedule of fees to provide that the fee charged is sufficient to cover the cost of the certification tracking program.  (d) Implement and enforce the requirements described in subdivision (a).    (4) The certification program developed by the American national standards institute, as it exists on April 1, 2008 , is incorporated by reference. The department may adopt updates to the certification program accreditation standards in subsection (1) by rule.     (5) This section does not prohibit any local legislative body from implementing a food handler program, an employee health certification program, or a manager certification program, if it is not in conflict with this section.","violationType":"Core","itemDescription":"Person-in-charge","subItem":"","problemDescription":null,"subProblem":"","location":"ESTABLISHMENT","subLocation":"","corrected":"Not required","daysToCorrect":"30.0","correctedDate":null,"correctionDescription":null}]},{"inspectionid":"39667","inspectionDate":"2017-08-22T00:00:00","inspectionType":"Routine Inspection","inCompliance":"Yes","violationsByInspectionidList":[]}]}]}},"pageContext":{"eid":"597"}}