{"data":{"site":{"pathPrefix":"/restaurant-inspections"},"postgres":{"establishment":[{"establishmentid":"51622844","name":"Paramita Sound","address":"1515 Broadway St","zipcode":"48226","owner":"Andrey Douthard","licenseNumber":"241595","licenseType":"Fixed Establishment","establishmentType":"Food Service Establishment","establishmentStatus":"Open","riskCategory":"High","reviewFrequencyDays":"180.0","coords":"-83.04873,42.33574","geojson":{"id":"51622844","type":"Feature","geometry":{"type":"Point","coordinates":[-83.0487332069999,42.335736297]},"properties":{"name":"Paramita Sound","owner":"Andrey Douthard","address":"1515 Broadway St","zipcode":"48226","license_type":"Fixed Establishment","risk_category":"High","license_number":"241595","establishmentid":"51622844","establishment_type":"Food Service Establishment","establishment_status":"Open","review_frequency_days":"180.0","most_recent_license_date":"5/6/2019"}},"nearbyList":[{"establishmentid":"51622822","name":"Sid Gold's Request Room","address":"1515 Broadway St","zipcode":"48226"},{"establishmentid":"51622594","name":"Albena- Taste Everything LLC","address":"1509 Broadway St","zipcode":"48226"},{"establishmentid":"51622592","name":"1509 Populace LLC","address":"1509 Broadway St","zipcode":"48226"},{"establishmentid":"51622595","name":"The Wurlitzer MT DBA Candy Bar","address":"1509 Broadway St","zipcode":"48226"},{"establishmentid":"4373","name":"Small Plates LLC","address":"1521 Broadway St","zipcode":"48226"},{"establishmentid":"2614","name":"Detroit Beer Co.","address":"1529 Broadway St","zipcode":"48226"},{"establishmentid":"51622878","name":"Element Detroit at the Metropolitan 1A","address":"33 John R Ave","zipcode":"48226"},{"establishmentid":"51622877","name":"Element Detroit at the Metro- Banquets","address":"33 John R Ave","zipcode":"48226"},{"establishmentid":"51622965","name":"The Monarch Club","address":"33 John R","zipcode":"48226"},{"establishmentid":"1680","name":"Michigan Opera Theater","address":"1526 Broadway St","zipcode":"48226"}],"inspectionsByEstablishmentidList":[{"inspectionid":"49404","inspectionDate":"2019-10-09T00:00:00","inspectionType":"Routine Inspection","inCompliance":"Yes","violationsByInspectionidList":[{"violationCode":"3-303.11","violationDescription":"After use as a medium for cooling the exterior surfaces of FOOD, or cooling coils and tubes of EQUIPMENT, ice may not be used as FOOD. (P)\r\n","violationType":"Priority","itemDescription":"Ice","subItem":"","problemDescription":"Used as a cooling medium","subProblem":"","location":"BAR","subLocation":"In the Ice machine","corrected":"Yes","daysToCorrect":"10.0","correctedDate":"2019-10-09T00:00:00","correctionDescription":null},{"violationCode":"6-301.11","violationDescription":"Each HANDWASHING SINK or group of 2 adjacent HANDWASHING SINKS shall be provided with a supply of hand cleaning liquid, powder, or bar soap. (Pf)\r\n","violationType":"Foundation","itemDescription":"Soap","subItem":"","problemDescription":"Not provided","subProblem":"","location":"BAR","subLocation":"At the Handsink","corrected":"Yes","daysToCorrect":"10.0","correctedDate":"2019-10-09T00:00:00","correctionDescription":null}]},{"inspectionid":"48252","inspectionDate":"2019-07-02T00:00:00","inspectionType":"Plan Review/Pre-Open","inCompliance":"Yes","violationsByInspectionidList":[]}]}],"maxInspectionDate":[{"inspectionDate":"2019-10-31T00:00:00"}]}},"pageContext":{"eid":"51622844"}}