{"data":{"site":{"pathPrefix":"/restaurant-inspections"},"postgres":{"establishment":[{"establishmentid":"51623183","name":"Wendy's #1627","address":"3990 John R St","zipcode":"48201","owner":"TSFR Burger LLC","licenseNumber":"247257","licenseType":"Fixed Establishment","establishmentType":"Food Service Establishment","establishmentStatus":"Open","riskCategory":"Medium","reviewFrequencyDays":"365","coords":"-83.05697,42.35067","geojson":{"id":"51623183","type":"Feature","geometry":{"type":"Point","coordinates":[-83.056967004,42.350668985]},"properties":{"name":"Wendy's #1627","owner":"TSFR Burger LLC","address":"3990 John R St","zipcode":"48201","license_type":"Fixed Establishment","risk_category":"Medium","license_number":"247257","establishmentid":"51623183","establishment_type":"Food Service Establishment","establishment_status":"Open","review_frequency_days":"365","most_recent_license_date":"6/10/2020"}},"nearbyList":[{"establishmentid":"4994","name":"Harper Hutzel Hospital ","address":"3990 John R","zipcode":"48201"},{"establishmentid":"5137","name":"Detroit Burger Bar","address":"3990 John R St","zipcode":"48201"},{"establishmentid":"3807","name":"Great Lakes Coffee Beanery","address":"3990 John R St","zipcode":"48201"},{"establishmentid":"5136","name":"Estia Greek Street Food","address":"3990 John R","zipcode":"48201"},{"establishmentid":"5135","name":"Chiqui Mexican","address":"3990 John R ","zipcode":"48201"},{"establishmentid":"51622634","name":"Chick-Fil-A","address":"3990 John R St","zipcode":"48201"},{"establishmentid":"51622839","name":"Dunkin Donuts OM DMC Donuts","address":"3990 John R St","zipcode":"48201"},{"establishmentid":"5198","name":"Bigalora Wood Fired Cucina","address":"3990 John R","zipcode":"48201"},{"establishmentid":"51623021","name":"DMCH #102 LLC DBA Happy's Pizza","address":"3990 John R St","zipcode":"48202"},{"establishmentid":"51622849","name":"Harper-Hutzel Hospital","address":"3990 John R St","zipcode":"48201"}],"inspectionsByEstablishmentidList":[{"inspectionid":"50454","inspectionDate":"2019-09-26T00:00:00","inspectionType":"Routine Inspection","inCompliance":"Yes","violationsByInspectionidList":[{"violationCode":"4-501.18","violationDescription":"The wash, rinse, and SANITIZE solutions shall be maintained clean.\r\n","violationType":"Core","itemDescription":"Warewashing solutions","subItem":"sanitizing","problemDescription":"Not clean","subProblem":"","location":"3 COMPARTMENT SINK AREA","subLocation":"","corrected":"Yes","daysToCorrect":"30","correctedDate":"2019-09-26T00:00:00","correctionDescription":"Clean"},{"violationCode":"2-402.11","violationDescription":"FOOD EMPLOYEES shall wear hair restraints such as hats, hair coverings or nets, beard restraints, and clothing that covers body hair, that are designed and worn to effectively keep their hair from contacting exposed FOOD; clean EQUIPMENT, UTENSILS, and LINENS; or unwrapped SINGLE-SERVICE or SINGLE-USE ARTICLES.","violationType":"Core","itemDescription":"Hair restraint","subItem":"hair/beard net","problemDescription":"Not worn on head/hair","subProblem":"","location":"EMPLOYEE(S)","subLocation":"Lack of Hair Restraints/Covering","corrected":"Yes","daysToCorrect":"30","correctedDate":"2019-09-26T00:00:00","correctionDescription":"Provide hat or hair net."},{"violationCode":"6-501.12","violationDescription":"(A) PHYSICAL FACILITIES shall be cleaned as often as necessary to keep them clean.\r\n(B) Except spill cleanup, cleaning shall be done during periods when the least amount of FOOD is exposed such as after closing. ","violationType":"Core","itemDescription":"Physical facilities/structures","subItem":"","problemDescription":"With accumulation of debris","subProblem":"","location":"DISHWASHING AREA","subLocation":"Plumbing","corrected":"Not required","daysToCorrect":"30","correctedDate":null,"correctionDescription":"Keep clean."}]}]}],"maxInspectionDate":[{"inspectionDate":"2020-10-30T00:00:00"}]}},"pageContext":{"eid":"51623183"}}