{"componentChunkName":"component---src-templates-establishment-page-js","path":"/establishment/51623377","result":{"data":{"site":{"pathPrefix":"/restaurant-inspections"},"postgres":{"establishment":[{"establishmentid":"51623377","name":"Olympia Coney Island ","address":"20040 Plymouth Rd","zipcode":"48228","owner":"NGJT LLC ","licenseNumber":"253494","licenseType":"Fixed Establishment","establishmentType":"Food Service Establishment","establishmentStatus":"Open","riskCategory":null,"reviewFrequencyDays":"150","coords":"-83.23732,42.37214","geojson":{"id":"51623377","type":"Feature","geometry":{"type":"Point","coordinates":[-83.237321324,42.372140227]},"properties":{"name":"Olympia Coney Island ","owner":"NGJT LLC ","address":"20040 Plymouth Rd","zipcode":"48228","license_type":"Fixed Establishment","risk_category":null,"license_number":"253494","establishmentid":"51623377","establishment_type":"Food Service Establishment","establishment_status":"Open","review_frequency_days":"150","most_recent_license_date":"12/5/2022"}},"nearbyList":[{"establishmentid":"977","name":"Olympia Coney Island","address":"20040 Plymouth Rd.","zipcode":"48228"},{"establishmentid":"4872","name":"313 BBQ Inc.","address":"20100 Plymouth","zipcode":"48228"},{"establishmentid":"5299","name":"Plymouth Ocean Delight- Manhattan Fish","address":"20100 Plymouth Rd. Suite B","zipcode":"48228"},{"establishmentid":"51623034","name":"Manhattan Fish & Chicken","address":"20100 Plymouth Rd","zipcode":"48228"},{"establishmentid":"622","name":"Metro Fish and Chicken","address":"20152 Plymouth Rd.","zipcode":"48228"},{"establishmentid":"1786","name":"Burger King #7056","address":"20240 Plymouth Rd.","zipcode":"48228"},{"establishmentid":"621","name":"Bentley Lounge","address":"19631 Plymouth Rd.","zipcode":"48228"},{"establishmentid":"5025","name":"New Bentley Lounge","address":"19631 Plymouth","zipcode":"48228"},{"establishmentid":"2471","name":"Ply Produce and De","address":"19615 Plymouth Rd.","zipcode":"48228"},{"establishmentid":"5097","name":"Ply Produce and Deli","address":"19615 Plymouth Rd.","zipcode":"48228"}],"inspectionsByEstablishmentidList":[{"inspectionid":"60680","inspectionDate":"2022-10-28T00:00:00","inspectionType":"Routine Inspection","inCompliance":"Yes","violationsByInspectionidList":[{"violationCode":"2-402.11","violationDescription":"FOOD EMPLOYEES shall wear hair restraints such as hats, hair coverings or nets, beard restraints, and clothing that covers body hair, that are designed and worn to effectively keep their hair from contacting exposed FOOD; clean EQUIPMENT, UTENSILS, and LINENS; or unwrapped SINGLE-SERVICE or SINGLE-USE ARTICLES.","violationType":"Core","itemDescription":"Hair restraint","subItem":"","problemDescription":"Not worn on head/hair","subProblem":"","location":"EMPLOYEE(S)","subLocation":"","corrected":"False","daysToCorrect":"30","correctedDate":null,"correctionDescription":null},{"violationCode":"6-501.12","violationDescription":"(A) PHYSICAL FACILITIES shall be cleaned as often as necessary to keep them clean.\n(B) Except spill cleanup, cleaning shall be done during periods when the least amount of FOOD is exposed such as after closing. ","violationType":"Core","itemDescription":"Physical facilities/structures","subItem":"","problemDescription":"Not clean","subProblem":"","location":"FACILITY","subLocation":"","corrected":"False","daysToCorrect":"30","correctedDate":null,"correctionDescription":null},{"violationCode":"2-401.11","violationDescription":"(A)    An EMPLOYEE shall eat, drink, or use any form of tobacco only in designated areas where the contamination of exposed FOOD; clean EQUIPMENT, UTENSILS, and LINENS; unwrapped SINGLE-SERVICE and SINGLE-USE ARTICLES; or other items needing protection can not result.\n(B)     A FOOD EMPLOYEE may drink from a closed BEVERAGE container if the container is handled to prevent contamination of:\n         (1)     The EMPLOYEE'S hands;\n         (2)     The container; and\n         (3)     Exposed FOOD; clean EQUIPMENT, UTENSILS, and LINENS; and unwrapped SINGLE-SERVICE and SINGLE-USE ARTICLES.\n","violationType":"Core","itemDescription":"Beverage container","subItem":"","problemDescription":"Not covered","subProblem":"","location":"EMPLOYEE(S)","subLocation":"","corrected":"True","daysToCorrect":"30","correctedDate":"2010-01-28T00:00:00","correctionDescription":null},{"violationCode":"2-401.11","violationDescription":"(A)    An EMPLOYEE shall eat, drink, or use any form of tobacco only in designated areas where the contamination of exposed FOOD; clean EQUIPMENT, UTENSILS, and LINENS; unwrapped SINGLE-SERVICE and SINGLE-USE ARTICLES; or other items needing protection can not result.\n(B)     A FOOD EMPLOYEE may drink from a closed BEVERAGE container if the container is handled to prevent contamination of:\n         (1)     The EMPLOYEE'S hands;\n         (2)     The container; and\n         (3)     Exposed FOOD; clean EQUIPMENT, UTENSILS, and LINENS; and unwrapped SINGLE-SERVICE and SINGLE-USE ARTICLES.\n","violationType":"Core","itemDescription":"Employee(s)","subItem":"","problemDescription":"Smoking","subProblem":"","location":"EMPLOYEE(S)","subLocation":"","corrected":"True","daysToCorrect":"30","correctedDate":"2010-01-28T00:00:00","correctionDescription":null}]}]}],"maxInspectionDate":[{"inspectionDate":"2023-04-13T00:00:00"}]}},"pageContext":{"eid":"51623377"}},"staticQueryHashes":["3649515864","63159454"]}