{"componentChunkName":"component---src-templates-establishment-page-js","path":"/establishment/51623320","result":{"data":{"site":{"pathPrefix":"/restaurant-inspections"},"postgres":{"establishment":[{"establishmentid":"51623320","name":"James and Grace Boggs Academy ","address":"7600 Goethe Street","zipcode":"48214","owner":"Keys Food Service ","licenseNumber":"351273","licenseType":"Fixed Establishment","establishmentType":"Food Service Establishment","establishmentStatus":"Open","riskCategory":null,"reviewFrequencyDays":"150","coords":"-83.00774,42.36345","geojson":{"id":"51623320","type":"Feature","geometry":{"type":"Point","coordinates":[-83.007735359,42.363452221]},"properties":{"name":"James and Grace Boggs Academy ","owner":"Keys Food Service ","address":"7600 Goethe Street","zipcode":"48214","license_type":"Fixed Establishment","risk_category":null,"license_number":"351273","establishmentid":"51623320","establishment_type":"Food Service Establishment","establishment_status":"Open","review_frequency_days":"150","most_recent_license_date":null}},"nearbyList":[{"establishmentid":"3874","name":"Covenant East /Lifeskills","address":"7600 Goethe","zipcode":"48214"},{"establishmentid":"51622908","name":"Covenant House Academy-East","address":"7600 Goethe","zipcode":"48214"},{"establishmentid":"51622946","name":"Zell's Corner","address":"7748 Charlevoix","zipcode":"48214"},{"establishmentid":"51622465","name":"The Commons","address":"7900 Mack","zipcode":"48214"},{"establishmentid":"317","name":"Elbow Lounge","address":"7310 Mack Ave.","zipcode":"48214"},{"establishmentid":"3803","name":"Diamondstar Pizza","address":"7927 Charlesvoix","zipcode":"48214"},{"establishmentid":"51623837","name":"Quintero's Asian Fusion Grill LLC","address":"850 Grand River E.","zipcode":"48116"},{"establishmentid":"4831","name":"Cesar Chavez Academy - East","address":"4130 Maxwell","zipcode":"48214"},{"establishmentid":"1158","name":"Franklin Gourmet Dairy Bar","address":"8405 Mack Ave.","zipcode":"48214"},{"establishmentid":"1099","name":"Butzel Recreation Center","address":"7737 Kercheval","zipcode":"48214"}],"inspectionsByEstablishmentidList":[{"inspectionid":"61586","inspectionDate":"2023-01-17T00:00:00","inspectionType":"Routine Inspection","inCompliance":"Yes","violationsByInspectionidList":[{"violationCode":"3-101.11","violationDescription":"FOOD shall be safe, unADULTERATED and honestly presented. (P)\n","violationType":"Priority","itemDescription":"Food","subItem":"","problemDescription":"Not safe","subProblem":"","location":"FOOD SERVICE AREA","subLocation":"At the Milk","corrected":"True","daysToCorrect":"10","correctedDate":"0001-01-01T00:00:00","correctionDescription":null},{"violationCode":"4-302.12","violationDescription":"(A) FOOD TEMPERATURE MEASURING DEVICES shall be provided and readily accessible for use in ensuring attainment and maintenance of FOOD temperatures as specified under Chapter 3. (Pf)   \n(B) A TEMPERATURE MEASURING DEVICE with a suitable small-diameter probe that is designed to measure the temperature of thin masses shall be provided and readily accessible to accurately measure the temperature in thin FOODS such as MEAT patties and FISH filets. (Pf)\n","violationType":"Foundation","itemDescription":"Food thermometer(s)","subItem":"probe","problemDescription":"Not provided","subProblem":"","location":"FOOD SERVICE AREA","subLocation":"At the Thermometer(s)","corrected":"True","daysToCorrect":"10","correctedDate":"0001-01-01T00:00:00","correctionDescription":null},{"violationCode":"6-501.12","violationDescription":"(A) PHYSICAL FACILITIES shall be cleaned as often as necessary to keep them clean.\n(B) Except spill cleanup, cleaning shall be done during periods when the least amount of FOOD is exposed such as after closing. ","violationType":"Core","itemDescription":"Physical facilities/structures","subItem":"floors","problemDescription":"With accumulation of debris","subProblem":"","location":"REAR PREP AREA","subLocation":"Behind the Alto sham","corrected":"False","daysToCorrect":"30","correctedDate":null,"correctionDescription":"Keep clean."}]},{"inspectionid":"59366","inspectionDate":"2022-05-17T00:00:00","inspectionType":"Routine Inspection","inCompliance":"Yes","violationsByInspectionidList":[]},{"inspectionid":"56155","inspectionDate":"2021-10-05T00:00:00","inspectionType":"Routine Inspection","inCompliance":"No","violationsByInspectionidList":[{"violationCode":"4-302.14","violationDescription":"A test kit or other device that accurately measures the concentration in mg/L of SANITIZING solutions shall be provided. (Pf)\n","violationType":"Foundation","itemDescription":"Sanitizer test kit","subItem":"","problemDescription":"Not provided","subProblem":"","location":"LUNCH ROOM","subLocation":"Missing Test strips","corrected":"False","daysToCorrect":"10","correctedDate":null,"correctionDescription":"Provide as required"}]}]}],"maxInspectionDate":[{"inspectionDate":"2023-04-13T00:00:00"}]}},"pageContext":{"eid":"51623320"}},"staticQueryHashes":["3649515864","63159454"]}