{"data":{"site":{"pathPrefix":"/restaurant-inspections"},"postgres":{"establishment":[{"establishmentid":"3574","name":"Farwell Community Center ","address":"2711 E Outer Drive","zipcode":"48234","owner":"Detroit Parks and Recreation","licenseNumber":"078652","licenseType":"Fixed Establishment","establishmentType":"Food Service Establishment","establishmentStatus":"Open","riskCategory":null,"reviewFrequencyDays":"365","coords":"-83.05814,42.44049","geojson":{"id":"3574","type":"Feature","geometry":{"type":"Point","coordinates":[-83.058139863,42.44049111]},"properties":{"name":"Farwell Community Center ","owner":"Detroit Parks and Recreation","address":"2711 E Outer Drive","zipcode":"48234","license_type":"Fixed Establishment","risk_category":null,"license_number":"078652","establishmentid":"3574","establishment_type":"Food Service Establishment","establishment_status":"Open","review_frequency_days":"365","most_recent_license_date":null}},"nearbyList":[{"establishmentid":"1020","name":"Mason PK-8 @ Farwell Jr. High School","address":"19955 Fenelon St","zipcode":"48238"},{"establishmentid":"1432","name":"Taylor Made Burgers","address":"4844 E Seven Mile Rd","zipcode":"48234"},{"establishmentid":"2129","name":"Kwicky Bar","address":"4130 E Eight Mile Rd","zipcode":"48234"},{"establishmentid":"4932","name":"Dove Academy of Detroit","address":"20001 Wexford St","zipcode":"48234"},{"establishmentid":"3510","name":"Checkers #6239","address":"4030 E Eight Mile Rd","zipcode":"48234"},{"establishmentid":"1935","name":"Kams Chop Suey","address":"5113 E Seven Mile Rd","zipcode":"48234"},{"establishmentid":"5422","name":"Texas Fish and Chicken","address":"5207 E 7 Mile Rd","zipcode":"48234"},{"establishmentid":"3086","name":"B & B's Diner","address":"5223 E Seven Mile Rd","zipcode":"48234"},{"establishmentid":"888","name":"Pershing Senior High","address":"18875 Ryan Rd","zipcode":"48234"},{"establishmentid":"51622852","name":"Asian Corned Beef","address":"3741 E Seven MIle Rd","zipcode":"48234"}],"inspectionsByEstablishmentidList":[{"inspectionid":"49975","inspectionDate":"2019-11-20T00:00:00","inspectionType":"Routine Inspection","inCompliance":"Yes","violationsByInspectionidList":[{"violationCode":"6-303.11","violationDescription":"Light of the proper intensity shall be provided as specified.\r\n","violationType":"Core","itemDescription":"Lighting intensity","subItem":"at work levels","problemDescription":"Not maintained","subProblem":"","location":"KITCHEN","subLocation":"On the ceiling Lights","corrected":"Not required","daysToCorrect":"30","correctedDate":null,"correctionDescription":"Maintain in good repair"},{"violationCode":"6-202.11","violationDescription":"Except as otherwise approved, light bulbs shall be shielded, coated, or otherwise shatter-resistant in areas where there is exposed FOOD; clean EQUIPMENT, UTENSILS, and LINENS; or unwrapped SINGLE-SERVICE and SINGLE-USE ARTICLES.\r\n","violationType":"Core","itemDescription":"Light shielding","subItem":"light shield(s)","problemDescription":"Not provided","subProblem":"In prep area","location":"KITCHEN","subLocation":"Missing Light Shield(s)","corrected":"Not required","daysToCorrect":"30","correctedDate":null,"correctionDescription":"Provide adequate light shields and end caps or shatter-proof bulbs."},{"violationCode":"4-602.13","violationDescription":"NonFOOD-CONTACT SURFACES of EQUIPMENT shall be cleaned at a frequency necessary to preclude accumulation of soil residues.\r\n","violationType":"Core","itemDescription":"Nonfood contact surface(s)","subItem":"","problemDescription":"With accumulation of debris","subProblem":"","location":"KITCHEN","subLocation":"Inside the Stove","corrected":"Yes","daysToCorrect":"30","correctedDate":"2019-11-20T00:00:00","correctionDescription":null}]}]}],"maxInspectionDate":[{"inspectionDate":"2020-10-30T00:00:00"}]}},"pageContext":{"eid":"3574"}}