{"data":{"site":{"pathPrefix":"/restaurant-inspections"},"postgres":{"establishment":[{"establishmentid":"51623033","name":"Detroit Familly Soul LLC","address":"18516 Schoolcraft Rd","zipcode":"48227","owner":"Safina Thomas","licenseNumber":"18516KP","licenseType":"Fixed Establishment","establishmentType":"Food Service Establishment","establishmentStatus":"Open","riskCategory":null,"reviewFrequencyDays":"180","coords":"-83.22278,42.38681","geojson":{"id":"51623033","type":"Feature","geometry":{"type":"Point","coordinates":[-83.222779605,42.386809491]},"properties":{"name":"Detroit Familly Soul LLC","owner":"Safina Thomas","address":"18516 Schoolcraft Rd","zipcode":"48227","license_type":"Fixed Establishment","risk_category":null,"license_number":"18516KP","establishmentid":"51623033","establishment_type":"Food Service Establishment","establishment_status":"Open","review_frequency_days":"180","most_recent_license_date":null}},"nearbyList":[{"establishmentid":"4288","name":"Yusef's Place 2","address":"18516 Schoolcraft","zipcode":"48223"},{"establishmentid":"3708","name":"Freeze Shop","address":"13590 Glastonbury","zipcode":"48223"},{"establishmentid":"4309","name":"Pinky's Shuga Shack","address":"18929 Schoolcraft Rd","zipcode":"48223"},{"establishmentid":"2735","name":"Vickie's Bar & Grill","address":"19205 Schoolcraft Rd","zipcode":"48223"},{"establishmentid":"4086","name":"Westwood Lounge (Chevelles LLC)","address":"19339 Schoolcraft Rd","zipcode":"48223"},{"establishmentid":"351","name":"Haydays/Four Winds Bar","address":"19338 Schoolcraft Rd","zipcode":"48223"},{"establishmentid":"300","name":"Billy's Coney Island","address":"19441 Schoolcraft Rd","zipcode":"48223"},{"establishmentid":"1308","name":"Detroit Roller Wheels","address":"16611 Schoolcraft Rd","zipcode":"48227"},{"establishmentid":"1127","name":"Dossin Elementary","address":"16650 Glendale St","zipcode":"48227"},{"establishmentid":"51622684","name":"Fun on the Run Soul Food Catering","address":"19841 Schoolcraft Rd","zipcode":"48223"}],"inspectionsByEstablishmentidList":[{"inspectionid":"50353","inspectionDate":"2020-01-09T00:00:00","inspectionType":"Routine Inspection","inCompliance":"Yes","violationsByInspectionidList":[{"violationCode":"3-302.11","violationDescription":"(A) FOOD shall be protected from cross contamination by:  \r\n(1) Except as specified in (1)(c) below, separating raw animal FOODS during         storage, preparation, holding, and display from:\r\n(a) Raw READY-TO-EAT FOOD including other raw animal FOOD such as FISH for sushi or MOLLUSCAN SHELLFISH, or other raw READY-TO-EAT FOOD such as fruits and vegetables,(P) and\r\n(b) Cooked READY-TO-EAT FOOD; (P)\r\n(c) Frozen, commercially processed and packaged raw animal FOOD may be          stored or displayed with or above frozen, commercially processed and           packaged, ready-to-eat food.\r\n(2) Except when combined as ingredients, separating types of raw animal FOODS    from each other such as beef, FISH, lamb, pork, and POULTRY during storage,        preparation, holding, and display by:\r\n(a) Using separate EQUIPMENT for each type, (P) or\r\n(b) Arranging each type of FOOD in EQUIPMENT so that cross contamination of one type with another is prevented, (P) and\r\n(c) Preparing each type of FOOD at different times or in separate areas; (P)\r\n","violationType":"Priority","itemDescription":"Raw animal food(s)","subItem":"","problemDescription":"Stored over/next to","subProblem":"","location":"KITCHEN","subLocation":"","corrected":"Yes","daysToCorrect":"10","correctedDate":"2020-01-09T00:00:00","correctionDescription":"Store raw animal foods below and away from foods needing little or no further prep."},{"violationCode":"4-302.14","violationDescription":"A test kit or other device that accurately measures the concentration in mg/L of SANITIZING solutions shall be provided. (Pf)\r\n","violationType":"Foundation","itemDescription":"Sanitizer test kit","subItem":"","problemDescription":"Not provided","subProblem":"","location":"KITCHEN","subLocation":"","corrected":"Yes","daysToCorrect":"10","correctedDate":"2020-02-06T00:00:00","correctionDescription":"Provide."},{"violationCode":"3-501.17","violationDescription":"(A)  READY-TO-EAT, POTENTIALLY HAZARDOUS FOOD (TIME/TEMPERATURE CONTROL FOR SAFETY FOOD)  prepared and held refrigerated for more than 24 hours in a FOOD ESTABLISHMENT  shall be clearly marked at the time of preparation to indicate the date or day by which the FOOD shall be consumed. (Pf)\r\n(B)  A container of refrigerated, commercially prepared READY-TO-EAT POTENTIALLY HAZARDOUS FOOD (TIME/TEMPERATURE CONTROL FOR SAFETY FOOD)  shall be clearly marked, at the time the original container is opened in a FOOD ESTABLISHMENT, to indicate the date or day by which the FOOD shall be consumed. (Pf)\r\n\r\nA date marking system that does not exceed 7 days, including date of preparation, or opening is to be used. (Pf)\r\n","violationType":"Foundation","itemDescription":"In house prepared ready-to-eat potentially hazardous  food(s)","subItem":"","problemDescription":"Without date of consumption marking","subProblem":"","location":"KITCHEN","subLocation":"","corrected":"Yes","daysToCorrect":"10","correctedDate":"2020-01-09T00:00:00","correctionDescription":null}]}]}],"maxInspectionDate":[{"inspectionDate":"2020-05-29T00:00:00"}]}},"pageContext":{"eid":"51623033"}}