{"data":{"postgres":{"establishment":[{"establishmentid":"932","name":"Brewer's Party Room","address":"8225 Gratiot Ave","zipcode":"48213","owner":"E. & D. Brewer, Inc.","licenseNumber":"034967","licenseType":"Fixed Establishment","establishmentType":"Food Service Establishment","establishmentStatus":"Open","riskCategory":null,"reviewFrequencyDays":"530.0","coords":"-83.01339,42.38091","geojson":{"id":"932","type":"Feature","geometry":{"type":"Point","coordinates":[-83.0133891469999,42.3809117480001]},"properties":{"name":"Brewer's Party Room","owner":"E. & D. Brewer, Inc.","address":"8225 Gratiot Ave","zipcode":"48213","license_type":"Fixed Establishment","risk_category":null,"license_number":"034967","establishmentid":"932","establishment_type":"Food Service Establishment","establishment_status":"Open","review_frequency_days":"530.0","most_recent_license_date":"4/19/2018"}},"nearbyList":[{"establishmentid":"51622687","name":"House of BBQ","address":"8300 Gratiot Ave","zipcode":"48213"},{"establishmentid":"2327","name":"Wendy's ","address":"7850 Gratiot Ave","zipcode":"48213"},{"establishmentid":"1548","name":"Anani ","address":"7650 Gratiot Ave","zipcode":"48213"},{"establishmentid":"4017","name":"Little Caesars Pizza","address":"7447 Gratiot Ave","zipcode":"48213"},{"establishmentid":"3555","name":"Friends of Detroit & Tri County","address":"8230 E Forest Ave","zipcode":"48214"},{"establishmentid":"1244","name":"Bethel Baptist Church East","address":"5715 Holcomb St","zipcode":"48213"},{"establishmentid":"4294","name":"King Fish Market","address":"1167 E Grand Blvd","zipcode":"48211"},{"establishmentid":"1985","name":"Food Exchange (Harvey's Fabulous Foods)","address":"8451 Harper Ave ","zipcode":"48205"},{"establishmentid":"207","name":"Burger King ","address":"9239 Gratiot Ave","zipcode":"48213"},{"establishmentid":"1436","name":"Blackwell Institute","address":"9330 Shoemaker St","zipcode":"48213"},{"establishmentid":"2695","name":"Akebulan Village","address":"7701 Harper Ave","zipcode":"48213"},{"establishmentid":"1302","name":"Krystal's Korner","address":"5700 Canton St","zipcode":"48211"},{"establishmentid":"4831","name":"Cesar Chavez Academy - East","address":"4130 Maxwell","zipcode":"48214"},{"establishmentid":"1073","name":"Hong Moy","address":"7415 Harper Ave","zipcode":"48213"},{"establishmentid":"3511","name":"Ross Catering","address":"9628 Harper Ave","zipcode":"48213"},{"establishmentid":"2811","name":"Captain Jay's Fish & Chicken","address":"9623 Gratiot Ave","zipcode":"48213"},{"establishmentid":"1643","name":"A. L. Holmes Elementary","address":"8950 Crane St","zipcode":"48213"},{"establishmentid":"3633","name":"Subway #26842","address":"9655 Gratiot Ave","zipcode":"48213"},{"establishmentid":"5398","name":"Captain Jay's #102","address":"9654 Gratiot Ave","zipcode":"48213"},{"establishmentid":"51622484","name":"Avalon Commissary","address":"4731 Bellevue St","zipcode":"48207"}],"inspectionsByEstablishmentidList":[{"inspectionid":"41968","inspectionDate":"2018-04-19T00:00:00","inspectionType":"Routine Inspection","inCompliance":"Yes","violationsByInspectionidList":[{"violationCode":"6-501.114","violationDescription":"The PREMISES shall be free of items that are unnecessary to the operation or maintenance of the establishment such as EQUIPMENT that is nonfunctional, no longer used and free of litter.\r\n","violationType":"Core","itemDescription":null,"subItem":"","problemDescription":null,"subProblem":"","location":"UTILITY CLOSET","subLocation":"At the Clutter","corrected":"Not required","daysToCorrect":"30.0","correctedDate":null,"correctionDescription":null},{"violationCode":"5-205.15","violationDescription":"A PLUMBING SYSTEM shall be:\r\n(A) Repaired according to LAW; (P) and\r\n(B) Maintained in good repair.\r\n","violationType":"Core","itemDescription":"Plumbing system","subItem":"water line(s)","problemDescription":"Not maintained","subProblem":"","location":"KITCHEN","subLocation":"At the Three compartment sink","corrected":"Not required","daysToCorrect":"10.0","correctedDate":null,"correctionDescription":"Maintain in good repair"}]},{"inspectionid":"38437","inspectionDate":"2017-04-04T00:00:00","inspectionType":"Routine Inspection","inCompliance":"Yes","violationsByInspectionidList":[]}]}]}},"pageContext":{"eid":"932"}}