{"data":{"site":{"pathPrefix":"/restaurant-inspections"},"postgres":{"establishment":[{"establishmentid":"2238","name":"Subway #15573","address":"20170 W Seven Mile Rd","zipcode":"48219","owner":"Nilesh B. Patel/DevAush Inc.","licenseNumber":"224672","licenseType":"Fixed Establishment","establishmentType":"Food Service Establishment","establishmentStatus":"Open","riskCategory":null,"reviewFrequencyDays":"365.0","coords":"-83.24049,42.42959","geojson":{"id":"2238","type":"Feature","geometry":{"type":"Point","coordinates":[-83.240491944,42.429587618]},"properties":{"name":"Subway #15573","owner":"Nilesh B. Patel/DevAush Inc.","address":"20170 W Seven Mile Rd","zipcode":"48219","license_type":"Fixed Establishment","risk_category":null,"license_number":"224672","establishmentid":"2238","establishment_type":"Food Service Establishment","establishment_status":"Open","review_frequency_days":"365.0","most_recent_license_date":"5/7/2018"}},"nearbyList":[{"establishmentid":"1647","name":"China One","address":"20160 W Seven Mile Rd","zipcode":"48219"},{"establishmentid":"2246","name":"Happy's Pizza #5","address":"20150 W Seven Mile Rd","zipcode":"48219"},{"establishmentid":"5241","name":"S & T Fresh Fish & Seafood Inc.","address":"20231 W Seven Mile Rd","zipcode":"48219"},{"establishmentid":"5160","name":"Olympia Coney Island","address":"19740 W Seven Mile","zipcode":"48219"},{"establishmentid":"2592","name":"Crab House","address":"19721 W Seven Mile Rd","zipcode":"48219"},{"establishmentid":"476","name":"Bob's Pizza Palace Inc.","address":"20510 W Seven Mile Rd","zipcode":"48219"},{"establishmentid":"1377","name":"Dynamo Corned Beef Deli","address":"20716 W Seven Mile Rd","zipcode":"48219"},{"establishmentid":"410","name":"Lou's  Deli/Seven Mile","address":"19440 W Seven Mile Rd","zipcode":"48219"},{"establishmentid":"634","name":"Little Caesar's Pizza #39","address":"19400 W Seven Mile Rd","zipcode":"48201"},{"establishmentid":"5168","name":"The Real McCoy Southern Bar-B-Cue","address":"20817 W Seven Mile","zipcode":"48219"}],"inspectionsByEstablishmentidList":[{"inspectionid":"43591","inspectionDate":"2018-09-26T00:00:00","inspectionType":"Routine Inspection","inCompliance":"Yes","violationsByInspectionidList":[{"violationCode":"3-501.18","violationDescription":"A FOOD specified in ¶ 3-501.17(A) or (B) shall be discarded if it:  \r\n    (1) Exceeds the temperature and time combination specified in ¶ 3-501.17(A),              except time that the product is frozen; (P)\r\n    (2) Is in a container or PACKAGE that does not bear a date or day; (P) or\r\n    (3) Is appropriately marked with a date or day that exceeds a temperature and              time combination as specified in ¶ 3-501.17(A). (P)  \r\n\r\n","violationType":"Priority","itemDescription":"Ready to eat, potentially hazardous food(s)","subItem":"","problemDescription":"Beyond consume by date","subProblem":"","location":"WALK-IN COOLER","subLocation":"","corrected":"Yes","daysToCorrect":"10.0","correctedDate":"2018-09-26T00:00:00","correctionDescription":"Discard."}]},{"inspectionid":"41027","inspectionDate":"2017-12-12T00:00:00","inspectionType":"Complaint","inCompliance":"Yes","violationsByInspectionidList":[]},{"inspectionid":"40257","inspectionDate":"2017-09-26T00:00:00","inspectionType":"Routine Inspection","inCompliance":"Yes","violationsByInspectionidList":[]},{"inspectionid":"37092","inspectionDate":"2016-10-24T00:00:00","inspectionType":"Routine Inspection","inCompliance":"Yes","violationsByInspectionidList":[{"violationCode":"6-301.12","violationDescription":"Each HANDWASHING SINK or group of adjacent HANDWASHING SINKS shall be provided with:\r\n(A) Individual, disposable towels; (Pf)\r\n(B) A continuous towel system that supplies the user with a clean towel;(Pf) or \r\n(C) A heated-air hand drying device.(Pf)\r\n(D) A hand drying device that employs an air-knife system that delivers high velocity pressurized air at ambient temperatures.(Pf)\r\n","violationType":"Foundation","itemDescription":"Sanitary hand drying provisions","subItem":"disposable, paper towels","problemDescription":"Not provided","subProblem":"At hand sink","location":"RESTROOM (EMPLOYEE)","subLocation":"","corrected":"Yes","daysToCorrect":"10.0","correctedDate":"2016-10-24T00:00:00","correctionDescription":"Provide"}]}]}],"maxInspectionDate":[{"inspectionDate":"2019-03-31T00:00:00"}]}},"pageContext":{"eid":"2238"}}