{"data":{"site":{"pathPrefix":"/restaurant-inspections"},"postgres":{"establishment":[{"establishmentid":"51623191","name":"Detroit Hot Dog Bistro ","address":"20018 Van Dyke Ave","zipcode":"48212","owner":"Macro Lloyd ","licenseNumber":"DC11420","licenseType":"Fixed Establishment","establishmentType":"Food Service Establishment","establishmentStatus":"New License ","riskCategory":null,"reviewFrequencyDays":"180","coords":"-83.02427,42.44317","geojson":{"id":"51623191","type":"Feature","geometry":{"type":"Point","coordinates":[-83.024272366,42.443169316]},"properties":{"name":"Detroit Hot Dog Bistro ","owner":"Macro Lloyd ","address":"20018 Van Dyke Ave","zipcode":"48212","license_type":"Fixed Establishment","risk_category":null,"license_number":"DC11420","establishmentid":"51623191","establishment_type":"Food Service Establishment","establishment_status":"New License ","review_frequency_days":"180","most_recent_license_date":null}},"nearbyList":[{"establishmentid":"1478","name":"Nortown Dairy Bar","address":"20018 Van Dyke Ave","zipcode":"48234"},{"establishmentid":"1864","name":"Hec's Stables","address":"20005 Van Dyke Ave","zipcode":"48234"},{"establishmentid":"564","name":"American Serbian Memorial Hall","address":"19940 Van Dyke Ave","zipcode":"48234"},{"establishmentid":"1576","name":"Burger King Corp #6796","address":"19901 Van Dyke Ave","zipcode":"48234"},{"establishmentid":"51622683","name":"Detroit Grill & Deli","address":"20216 Van Dyke Ave","zipcode":"48234"},{"establishmentid":"1657","name":"McDonald's #14217","address":"19840 Van Dyke Ave","zipcode":"48234"},{"establishmentid":"5335","name":"Great Lakes Fish & Chicken Market","address":"20445 Van Dyke Ave","zipcode":"48234"},{"establishmentid":"5249","name":"Motown Cafe Grill","address":"19638 Van Dyke Street","zipcode":"48234"},{"establishmentid":"51622743","name":"Diamond Hospitality LLC","address":"4777 E Outer Drive","zipcode":"48234"},{"establishmentid":"643","name":"UAW Local Union #1700","address":"8230 E Eight Mile Rd","zipcode":"48234"}],"inspectionsByEstablishmentidList":[{"inspectionid":"50995","inspectionDate":"2020-03-04T00:00:00","inspectionType":"Routine Inspection","inCompliance":"No","violationsByInspectionidList":[{"violationCode":"4-302.14","violationDescription":"A test kit or other device that accurately measures the concentration in mg/L of SANITIZING solutions shall be provided. (Pf)\r\n","violationType":"Foundation","itemDescription":"Sanitizer test kit","subItem":"","problemDescription":"Not provided","subProblem":"","location":"3 COMPARTMENT SINK AREA","subLocation":"","corrected":"No","daysToCorrect":"10","correctedDate":null,"correctionDescription":null},{"violationCode":"4-602.13","violationDescription":"NonFOOD-CONTACT SURFACES of EQUIPMENT shall be cleaned at a frequency necessary to preclude accumulation of soil residues.\r\n","violationType":"Core","itemDescription":"Nonfood contact surface(s)","subItem":"","problemDescription":"With accumulation of debris","subProblem":"","location":"FRYER AREA","subLocation":"","corrected":"Not required","daysToCorrect":"30","correctedDate":null,"correctionDescription":null}]}]}],"maxInspectionDate":[{"inspectionDate":"2020-05-29T00:00:00"}]}},"pageContext":{"eid":"51623191"}}