{"data":{"postgres":{"establishment":[{"establishmentid":"415","name":"Popeye's Lousiana Kitchen","address":"20919 W Eight Mile Rd","zipcode":"48219","owner":"John Brodersen","licenseNumber":"229303","licenseType":"Fixed Establishment","establishmentType":"Food Service Establishment","establishmentStatus":"Open","riskCategory":"Medium","reviewFrequencyDays":"180.0","coords":"-83.24973,42.44319","geojson":{"id":"415","type":"Feature","geometry":{"type":"Point","coordinates":[-83.249728107,42.443194557]},"properties":{"name":"Popeye's Lousiana Kitchen","owner":"John Brodersen","address":"20919 W Eight Mile Rd","zipcode":"48219","license_type":"Fixed Establishment","risk_category":"Medium","license_number":"229303","establishmentid":"415","establishment_type":"Food Service Establishment","establishment_status":"Open","review_frequency_days":"180.0","most_recent_license_date":"5/7/2018"}},"nearbyList":[{"establishmentid":"2775","name":"Penthouse","address":"20771 W Eight Mile Rd","zipcode":"48219"},{"establishmentid":"1003","name":"T & J Coney Island","address":"20601 W Eight Mile Rd","zipcode":"48219"},{"establishmentid":"688","name":"Trumpp's","address":"21413 W Eight Mile Rd","zipcode":"48219"},{"establishmentid":"51622605","name":"Asian Corn Beef","address":"21639 W Eight Mile Rd","zipcode":"48219"},{"establishmentid":"1739","name":"Tubby's Submarine #121","address":"20325 W Eight Mile Rd","zipcode":"48219"},{"establishmentid":"2816","name":"J J's Fish and Chicken","address":"20225 W Eight Mile Rd","zipcode":"48219"},{"establishmentid":"518","name":"Friends Cocktail Lounge","address":"21633 W Eight Mile Rd","zipcode":"48219"},{"establishmentid":"2722","name":"Nu Wave Fish & Chicken","address":"21729 W Eight Mile Rd","zipcode":"48219"},{"establishmentid":"2355","name":"Nicky D's","address":"20001 W Eight Mile Rd","zipcode":"48219"},{"establishmentid":"724","name":"McDonald's #24733","address":"22021 W Eight Mile Rd","zipcode":"48219"},{"establishmentid":"2717","name":"Checkers ","address":"19801 W Eight Mile Rd","zipcode":"48219"},{"establishmentid":"754","name":"Northland Roller Rink","address":"22311 W Eight Mile Rd","zipcode":"48219"},{"establishmentid":"4423","name":"AVI- Children's Center of Wayne County","address":"19900 Evergreen Rd","zipcode":"48216"},{"establishmentid":"867","name":"Henry Ford High School","address":"20000 Evergreen Rd","zipcode":"48219"},{"establishmentid":"1377","name":"Dynamo Corned Beef Deli","address":"20716 W Seven Mile Rd","zipcode":"48219"},{"establishmentid":"5168","name":"The Real McCoy Southern Bar-B-Cue","address":"20817 W Seven Mile","zipcode":"48219"},{"establishmentid":"476","name":"Bob's Pizza Palace Inc.","address":"20510 W Seven Mile Rd","zipcode":"48219"},{"establishmentid":"1169","name":"Madison Carver Academy","address":"19900 McIntyre ","zipcode":"48219"},{"establishmentid":"1504","name":"Omega Coney Island ","address":"22501 W Eight Mile Rd","zipcode":"48219"},{"establishmentid":"2246","name":"Happy's Pizza #5","address":"20150 W Seven Mile Rd","zipcode":"48219"}],"inspectionsByEstablishmentidList":[{"inspectionid":"44499","inspectionDate":"2018-12-14T00:00:00","inspectionType":"Complaint","inCompliance":"Yes","violationsByInspectionidList":[]},{"inspectionid":"43277","inspectionDate":"2018-08-16T00:00:00","inspectionType":"Complaint","inCompliance":"Yes","violationsByInspectionidList":[]},{"inspectionid":"43168","inspectionDate":"2018-08-08T00:00:00","inspectionType":"Routine Inspection","inCompliance":"Yes","violationsByInspectionidList":[]},{"inspectionid":"41458","inspectionDate":"2018-02-09T00:00:00","inspectionType":"Routine Inspection","inCompliance":"No","violationsByInspectionidList":[{"violationCode":"3-501.14","violationDescription":"(A)  Cooked POTENTIALLY HAZARDOUS FOOD (TIME/TEMPERATURE CONTROL FOR SAFETY FOOD)  shall be cooled:\r\n         (1)  Within 2 hours, from 135ºF to 70ºF; and (P) \r\n         (2)  Within 4 hours, from 70ºF to 41ºF or less (P)\r\n(B)  POTENTIALLY HAZARDOUS FOOD (TIME/TEMPERATURE CONTROL FOR SAFETY FOOD)  prepared from ingredients at ambient temperature shall be cooled within 4 hours to 41F or less. (P)\r\n(C)  POTENTIALLY HAZARDOUS FOOD (TIME/TEMPERATURE CONTROL FOR SAFETY FOOD)  received in compliance with LAWS   allowing a temperature above 41ºF during shipment from the supplier shall be cooled within 4 hours to 41ºF or less. (P)\r\n","violationType":"Priority","itemDescription":"Cooked food(s) cooled","subItem":"","problemDescription":"From 135 degrees f to 70 degrees F for more than 2 hours","subProblem":"","location":"WALK-IN COOLER","subLocation":"","corrected":"Yes","daysToCorrect":"10.0","correctedDate":"2018-02-09T00:00:00","correctionDescription":"Utilize shallow pans, ice baths, agitation, or quick chilling to cool food items."},{"violationCode":"6-301.11","violationDescription":"Each HANDWASHING SINK or group of 2 adjacent HANDWASHING SINKS shall be provided with a supply of hand cleaning liquid, powder, or bar soap. (Pf)\r\n","violationType":"Foundation","itemDescription":"Soap","subItem":"at handsink prep area","problemDescription":"Not provided","subProblem":"At hand sink","location":"HANDSINK(S)","subLocation":"","corrected":"No","daysToCorrect":"10.0","correctedDate":null,"correctionDescription":"Provide"}]},{"inspectionid":"39810","inspectionDate":"2017-08-24T00:00:00","inspectionType":"Routine Inspection","inCompliance":"Yes","violationsByInspectionidList":[{"violationCode":"3-501.16","violationDescription":"Except during preparation, cooking, or cooling, or when time is used as the public health control POTENTIALLY HAZARDOUS FOOD (TIME/TEMPERATURE CONTROL FOR SAFETY FOOD) shall be maintained:\r\n(A)  135ºF or above, except that roasts properly cooked and cooled may be held              at a temperature of 130ºF; or (P)\r\n(B)   At 41ºF or less (P)\r\n","violationType":"Priority","itemDescription":"Cold food item(s)","subItem":"","problemDescription":"Stored above 41 degrees F","subProblem":"","location":"KITCHEN","subLocation":"","corrected":"Yes","daysToCorrect":"10.0","correctedDate":"2017-08-24T00:00:00","correctionDescription":"Discard"},{"violationCode":"3-501.16","violationDescription":"Except during preparation, cooking, or cooling, or when time is used as the public health control POTENTIALLY HAZARDOUS FOOD (TIME/TEMPERATURE CONTROL FOR SAFETY FOOD) shall be maintained:\r\n(A)  135ºF or above, except that roasts properly cooked and cooled may be held              at a temperature of 130ºF; or (P)\r\n(B)   At 41ºF or less (P)\r\n","violationType":"Priority","itemDescription":"Hot food item(s)","subItem":"","problemDescription":"Stored below 135 degrees F","subProblem":"","location":"KITCHEN","subLocation":"","corrected":"Yes","daysToCorrect":"10.0","correctedDate":"2017-08-24T00:00:00","correctionDescription":"Discard"}]},{"inspectionid":"38289","inspectionDate":"2017-03-15T00:00:00","inspectionType":"Routine Inspection","inCompliance":"Yes","violationsByInspectionidList":[{"violationCode":"4-501.114","violationDescription":"A chemical SANITIZER used in a SANITIZING solution for a manual or\r\nmechanical operation shall meet these limits or as otherwise approved: (P)\r\n\tChlorine        ppm           pH<10             pH<8\r\n\t\t      25              120 F              120 F\r\n\t\t      50              100 F              75 F\r\n\t\t     100              55 F               55 F\r\n                 Iodine           a concentration of between 12.5 and 25 ppm and minimum temp of 75 F and pH of 5 or less or meets manufacturer's specifications. (P)\r\n\r\n                Quats            minimum temperature of 75 F, hardness of 500 ppm or less and meet manufacturers use directions. (P)\r\n","violationType":"Priority","itemDescription":"Quaternary ammonia solution","subItem":"","problemDescription":"Above 200 ppm","subProblem":"","location":"KITCHEN","subLocation":"","corrected":"Yes","daysToCorrect":"10.0","correctedDate":"2017-03-15T00:00:00","correctionDescription":"Provide correct concentration as stated above"}]},{"inspectionid":"36812","inspectionDate":"2016-10-13T00:00:00","inspectionType":"Routine Inspection","inCompliance":"Yes","violationsByInspectionidList":[]},{"inspectionid":"36699","inspectionDate":"2016-10-05T00:00:00","inspectionType":"Plan Review/Pre-Open","inCompliance":"Yes","violationsByInspectionidList":[]}]}]}},"pageContext":{"eid":"415"}}