{"data":{"postgres":{"establishment":[{"establishmentid":"4223","name":"Comerica Park- Upper deck Lounge Bar","address":"2100 Woodward Ave","zipcode":"48201","owner":"Detroit Sportservice Inc","licenseNumber":"069241","licenseType":"Fixed Establishment","establishmentType":"Food Service Establishment","establishmentStatus":"Open","riskCategory":null,"reviewFrequencyDays":"365.0","coords":"-83.04880,42.33918","geojson":{"id":"4223","type":"Feature","geometry":{"type":"Point","coordinates":[-83.04879849,42.339180497]},"properties":{"name":"Comerica Park- Upper deck Lounge Bar","owner":"Detroit Sportservice Inc","address":"2100 Woodward Ave","zipcode":"48201","license_type":"Fixed Establishment","risk_category":null,"license_number":"069241","establishmentid":"4223","establishment_type":"Food Service Establishment","establishment_status":"Open","review_frequency_days":"365.0","most_recent_license_date":"4/25/2017"}},"nearbyList":[{"establishmentid":"3475","name":"Chelis Chili Bar","address":"47 E Adams Ave","zipcode":"48226"},{"establishmentid":"2048","name":"Elwood Bar & Grill","address":"300 E Adams","zipcode":"48226"},{"establishmentid":"355","name":"Detroit Athletic Club","address":"241 Madison Ave","zipcode":"48226"},{"establishmentid":"1265","name":"Central Methodist Church","address":"23 E Adams","zipcode":"48226"},{"establishmentid":"322","name":"Twentieth Century Club, (Gem Theatre)","address":"333 Madison","zipcode":"48226"},{"establishmentid":"2637","name":"The Fillmore Detroit (State Bar/Theatre)","address":"2101-2115 Woodward Ste 971","zipcode":"48201"},{"establishmentid":"1680","name":"Michigan Opera Theater","address":"1526 Broadway St","zipcode":"48226"},{"establishmentid":"5189","name":"Dilla's Delight's LLC","address":"242 John R","zipcode":"48226"},{"establishmentid":"3706","name":"Angelina Italian Bistro","address":"1565 Broadway","zipcode":"48226"},{"establishmentid":"4694","name":"Madison Building ","address":"1555 Broadway","zipcode":"48226"},{"establishmentid":"5152","name":"Ashe Supply Co.","address":"1555 Broadway St","zipcode":"48226"},{"establishmentid":"5132","name":"Vertical Detroit","address":"1538 Centre St","zipcode":"48226"},{"establishmentid":"296","name":"Da Edoardo Foxtown Grille","address":"2203 Woodward Ave","zipcode":"48201"},{"establishmentid":"5248","name":"234 Winder St. Inn Community Center","address":"2458 Brush St","zipcode":"48201"},{"establishmentid":"4262","name":"Ford Field- Bar Portables","address":"2000 Brush St","zipcode":"48226"},{"establishmentid":"4884","name":"Ford Field- Detroit Lions Tunnel Club","address":"2000 Brush St","zipcode":"48201"},{"establishmentid":"4260","name":"Ford Field- Employee Lounge","address":"2000 Brush St","zipcode":"48226"},{"establishmentid":"51622506","name":"Ford Field- South Club (Hall of Legends)","address":"2000 Brush St","zipcode":"48201"},{"establishmentid":"51622504","name":"Ford Field- Terrace Club","address":"2000 Brush St","zipcode":"48201"},{"establishmentid":"4255","name":"Ford Field- Levy Rest. (Main Kitchen)","address":"2000 Brush St","zipcode":"48226"}],"inspectionsByEstablishmentidList":[{"inspectionid":"42838","inspectionDate":"2018-06-28T00:00:00","inspectionType":"Routine Inspection","inCompliance":"Yes","violationsByInspectionidList":[{"violationCode":"7-202.12","violationDescription":"POISONOUS OR TOXIC MATERIALS shall be:    \r\n(A) Used according to:      \r\n(1) LAW and this Code,   \r\n(2) Manufacturer's use directions included in labeling, and, for a pesticide, manufacturer's label instructions that state that use is allowed in a FOOD ESTABLISHMENT, (P)   \r\n(3) The conditions of certification, if certification is required, for use of the pest control materials, (P) and   \r\n(4) Additional conditions that may be established by the REGULATORY AUTHORITY; and\r\n(B) Applied so that:      \r\n(1) A HAZARD to EMPLOYEES or other PERSONS is not constituted, (P) and   \r\n(2) Contamination including toxic residues due to drip, drain, fog, splash or spray on FOOD, EQUIPMENT, UTENSILS, LINENS, AND SINGLE-SERVICE AND SINGLE-USE ARTICLES is prevented, and for a RESTRICTED USE PESTICIDE, this is achieved by: (P)      \r\n(a) Removing the items, (P)   \r\n(b) Covering the items with impermeable covers, (P) or   \r\n(c) Taking other appropriate preventive actions, (P) and   \r\n(d) Cleaning and SANITIZING EQUIPMENT and UTENSILS after the application. (P)  \r\n(C) A RESTRICTED USE PESTICIDE shall be applied only by an applicator certified as defined in 7 USC 136 Definitions, (e) Certified Applicator, of the Federal Insecticide, Fungicide, and Rodenticide Act, or a PERSON under the direct supervision of a certified applicator. (Pf)","violationType":"Priority","itemDescription":"Poisonous/toxic material(s)","subItem":"","problemDescription":"Not used according to manufacturer's label instructions","subProblem":"","location":"BAR","subLocation":"At the Pest Control Device","corrected":"Yes","daysToCorrect":"10.0","correctedDate":"2018-06-28T00:00:00","correctionDescription":"Use according to manufacturer label directions."},{"violationCode":"5-205.11","violationDescription":"(A) A HANDWASHING SINK shall be maintained so that it is accessible at all times for EMPLOYEE use and used for no other purpose. (Pf)\r\n(B)  An automatic handwashing facility shall be used in accordance with manufacturer's instructions. (Pf)\r\n","violationType":"Foundation","itemDescription":"Handwashing sink(s)","subItem":"","problemDescription":"Used for culinary purposes","subProblem":"","location":"BAR","subLocation":"At the Handsink","corrected":"Yes","daysToCorrect":"10.0","correctedDate":"2018-06-28T00:00:00","correctionDescription":"Discontinue use of hand sink for this use and use appropriate sink."},{"violationCode":"2-401.11","violationDescription":"(A)    An EMPLOYEE shall eat, drink, or use any form of tobacco only in designated areas where the contamination of exposed FOOD; clean EQUIPMENT, UTENSILS, and LINENS; unwrapped SINGLE-SERVICE and SINGLE-USE ARTICLES; or other items needing protection can not result.\r\n(B)     A FOOD EMPLOYEE may drink from a closed BEVERAGE container if the container is handled to prevent contamination of:\r\n         (1)     The EMPLOYEE'S hands;\r\n         (2)     The container; and\r\n         (3)     Exposed FOOD; clean EQUIPMENT, UTENSILS, and LINENS; and unwrapped SINGLE-SERVICE and SINGLE-USE ARTICLES.\r\n","violationType":"Core","itemDescription":"Beverage container","subItem":"","problemDescription":"Stored improperly","subProblem":"With exposed food","location":"BAR","subLocation":"At the Employee beverages","corrected":"Yes","daysToCorrect":"30.0","correctedDate":"2018-06-28T00:00:00","correctionDescription":"Store in manner that does not contaminate items"}]},{"inspectionid":"39267","inspectionDate":"2017-07-06T00:00:00","inspectionType":"Routine Inspection","inCompliance":"Yes","violationsByInspectionidList":[]},{"inspectionid":"36441","inspectionDate":"2016-08-31T00:00:00","inspectionType":"Routine Inspection","inCompliance":"Yes","violationsByInspectionidList":[]}]}]}},"pageContext":{"eid":"4223"}}