{"data":{"site":{"pathPrefix":"/restaurant-inspections"},"postgres":{"establishment":[{"establishmentid":"1521","name":"Mt. Vernon Missionary Baptist Church","address":"15125 Burt Rd","zipcode":"48223","owner":"Jerome L. Warfield, Pastor","licenseNumber":"035745","licenseType":"Fixed Establishment","establishmentType":"Food Service Establishment","establishmentStatus":"Open","riskCategory":"Medium","reviewFrequencyDays":"180.0","coords":"-83.24714,42.39902","geojson":{"id":"1521","type":"Feature","geometry":{"type":"Point","coordinates":[-83.247139024,42.3990220110001]},"properties":{"name":"Mt. Vernon Missionary Baptist Church","owner":"Jerome L. Warfield, Pastor","address":"15125 Burt Rd","zipcode":"48223","license_type":"Fixed Establishment","risk_category":"Medium","license_number":"035745","establishmentid":"1521","establishment_type":"Food Service Establishment","establishment_status":"Open","review_frequency_days":"180.0","most_recent_license_date":"4/28/2019"}},"nearbyList":[{"establishmentid":"51622451","name":"F & R Eatery","address":"21451 Fenkell","zipcode":"48223"},{"establishmentid":"4175","name":"Samuel Gompers Learning Academy PK-8","address":"14450 Burt Rd","zipcode":"48223"},{"establishmentid":"4036","name":"Ronald Brown Academy (Annex)","address":"11450 E Outer Drive","zipcode":"48224"},{"establishmentid":"51622753","name":"Fred's Fish & Chicken","address":"21740 Fenkell Street","zipcode":"48223"},{"establishmentid":"5269","name":"Habibi Fish & Chicken","address":"21740 Fenkell","zipcode":"48223"},{"establishmentid":"4283","name":"New Grandy's ","address":"22001 Fenkell Ave","zipcode":"48223"},{"establishmentid":"51622518","name":"New Grandy's","address":"22001 Fenkell Ave","zipcode":"48223"},{"establishmentid":"3092","name":"The Original Waves Inn","address":"20351 Grand River Ave","zipcode":"48219"},{"establishmentid":"239","name":"Scotty Simpsons Fish and Chips","address":"22200 Fenkell Ave","zipcode":"48223"},{"establishmentid":"5423","name":"Honey's","address":"20342 Grand River Ave","zipcode":"48219"}],"inspectionsByEstablishmentidList":[{"inspectionid":"49047","inspectionDate":"2019-09-11T00:00:00","inspectionType":"Routine Inspection","inCompliance":"Yes","violationsByInspectionidList":[{"violationCode":"7-102.11","violationDescription":"Working containers used for storing POISONOUS OR TOXIC MATERIALS such as cleaners and SANITIZERS taken from bulk supplies shall be clearly and individually identified with the common name of the material. (Pf)\r\n","violationType":"Foundation","itemDescription":"Working containers-toxics","subItem":"cleaner","problemDescription":"Not labeled as to content","subProblem":"","location":"3 COMPARTMENT SINK AREA","subLocation":"","corrected":"Yes","daysToCorrect":"10.0","correctedDate":"2019-09-11T00:00:00","correctionDescription":null}]},{"inspectionid":"45326","inspectionDate":"2019-02-26T00:00:00","inspectionType":"Routine Inspection","inCompliance":"Yes","violationsByInspectionidList":[]},{"inspectionid":"43344","inspectionDate":"2018-08-28T00:00:00","inspectionType":"Routine Inspection","inCompliance":"Yes","violationsByInspectionidList":[]},{"inspectionid":"40265","inspectionDate":"2017-10-05T00:00:00","inspectionType":"Routine Inspection","inCompliance":"Yes","violationsByInspectionidList":[{"violationCode":"3-501.13","violationDescription":"POTENTIALLY HAZARDOUS FOOD (TIME/TEMPERATURE CONTROL FOR SAFETY FOOD)  shall be thawed:  Under refrigeration, or under cool running water (<70° F), or as part of cooking process, and total accumulated time above 41° F, for thawed portions, shall not exceed 4 hours.  Any thawing procedure may be used for immediate service for individual consumers order of READY-TO-EAT foods.\r\n","violationType":"Core","itemDescription":"Frozen food(s) for thawing","subItem":"","problemDescription":"Stored in water","subProblem":"That is standing","location":"KITCHEN","subLocation":"","corrected":"Yes","daysToCorrect":"30.0","correctedDate":"2017-10-05T00:00:00","correctionDescription":"Use cool, running water with enough flow to remove particles."}]},{"inspectionid":"38135","inspectionDate":"2017-03-02T00:00:00","inspectionType":"Routine Inspection","inCompliance":"Yes","violationsByInspectionidList":[{"violationCode":"MFL289.2129","violationDescription":"Sec. 2129. (1) All food establishments shall employ a minimum of 1 managerial employee as a food safety manager, who must be an individual who is currently certified under a personnel certification program accredited by the American National Standards Institute, utilizing the Conference for Food Protection standards:\r\n(2) Beginning January 14, 2017 and every 5 years thereafter, a certified  food safety manager who supervises the operations of a food service establishment shall have completed a food safety training program\r\ncontaining an allergen awareness  component that has been approved by  the department. A food service establishment shall retain records on the  site of the food service establishment documenting compliance of its  certified food safety managers with this subsection. ","violationType":"Core","itemDescription":"Person-in-charge","subItem":"","problemDescription":null,"subProblem":"","location":"PERSON IN CHARGE","subLocation":"","corrected":"Not required","daysToCorrect":"30.0","correctedDate":null,"correctionDescription":null}]},{"inspectionid":"36035","inspectionDate":"2016-08-02T00:00:00","inspectionType":"Routine Inspection","inCompliance":"Yes","violationsByInspectionidList":[]}]}],"maxInspectionDate":[{"inspectionDate":"2019-10-31T00:00:00"}]}},"pageContext":{"eid":"1521"}}