{"componentChunkName":"component---src-templates-establishment-page-js","path":"/establishment/51623461","result":{"data":{"site":{"pathPrefix":"/restaurant-inspections"},"postgres":{"establishment":[{"establishmentid":"51623461","name":"4 Guys Fish & Chicken","address":"5207 Seven Mile E.","zipcode":"48234","owner":"Abdal Wajed","licenseNumber":"263432","licenseType":"Fixed Establishment","establishmentType":"Food Service Establishment","establishmentStatus":"Open","riskCategory":null,"reviewFrequencyDays":"150","coords":"-83.05124,42.43358","geojson":{"id":"51623461","type":"Feature","geometry":{"type":"Point","coordinates":[-83.051240981,42.43357967]},"properties":{"name":"4 Guys Fish & Chicken","owner":"Abdal Wajed","address":"5207 Seven Mile E.","zipcode":"48234","license_type":"Fixed Establishment","risk_category":null,"license_number":"263432","establishmentid":"51623461","establishment_type":"Food Service Establishment","establishment_status":"Open","review_frequency_days":"150","most_recent_license_date":null}},"nearbyList":[{"establishmentid":"4369","name":"Seven Mile Fish & Chicken","address":"5207 E. Seven Mile","zipcode":"48234"},{"establishmentid":"1321","name":"Dot & Etta's Shrimp Hut","address":"5207 Seven Mile Rd. E.","zipcode":"48234"},{"establishmentid":"5422","name":"Texas Fish and Chicken","address":"5207 7 mile Rd. E.","zipcode":"48234"},{"establishmentid":"3086","name":"B & B's Diner","address":"5223 Seven Mile Rd. E.","zipcode":"48234"},{"establishmentid":"1935","name":"Kams Chop Suey","address":"5113 Seven Mile Rd. E.","zipcode":"48234"},{"establishmentid":"1177","name":"Playground Lounge","address":"4933 Seven Mile Rd. E.","zipcode":"48234"},{"establishmentid":"4451","name":"Lucabrasi's","address":"4933  Seven Mile Rd, E. ","zipcode":"48234"},{"establishmentid":"1432","name":"Taylor Made Burgers","address":"4844 Seven Mile Rd. E.","zipcode":"48234"},{"establishmentid":"4128","name":"Legacy Charter Academy","address":"4900 Hildale St. E.","zipcode":"48234"},{"establishmentid":"896","name":"Atkinson Elementary","address":"4900 Hildale St. E.","zipcode":"48238"}],"inspectionsByEstablishmentidList":[{"inspectionid":"55554","inspectionDate":"2021-07-07T00:00:00","inspectionType":"Change of Ownership","inCompliance":"Yes","violationsByInspectionidList":[{"violationCode":"4-302.12","violationDescription":"(A) FOOD TEMPERATURE MEASURING DEVICES shall be provided and readily accessible for use in ensuring attainment and maintenance of FOOD temperatures as specified under Chapter 3. (Pf)   \n(B) A TEMPERATURE MEASURING DEVICE with a suitable small-diameter probe that is designed to measure the temperature of thin masses shall be provided and readily accessible to accurately measure the temperature in thin FOODS such as MEAT patties and FISH filets. (Pf)\n","violationType":"Foundation","itemDescription":"Food thermometer(s)","subItem":null,"problemDescription":"Not provided","subProblem":null,"location":"THROUGHOUT FACILITY","subLocation":null,"corrected":"True","daysToCorrect":"10","correctedDate":"2021-07-07T00:00:00","correctionDescription":null},{"violationCode":"4-302.14","violationDescription":"A test kit or other device that accurately measures the concentration in mg/L of SANITIZING solutions shall be provided. (Pf)\n","violationType":"Foundation","itemDescription":"Sanitizer test kit","subItem":null,"problemDescription":"Not provided","subProblem":null,"location":"3 COMPARTMENT SINK AREA","subLocation":null,"corrected":"True","daysToCorrect":"10","correctedDate":"2021-07-07T00:00:00","correctionDescription":null},{"violationCode":"4-402.11","violationDescription":"EQUIPMENT that is fixed because it is not EASILY MOVABLE shall be installed so that it is spaced to allow access for cleaning along the sides, behind, and above the EQUIPMENT or sealed as required,  COUNTER-MOUNTED EQUIPMENT that is not EASILY MOVABLE shall be installed to allow cleaning of the EQUIPMENT and areas underneath and around the EQUIPMENT .\n","violationType":"Core","itemDescription":"Fixed equipment","subItem":null,"problemDescription":"Not sealed to adjoining","subProblem":null,"location":"THROUGHOUT FACILITY","subLocation":null,"corrected":"True","daysToCorrect":"30","correctedDate":"2021-07-07T00:00:00","correctionDescription":null}]}]}],"maxInspectionDate":[{"inspectionDate":"2022-07-25T00:00:00"}]}},"pageContext":{"eid":"51623461"}},"staticQueryHashes":["3649515864","63159454"]}