{"data":{"site":{"pathPrefix":"/restaurant-inspections"},"postgres":{"establishment":[{"establishmentid":"3661","name":"Detroit Cristo Rey High School","address":"5679 W Vernor","zipcode":"48209","owner":"Archdiocese of Detroit","licenseNumber":"061402","licenseType":"Fixed Establishment","establishmentType":"Non-Public School","establishmentStatus":null,"riskCategory":"Medium","reviewFrequencyDays":"210","coords":"-83.10282,42.31685","geojson":{"id":"3661","type":"Feature","geometry":{"type":"Point","coordinates":[-83.102816525,42.316845168]},"properties":{"name":"Detroit Cristo Rey High School","owner":"Archdiocese of Detroit","address":"5679 W Vernor","zipcode":"48209","license_type":"Fixed Establishment","risk_category":"Medium","license_number":"061402","establishmentid":"3661","establishment_type":"Non-Public School","establishment_status":null,"review_frequency_days":"210","most_recent_license_date":"5/2/2019"}},"nearbyList":[{"establishmentid":"4311","name":"Holy Redeemer Church","address":"1721 Junction Ave","zipcode":"48209"},{"establishmentid":"461","name":"Ho Ho Village","address":"5821 W Vernor","zipcode":"48209"},{"establishmentid":"1525","name":"Holy Redeemer Grade School","address":"1711 Junction Ave","zipcode":"48209"},{"establishmentid":"259","name":"Duly's Coney Island","address":"5458 W Vernor","zipcode":"48209"},{"establishmentid":"1452","name":"El Palenque","address":"5426 W Vernor","zipcode":"48209"},{"establishmentid":"1338","name":"Columbo's Coney Island","address":"5414 W Vernor","zipcode":"48209"},{"establishmentid":"1125","name":"Donut Villa","address":"5875 W Vernor","zipcode":"48209"},{"establishmentid":"3647","name":"Pollo Chapin","address":"2054 Junction Ave","zipcode":"48209"},{"establishmentid":"818","name":"Coogan's Bar","address":"5890 W Vernor","zipcode":"48209"},{"establishmentid":"1147","name":"El Rancho Mexican Restaurant","address":"5900 W Vernor","zipcode":"48209"}],"inspectionsByEstablishmentidList":[{"inspectionid":"44274","inspectionDate":"2018-11-29T00:00:00","inspectionType":"Routine Inspection","inCompliance":"Yes","violationsByInspectionidList":[{"violationCode":"MFL289.2129","violationDescription":"Sec. 2129. (1) All food establishments shall employ a minimum of 1 managerial employee as a food safety manager, who must be an individual who is currently certified under a personnel certification program accredited by the American National Standards Institute, utilizing the Conference for Food Protection standards:\r\n(2) Beginning January 14, 2017 and every 5 years thereafter, a certified  food safety manager who supervises the operations of a food service establishment shall have completed a food safety training program\r\ncontaining an allergen awareness  component that has been approved by  the department. A food service establishment shall retain records on the  site of the food service establishment documenting compliance of its  certified food safety managers with this subsection. ","violationType":"Core","itemDescription":"Person-in-charge","subItem":"","problemDescription":null,"subProblem":"","location":"ESTABLISHMENT","subLocation":"","corrected":"Not required","daysToCorrect":"30","correctedDate":null,"correctionDescription":null}]},{"inspectionid":"37304","inspectionDate":"2016-12-05T00:00:00","inspectionType":"Routine Inspection","inCompliance":"Yes","violationsByInspectionidList":[{"violationCode":"6-301.14","violationDescription":"A sign or poster that notifies FOOD EMPLOYEES to wash their hands shall be provided at all HANDWASHING SINKS used by FOOD EMPLOYEES and shall be clearly visible to FOOD EMPLOYEES.\r\n","violationType":"Core","itemDescription":null,"subItem":"","problemDescription":null,"subProblem":"","location":"KITCHEN","subLocation":"","corrected":"Not required","daysToCorrect":"30","correctedDate":null,"correctionDescription":null}]}]}],"maxInspectionDate":[{"inspectionDate":"2020-05-29T00:00:00"}]}},"pageContext":{"eid":"3661"}}