{"componentChunkName":"component---src-templates-establishment-page-js","path":"/establishment/1932","result":{"data":{"site":{"pathPrefix":"/restaurant-inspections"},"postgres":{"establishment":[{"establishmentid":"1932","name":"Hernandez Center Head Start","address":"2051 Rosa Parks Blvd.","zipcode":"48216","owner":"MATRIX HEAD START","licenseNumber":"038001","licenseType":"Fixed Establishment","establishmentType":"Food Service Establishment","establishmentStatus":"Permanently Closed","riskCategory":null,"reviewFrequencyDays":"180","coords":"-83.07176,42.33002","geojson":{"id":"1932","type":"Feature","geometry":{"type":"Point","coordinates":[-83.07176208,42.33002471]},"properties":{"name":"Hernandez Center Head Start","owner":"MATRIX HEAD START","address":"2051 Rosa Parks Blvd.","zipcode":"48216","license_type":"Fixed Establishment","risk_category":null,"license_number":"038001","establishmentid":"1932","establishment_type":"Food Service Establishment","establishment_status":"Permanently Closed","review_frequency_days":"180","most_recent_license_date":"2016-04-27"}},"nearbyList":[{"establishmentid":"1646","name":"Parabox Cafe","address":"1927 Michigan","zipcode":"48216"},{"establishmentid":"51622746","name":"Tacos El Rodeo","address":"1949 Michigan Ave.","zipcode":"48216"},{"establishmentid":"539","name":"Motor City Wine Bar","address":"1949 Michigan Ave.","zipcode":"48216"},{"establishmentid":"408","name":"Maltese Am Benevolent Society","address":"1832 Michigan Avenue","zipcode":"48216"},{"establishmentid":"51623852","name":"Last Chance Saloon","address":"1830 Michigan","zipcode":"48216"},{"establishmentid":"407","name":"Casey's Pub d/b/a The Red Corridor","address":"1830 Michigan Ave.","zipcode":"48216"},{"establishmentid":"51623100","name":"Toma Detroit","address":"1830 Michigan","zipcode":"48216"},{"establishmentid":"2656","name":"Valley Foods","address":"1980 Bagley","zipcode":"48216"},{"establishmentid":"51623533","name":"Trio Community Meals","address":"1980 Bagley","zipcode":"48216"},{"establishmentid":"3460","name":"Oblivions","address":"1800 Michigan Ave.","zipcode":"48216"}],"inspectionsByEstablishmentidList":[{"inspectionid":"36145","inspectionDate":"2016-08-17T00:00:00","inspectionType":"Routine Inspection","inCompliance":"Yes","violationsByInspectionidList":[{"violationCode":"3-101.11","violationDescription":"FOOD shall be safe, unADULTERATED and honestly presented. (P)\n","violationType":"Priority","itemDescription":"Food","subItem":"","problemDescription":"Dishonestly presented","subProblem":"","location":"WALK-IN COOLER","subLocation":"","corrected":"True","daysToCorrect":"10","correctedDate":"2016-08-18T00:00:00","correctionDescription":"Discard"},{"violationCode":"4-903.11","violationDescription":"Cleaned EQUIPMENT and UTENSILS, laundered LINENS, and SINGLE-SERVICE and SINGLE-USE ARTICLES shall be stored in an approved manner and location.\n","violationType":"Core","itemDescription":"Clean equipment/utensil(s)","subItem":"","problemDescription":"Stored on floor or less than 6 inches above floor","subProblem":"","location":"DRY STORAGE AREA","subLocation":"","corrected":"True","daysToCorrect":"30","correctedDate":"2016-08-18T00:00:00","correctionDescription":"Store at least 6 inches above the floor."}]}]}],"maxInspectionDate":[{"inspectionDate":"2023-04-25T00:00:00"}]}},"pageContext":{"eid":"1932"}},"staticQueryHashes":["3649515864","63159454"]}