{"data":{"site":{"pathPrefix":"/restaurant-inspections"},"postgres":{"establishment":[{"establishmentid":"51622989","name":"Tippin Inn","address":"18430-34 Mt Elliott St","zipcode":"48234","owner":"Howard Taylor","licenseNumber":"237177","licenseType":"Fixed Establishment","establishmentType":"Food Service Establishment","establishmentStatus":"Open","riskCategory":null,"reviewFrequencyDays":"210","coords":"-83.03866,42.42857","geojson":{"id":"51622989","type":"Feature","geometry":{"type":"Point","coordinates":[-83.0386592,42.428569413]},"properties":{"name":"Tippin Inn","owner":"Howard Taylor","address":"18430-34 Mt Elliott St","zipcode":"48234","license_type":"Fixed Establishment","risk_category":null,"license_number":"237177","establishmentid":"51622989","establishment_type":"Food Service Establishment","establishment_status":"Open","review_frequency_days":"210","most_recent_license_date":null}},"nearbyList":[{"establishmentid":"560","name":"Tippin Inn, Inc.","address":"18430-34 Mt Elliott","zipcode":"48234"},{"establishmentid":"605","name":"Two Way Inn","address":"17897 Mt Elliott St","zipcode":"48212"},{"establishmentid":"550","name":"Pandora's Boxx, LLC","address":"6221 E Davison Ave","zipcode":"48212"},{"establishmentid":"361","name":"Brandy's on 7","address":"6141 E Seven Mile Rd","zipcode":"48234"},{"establishmentid":"629","name":"V.F.W. Post #2233 James Europe","address":"18651 Mound Rd","zipcode":"48234"},{"establishmentid":"1213","name":"Chili Boys (Lou's Coney Island)","address":"19100 Mound Rd","zipcode":"48234"},{"establishmentid":"51622978","name":"T & M Chicken and Seafood","address":"5844 E Seven Mile Rd","zipcode":"48234"},{"establishmentid":"1724","name":"Cornerstone School","address":"6861 E Nevada St","zipcode":"48234"},{"establishmentid":"302","name":"Original Marcus Hamburger","address":"6349 E McNichols Rd","zipcode":"48212"},{"establishmentid":"492","name":"Escape Lounge","address":"19404 Sherwood St","zipcode":"48234"}],"inspectionsByEstablishmentidList":[{"inspectionid":"50994","inspectionDate":"2020-03-04T00:00:00","inspectionType":"Routine Inspection","inCompliance":"Yes","violationsByInspectionidList":[{"violationCode":"3-501.17","violationDescription":"(A)  READY-TO-EAT, POTENTIALLY HAZARDOUS FOOD (TIME/TEMPERATURE CONTROL FOR SAFETY FOOD)  prepared and held refrigerated for more than 24 hours in a FOOD ESTABLISHMENT  shall be clearly marked at the time of preparation to indicate the date or day by which the FOOD shall be consumed. (Pf)\r\n(B)  A container of refrigerated, commercially prepared READY-TO-EAT POTENTIALLY HAZARDOUS FOOD (TIME/TEMPERATURE CONTROL FOR SAFETY FOOD)  shall be clearly marked, at the time the original container is opened in a FOOD ESTABLISHMENT, to indicate the date or day by which the FOOD shall be consumed. (Pf)\r\n\r\nA date marking system that does not exceed 7 days, including date of preparation, or opening is to be used. (Pf)\r\n","violationType":"Foundation","itemDescription":"In house prepared ready-to-eat potentially hazardous  food(s)","subItem":"","problemDescription":"Improperly date marked","subProblem":"","location":"COOLER","subLocation":"","corrected":"Yes","daysToCorrect":"10","correctedDate":"2020-03-04T00:00:00","correctionDescription":null},{"violationCode":"4-402.11","violationDescription":"EQUIPMENT that is fixed because it is not EASILY MOVABLE shall be installed so that it is spaced to allow access for cleaning along the sides, behind, and above the EQUIPMENT or sealed as required,  COUNTER-MOUNTED EQUIPMENT that is not EASILY MOVABLE shall be installed to allow cleaning of the EQUIPMENT and areas underneath and around the EQUIPMENT .\r\n","violationType":"Core","itemDescription":"Fixed equipment","subItem":"","problemDescription":"Not sealed to adjoining","subProblem":"Wall(s)","location":"KITCHEN","subLocation":"","corrected":"Not required","daysToCorrect":"30","correctedDate":null,"correctionDescription":null}]},{"inspectionid":"48481","inspectionDate":"2019-07-23T00:00:00","inspectionType":"Routine Inspection","inCompliance":"Yes","violationsByInspectionidList":[{"violationCode":"3-101.11","violationDescription":"FOOD shall be safe, unADULTERATED and honestly presented. (P)\r\n","violationType":"Priority","itemDescription":"Food","subItem":"","problemDescription":"Not safe","subProblem":"","location":"COOLER","subLocation":"","corrected":"Yes","daysToCorrect":"10","correctedDate":"2019-07-23T00:00:00","correctionDescription":null},{"violationCode":"6-501.11","violationDescription":"PHYSICAL FACILITIES shall be maintained in good repair.\r\n","violationType":"Core","itemDescription":"Physical facilities","subItem":"","problemDescription":"In poor repair","subProblem":"","location":"HANDSINK(S)","subLocation":"","corrected":"Not required","daysToCorrect":"30","correctedDate":null,"correctionDescription":null}]}]}],"maxInspectionDate":[{"inspectionDate":"2020-05-29T00:00:00"}]}},"pageContext":{"eid":"51622989"}}