{"data":{"site":{"pathPrefix":"/restaurant-inspections"},"postgres":{"establishment":[{"establishmentid":"1998","name":"MLK, Jr. Education Center","address":"16827 Appoline St","zipcode":"48235","owner":"MLK, Jr. Education Center","licenseNumber":"039220","licenseType":"Fixed Establishment","establishmentType":"Non-Public School","establishmentStatus":"Open","riskCategory":null,"reviewFrequencyDays":"210.0","coords":"-83.17136,42.41456","geojson":{"id":"1998","type":"Feature","geometry":{"type":"Point","coordinates":[-83.1713592519999,42.414561878]},"properties":{"name":"MLK, Jr. Education Center","owner":"MLK, Jr. Education Center","address":"16827 Appoline St","zipcode":"48235","license_type":"Fixed Establishment","risk_category":null,"license_number":"039220","establishmentid":"1998","establishment_type":"Non-Public School","establishment_status":"Open","review_frequency_days":"210.0","most_recent_license_date":"4/29/2019"}},"nearbyList":[{"establishmentid":"4374","name":"Captain Jay's Fish & Chicken #112","address":"16907 Meyers Rd","zipcode":"48235"},{"establishmentid":"1304","name":"Popeye's Chicken & Biscuits","address":"16920 Meyers Rd","zipcode":"48235"},{"establishmentid":"4920","name":"Right Production Catering","address":"16676 James Couzens ","zipcode":"48228"},{"establishmentid":"1228","name":"Lon's Coney Island","address":"10741 W McNichols Rd","zipcode":"48221"},{"establishmentid":"519","name":"Connie & Barbara Restaurant","address":"13101 W McNichols Rd","zipcode":"48235"},{"establishmentid":"51623089","name":"Adams Young Academy","address":"13130 Grove St","zipcode":"48235"},{"establishmentid":"5340","name":"Spud HeadZ Food Truck","address":"10601 W McNichols Rd","zipcode":"48221"},{"establishmentid":"5391","name":"Desmond's Elegant Affairs","address":"12924 Puritan Ave","zipcode":"48227"},{"establishmentid":"1406","name":"Christland Missionary Baptist Church","address":"12901 Puritan Ave","zipcode":"48227"},{"establishmentid":"2405","name":"Mark's A. Eagles #4 Coney Island","address":"12701 Puritan Ave","zipcode":"48227"}],"inspectionsByEstablishmentidList":[{"inspectionid":"49564","inspectionDate":"2019-10-21T00:00:00","inspectionType":"Routine Inspection","inCompliance":"Yes","violationsByInspectionidList":[{"violationCode":"6-301.14","violationDescription":"A sign or poster that notifies FOOD EMPLOYEES to wash their hands shall be provided at all HANDWASHING SINKS used by FOOD EMPLOYEES and shall be clearly visible to FOOD EMPLOYEES.\r\n","violationType":"Core","itemDescription":"Handwashing signage","subItem":"","problemDescription":"Not provided","subProblem":"","location":"HANDSINK(S)","subLocation":"","corrected":"Not required","daysToCorrect":"30.0","correctedDate":null,"correctionDescription":null},{"violationCode":"MFL289.2129","violationDescription":"Sec. 2129. (1) All food establishments shall employ a minimum of 1 managerial employee as a food safety manager, who must be an individual who is currently certified under a personnel certification program accredited by the American National Standards Institute, utilizing the Conference for Food Protection standards:\r\n(2) Beginning January 14, 2017 and every 5 years thereafter, a certified  food safety manager who supervises the operations of a food service establishment shall have completed a food safety training program\r\ncontaining an allergen awareness  component that has been approved by  the department. A food service establishment shall retain records on the  site of the food service establishment documenting compliance of its  certified food safety managers with this subsection. ","violationType":"Core","itemDescription":"Person-in-charge","subItem":"","problemDescription":"Missing","subProblem":"","location":"PERSON IN CHARGE","subLocation":"","corrected":"Not required","daysToCorrect":"30.0","correctedDate":null,"correctionDescription":null}]},{"inspectionid":"48062","inspectionDate":"2019-06-13T00:00:00","inspectionType":"Routine Inspection","inCompliance":"No","violationsByInspectionidList":[{"violationCode":"6-301.11","violationDescription":"Each HANDWASHING SINK or group of 2 adjacent HANDWASHING SINKS shall be provided with a supply of hand cleaning liquid, powder, or bar soap. (Pf)\r\n","violationType":"Foundation","itemDescription":"Soap","subItem":"","problemDescription":"Not provided","subProblem":"","location":"HANDSINK(S)","subLocation":"","corrected":"No","daysToCorrect":"10.0","correctedDate":null,"correctionDescription":null}]},{"inspectionid":"44387","inspectionDate":"2018-12-07T00:00:00","inspectionType":"Routine Inspection","inCompliance":"Yes","violationsByInspectionidList":[{"violationCode":"6-303.11","violationDescription":"Light of the proper intensity shall be provided as specified.\r\n","violationType":"Core","itemDescription":"Lighting intensity","subItem":"at 30 inches above the floor","problemDescription":"Not maintained","subProblem":"","location":"WALK-IN COOLER","subLocation":"Lights","corrected":"Not required","daysToCorrect":"30.0","correctedDate":null,"correctionDescription":"Provide"}]},{"inspectionid":"42197","inspectionDate":"2018-05-10T00:00:00","inspectionType":"Routine Inspection","inCompliance":"Yes","violationsByInspectionidList":[]},{"inspectionid":"39522","inspectionDate":"2017-08-03T00:00:00","inspectionType":"Routine Inspection","inCompliance":"Yes","violationsByInspectionidList":[]},{"inspectionid":"37330","inspectionDate":"2016-12-07T00:00:00","inspectionType":"Routine Inspection","inCompliance":"Yes","violationsByInspectionidList":[]}]}],"maxInspectionDate":[{"inspectionDate":"2019-10-31T00:00:00"}]}},"pageContext":{"eid":"1998"}}