{"data":{"site":{"pathPrefix":"/restaurant-inspections"},"postgres":{"establishment":[{"establishmentid":"601","name":"North Rosedale Community House","address":"18445 Scarsdale St","zipcode":"48223","owner":"N. Rosedale Park Civic Assoc.","licenseNumber":"034488","licenseType":"Fixed Establishment","establishmentType":"Food Service Establishment","establishmentStatus":"Open","riskCategory":"Low","reviewFrequencyDays":"365.0","coords":"-83.22349,42.40729","geojson":{"id":"601","type":"Feature","geometry":{"type":"Point","coordinates":[-83.223486209,42.4072945130001]},"properties":{"name":"North Rosedale Community House","owner":"N. Rosedale Park Civic Assoc.","address":"18445 Scarsdale St","zipcode":"48223","license_type":"Fixed Establishment","risk_category":"Low","license_number":"034488","establishmentid":"601","establishment_type":"Food Service Establishment","establishment_status":"Open","review_frequency_days":"365.0","most_recent_license_date":"5/1/2019"}},"nearbyList":[{"establishmentid":"904","name":"Cooke Elementary","address":"18800 Puritan ","zipcode":"48219"},{"establishmentid":"51622571","name":"River Bistro Detroit","address":"18456 Grand River Ave","zipcode":"48223"},{"establishmentid":"5237","name":"Metro Fish & Seafood LLC","address":"18440 Grand River","zipcode":"48223"},{"establishmentid":"2669","name":"Fish Express","address":"18509 Grand River Ave","zipcode":"48223"},{"establishmentid":"2345","name":"Subway #11686/Mama Delucas","address":"18288 Grand River Ave","zipcode":"48223"},{"establishmentid":"1562","name":"Panda Chinese Restaurant","address":"18614 Fenkell Ave","zipcode":"48223"},{"establishmentid":"2045","name":"McDonald's #567","address":"18403 Grand River Ave","zipcode":"48223"},{"establishmentid":"1995","name":"Little Caesar's Pizza #168","address":"19116 Grand River Ave","zipcode":"48223"},{"establishmentid":"5420","name":"La Kabob Grill ","address":"18616 Fenkell Ave","zipcode":"48223"},{"establishmentid":"5417","name":"Brooklyn Fish and Chicken","address":"18354 Fenkell Ave","zipcode":"48223"}],"inspectionsByEstablishmentidList":[{"inspectionid":"43012","inspectionDate":"2018-07-24T00:00:00","inspectionType":"Routine Inspection","inCompliance":"Yes","violationsByInspectionidList":[{"violationCode":"MFL289.2129","violationDescription":"Sec. 2129. (1) All food establishments shall employ a minimum of 1 managerial employee as a food safety manager, who must be an individual who is currently certified under a personnel certification program accredited by the American National Standards Institute, utilizing the Conference for Food Protection standards:\r\n(2) Beginning January 14, 2017 and every 5 years thereafter, a certified  food safety manager who supervises the operations of a food service establishment shall have completed a food safety training program\r\ncontaining an allergen awareness  component that has been approved by  the department. A food service establishment shall retain records on the  site of the food service establishment documenting compliance of its  certified food safety managers with this subsection. ","violationType":"Core","itemDescription":"Person-in-charge","subItem":"","problemDescription":null,"subProblem":"","location":"KITCHEN","subLocation":"","corrected":"Not required","daysToCorrect":"30.0","correctedDate":null,"correctionDescription":null}]},{"inspectionid":"39204","inspectionDate":"2017-07-12T00:00:00","inspectionType":"Routine Inspection","inCompliance":"Yes","violationsByInspectionidList":[{"violationCode":"6-301.12","violationDescription":"Each HANDWASHING SINK or group of adjacent HANDWASHING SINKS shall be provided with:\r\n(A) Individual, disposable towels; (Pf)\r\n(B) A continuous towel system that supplies the user with a clean towel;(Pf) or \r\n(C) A heated-air hand drying device.(Pf)\r\n(D) A hand drying device that employs an air-knife system that delivers high velocity pressurized air at ambient temperatures.(Pf)\r\n","violationType":"Foundation","itemDescription":"Sanitary hand drying provisions","subItem":"disposable, paper towels","problemDescription":"Not provided","subProblem":"At hand sink","location":"KITCHEN","subLocation":"","corrected":"Yes","daysToCorrect":"10.0","correctedDate":"2017-07-12T00:00:00","correctionDescription":"Provide"},{"violationCode":"MFL289.2129","violationDescription":"Sec. 2129. (1) All food establishments shall employ a minimum of 1 managerial employee as a food safety manager, who must be an individual who is currently certified under a personnel certification program accredited by the American National Standards Institute, utilizing the Conference for Food Protection standards:\r\n(2) Beginning January 14, 2017 and every 5 years thereafter, a certified  food safety manager who supervises the operations of a food service establishment shall have completed a food safety training program\r\ncontaining an allergen awareness  component that has been approved by  the department. A food service establishment shall retain records on the  site of the food service establishment documenting compliance of its  certified food safety managers with this subsection. ","violationType":"Core","itemDescription":"Person-in-charge","subItem":"","problemDescription":null,"subProblem":"","location":"KITCHEN","subLocation":"","corrected":"Not required","daysToCorrect":"30.0","correctedDate":null,"correctionDescription":null}]}]}],"maxInspectionDate":[{"inspectionDate":"2019-04-30T00:00:00"}]}},"pageContext":{"eid":"601"}}