{"componentChunkName":"component---src-templates-establishment-page-js","path":"/establishment/5342","result":{"data":{"site":{"pathPrefix":"/restaurant-inspections"},"postgres":{"establishment":[{"establishmentid":"5342","name":"Oakland International Academy","address":"6111 Miller","zipcode":"48211","owner":"Oakland International Academy","licenseNumber":"208210","licenseType":"Fixed Establishment","establishmentType":"Non-Public School","establishmentStatus":null,"riskCategory":"Medium","reviewFrequencyDays":"180","coords":"-83.03982,42.39083","geojson":{"id":"5342","type":"Feature","geometry":{"type":"Point","coordinates":[-83.039819227,42.39083118]},"properties":{"name":"Oakland International Academy","owner":"Oakland International Academy","address":"6111 Miller","zipcode":"48211","license_type":"Fixed Establishment","risk_category":"Medium","license_number":"208210","establishmentid":"5342","establishment_type":"Non-Public School","establishment_status":null,"review_frequency_days":"180","most_recent_license_date":"4/12/2022"}},"nearbyList":[{"establishmentid":"4059","name":"Mr. Amigo Softey Ice cream","address":"6134 Dorothy","zipcode":"48211"},{"establishmentid":"5343","name":"Oakland International Academy","address":"4001 Miller","zipcode":"48212"},{"establishmentid":"4043","name":"A - H Soft Ice Cream","address":"4000 Miller","zipcode":"48211"},{"establishmentid":"3111","name":"Super Softy","address":"4000 Miller","zipcode":"48211"},{"establishmentid":"4893","name":"Detroit Softy","address":"4112 Oliver","zipcode":"48211"},{"establishmentid":"4777","name":"Mr. Primo Softy","address":"8215 Winkelman St.","zipcode":"48211"},{"establishmentid":"5218","name":"S & A Ice Cream","address":"8189 Winkelman St.","zipcode":"48211"},{"establishmentid":"3938","name":"Happy Kids","address":"6148  Georgia","zipcode":"48211"},{"establishmentid":"3293","name":"Fresh Land","address":"6148  Georgia","zipcode":"48211"},{"establishmentid":"5219","name":"Mr. Blizzard","address":"6148 Georgia","zipcode":"48211"}],"inspectionsByEstablishmentidList":[{"inspectionid":"59514","inspectionDate":"2022-05-20T00:00:00","inspectionType":"Routine Inspection","inCompliance":"Yes","violationsByInspectionidList":[{"violationCode":"6-301.12","violationDescription":"Each HANDWASHING SINK or group of adjacent HANDWASHING SINKS shall be provided with:\n(A) Individual, disposable towels; (Pf)\n(B) A continuous towel system that supplies the user with a clean towel;(Pf) or \n(C) A heated-air hand drying device.(Pf)\n(D) A hand drying device that employs an air-knife system that delivers high velocity pressurized air at ambient temperatures.(Pf)\n","violationType":"Foundation","itemDescription":"Sanitary hand drying provisions","subItem":"disposable, paper towels","problemDescription":"Not provided","subProblem":"At hand sink","location":"HANDSINK(S)","subLocation":null,"corrected":"True","daysToCorrect":"10","correctedDate":"2022-05-26T00:00:00","correctionDescription":null}]},{"inspectionid":"56206","inspectionDate":"2021-10-06T00:00:00","inspectionType":"Routine Inspection","inCompliance":"Yes","violationsByInspectionidList":[]},{"inspectionid":"55195","inspectionDate":"2021-06-22T00:00:00","inspectionType":"Routine Inspection","inCompliance":"Yes","violationsByInspectionidList":[]},{"inspectionid":"53687","inspectionDate":"2020-12-16T00:00:00","inspectionType":"Routine Inspection","inCompliance":"Yes","violationsByInspectionidList":[]},{"inspectionid":"52304","inspectionDate":"2020-03-23T00:00:00","inspectionType":"COVID19-temp closed","inCompliance":"Yes","violationsByInspectionidList":[]},{"inspectionid":"49911","inspectionDate":"2019-11-20T00:00:00","inspectionType":"Routine Inspection","inCompliance":"Yes","violationsByInspectionidList":[]},{"inspectionid":"48019","inspectionDate":"2019-06-11T00:00:00","inspectionType":"Routine Inspection","inCompliance":"Yes","violationsByInspectionidList":[]},{"inspectionid":"44978","inspectionDate":"2019-01-18T00:00:00","inspectionType":"Routine Inspection","inCompliance":"Yes","violationsByInspectionidList":[{"violationCode":"4-602.13","violationDescription":"NonFOOD-CONTACT SURFACES of EQUIPMENT shall be cleaned at a frequency necessary to preclude accumulation of soil residues.\n","violationType":"Core","itemDescription":"Nonfood contact surface(s)","subItem":null,"problemDescription":"With accumulation of debris","subProblem":null,"location":"STEAM TABLE","subLocation":null,"corrected":"False","daysToCorrect":"30","correctedDate":null,"correctionDescription":"Keep clean."}]},{"inspectionid":"44541","inspectionDate":"2018-12-20T00:00:00","inspectionType":"Closed - Temporary","inCompliance":"Yes","violationsByInspectionidList":[]},{"inspectionid":"42487","inspectionDate":"2018-06-05T00:00:00","inspectionType":"Routine Inspection","inCompliance":"Yes","violationsByInspectionidList":[]},{"inspectionid":"41149","inspectionDate":"2017-06-19T00:00:00","inspectionType":"Routine Inspection","inCompliance":"Yes","violationsByInspectionidList":[]},{"inspectionid":"38752","inspectionDate":"2017-05-12T00:00:00","inspectionType":"Routine Inspection","inCompliance":"No","violationsByInspectionidList":[{"violationCode":"5-103.12","violationDescription":"Water under pressure shall be provided to all fixtures, EQUIPMENT, and nonFOOD EQUIPMENT that are required to use water unless otherwise approved. (Pf)\n","violationType":"Foundation","itemDescription":"Water under pressure","subItem":null,"problemDescription":"Insufficient to meet demands","subProblem":null,"location":"HANDSINK(S)","subLocation":null,"corrected":"False","daysToCorrect":"10","correctedDate":null,"correctionDescription":"Provide sufficient water pressure to meet demand of use."}]}]}],"maxInspectionDate":[{"inspectionDate":"2022-08-31T00:00:00"}]}},"pageContext":{"eid":"5342"}},"staticQueryHashes":["3649515864","63159454"]}