{"componentChunkName":"component---src-templates-establishment-page-js","path":"/establishment/51622868","result":{"data":{"site":{"pathPrefix":"/restaurant-inspections"},"postgres":{"establishment":[{"establishmentid":"51622868","name":"Pursue/Fort Street Galley","address":"160 Fort St. W.","zipcode":"48226","owner":"Michael Han","licenseNumber":"1031NKB","licenseType":"Fixed Establishment","establishmentType":"Food Service Establishment","establishmentStatus":"Permanently Closed","riskCategory":"High","reviewFrequencyDays":"150","coords":"-83.04858,42.33058","geojson":{"id":"51622868","type":"Feature","geometry":{"type":"Point","coordinates":[-83.048577708,42.330577292]},"properties":{"name":"Pursue/Fort Street Galley","owner":"Michael Han","address":"160 Fort St. W.","zipcode":"48226","license_type":"Fixed Establishment","risk_category":"High","license_number":"1031NKB","establishmentid":"51622868","establishment_type":"Food Service Establishment","establishment_status":"Permanently Closed","review_frequency_days":"150","most_recent_license_date":"12/6/2018"}},"nearbyList":[{"establishmentid":"5320","name":"Maru Detroit","address":"160 Fort W.","zipcode":"48226"},{"establishmentid":"51623148","name":"Which Came First","address":"160 W. Fort Street","zipcode":"48226"},{"establishmentid":"51623044","name":"Michigan & Trumbull/Fort Street Galley","address":"160 Fort W. Street","zipcode":"48226"},{"establishmentid":"51623015","name":"Table Detroit/Fort Street Galley","address":"160 Fort St. W..","zipcode":"48226"},{"establishmentid":"1926","name":"Sodexho","address":"160 Fort W.","zipcode":"48226"},{"establishmentid":"51622819","name":"Fort Street Galley- Bar & Table","address":"160 W. Fort","zipcode":"48226"},{"establishmentid":"51622866","name":"Isla/Fort Street Galley","address":"160 Fort","zipcode":"48226"},{"establishmentid":"51622865","name":"Lucky's Noble BBQ/Fort Street Galley","address":"160 Fort","zipcode":"48226"},{"establishmentid":"51622867","name":"Allenby/Fort Street Galley","address":"160 Fort","zipcode":"48226"},{"establishmentid":"2584","name":"Black Gold Coffee","address":"719 Grisworld St.  Ste 110","zipcode":"48226"}],"inspectionsByEstablishmentidList":[{"inspectionid":"45198","inspectionDate":"2019-02-15T00:00:00","inspectionType":"Routine Inspection","inCompliance":"Yes","violationsByInspectionidList":[{"violationCode":"3-402.12","violationDescription":"If raw, raw-marinated, partially cooked, or marinated-partially cooked FISH are served or sold in READY-TO-EAT form, the PERSON IN CHARGE shall record the freezing temperature and time to which the FISH are subjected and shall retain the records at the FOOD ESTABLISHMENT for 90 calendar days beyond the time of service or sale of the FISH. (Pf)\nIf the FISH are frozen by a supplier, a written agreement or statement from the supplier stipulating that the FISH supplied are frozen to a temperature and for a time specified by law. \n","violationType":"Foundation","itemDescription":"Frozen fish record(s)","subItem":null,"problemDescription":"Not provided","subProblem":null,"location":"FACILITY","subLocation":null,"corrected":"True","daysToCorrect":"10","correctedDate":"2019-02-15T00:00:00","correctionDescription":"Provide."},{"violationCode":"4-903.11","violationDescription":"Cleaned EQUIPMENT and UTENSILS, laundered LINENS, and SINGLE-SERVICE and SINGLE-USE ARTICLES shall be stored in an approved manner and location.\n","violationType":"Core","itemDescription":"Clean equipment/utensil(s)","subItem":null,"problemDescription":"Stored on floor or less than 6 inches above floor","subProblem":null,"location":"PREP AREA(S)","subLocation":null,"corrected":"True","daysToCorrect":"30","correctedDate":"2019-02-15T00:00:00","correctionDescription":"Store at least 6 inches above the floor."}]},{"inspectionid":"44301","inspectionDate":"2018-11-30T00:00:00","inspectionType":"Plan Review/Pre-Open","inCompliance":"Yes","violationsByInspectionidList":[]}]}],"maxInspectionDate":[{"inspectionDate":"2022-07-25T00:00:00"}]}},"pageContext":{"eid":"51622868"}},"staticQueryHashes":["3649515864","63159454"]}