{"componentChunkName":"component---src-templates-establishment-page-js","path":"/establishment/4673","result":{"data":{"site":{"pathPrefix":"/restaurant-inspections"},"postgres":{"establishment":[{"establishmentid":"4673","name":"Covenant Central-Covenent House Michigan","address":"2959 Martin Luther King","zipcode":"48208","owner":"Detroit Board of Education","licenseNumber":"075692","licenseType":"Fixed Establishment","establishmentType":"Charter School","establishmentStatus":"Open","riskCategory":"Medium","reviewFrequencyDays":"180","coords":"-83.08857,42.33594","geojson":{"id":"4673","type":"Feature","geometry":{"type":"Point","coordinates":[-83.088571372,42.335935705]},"properties":{"name":"Covenant Central-Covenent House Michigan","owner":"Detroit Board of Education","address":"2959 Martin Luther King","zipcode":"48208","license_type":"Fixed Establishment","risk_category":"Medium","license_number":"075692","establishmentid":"4673","establishment_type":"Charter School","establishment_status":"Open","review_frequency_days":"180","most_recent_license_date":"5/15/2017"}},"nearbyList":[{"establishmentid":"2145","name":"Covenant House Michigan","address":"2959 Martin Luther King Blvd.","zipcode":"48208"},{"establishmentid":"51623475","name":"Covenant House Academy-Central","address":"2959 Martin Luther King Blvd.","zipcode":"48208"},{"establishmentid":"51622907","name":"Covenant House Academy-Central","address":"2959 Martin Luther King Blvd.","zipcode":"48208"},{"establishmentid":"51623577","name":"The Egg Hunt LLC","address":"3083 Lawton","zipcode":"48216"},{"establishmentid":"1640","name":"University of Detroit Dental School","address":"2700 Martin Luther King Blvd.","zipcode":"48208"},{"establishmentid":"4588","name":"Total Vending","address":"2700 Martin Luther King Blvd.","zipcode":"48208"},{"establishmentid":"2196","name":"APEX VENDING","address":"2700 MLK BLVD","zipcode":"48208"},{"establishmentid":"2188","name":"APEX VENDING","address":"2700 MLK BLVD","zipcode":"48208"},{"establishmentid":"2534","name":"ROBINSON DAIRY VENDING","address":"2700 MARTIN LUTHER KING BLVD","zipcode":"48212"},{"establishmentid":"3854","name":"Salvation Army #2","address":"3737 Lawton","zipcode":"48208"}],"inspectionsByEstablishmentidList":[{"inspectionid":"44837","inspectionDate":"2018-11-19T00:00:00","inspectionType":"Routine Inspection","inCompliance":"No","violationsByInspectionidList":[{"violationCode":"4-301.12","violationDescription":"(A) Except as specified in ¶ (C) of this section, a sink with at least 3 compartments shall be provided for manually washing, rinsing, and SANITIZING EQUIPMENT and UTENSILS. (Pf)   \n(B) Sink compartments shall be large enough to accommodate immersion of the largest EQUIPMENT and UTENSILS. If EQUIPMENT or UTENSILS are too large for the WAREWASHING sink, a WAREWASHING machine or alternative EQUIPMENT as specified in ¶ (C) of this section shall be used. (Pf)\n(C) Before a 2-compartment sink is used the PERMIT HOLDER shall have its use APPROVED.\n(D) A 2-compartment sink may not be used for WAREWASHING operations where cleaning and SANITIZING solutions are used for a continuous or intermittent flow of KITCHENWARE or TABLEWARE in an ongoing WAREWASHING process.\n\n","violationType":"Foundation","itemDescription":"Three compartment sink","subItem":null,"problemDescription":"Not provided","subProblem":null,"location":"KITCHEN","subLocation":"Missing Three compartment sink","corrected":"False","daysToCorrect":"10","correctedDate":null,"correctionDescription":"Install to meet requirements"}]},{"inspectionid":"42019","inspectionDate":"2018-04-26T00:00:00","inspectionType":"Routine Inspection","inCompliance":"Yes","violationsByInspectionidList":[{"violationCode":"4-903.11","violationDescription":"Cleaned EQUIPMENT and UTENSILS, laundered LINENS, and SINGLE-SERVICE and SINGLE-USE ARTICLES shall be stored in an approved manner and location.\n","violationType":"Core","itemDescription":"Single-service/single-use article(s)","subItem":null,"problemDescription":"Stored on floor or less than 6 inches above floor","subProblem":null,"location":"FOOD SERVICE AREA","subLocation":"On the floor Single service items","corrected":"True","daysToCorrect":"30","correctedDate":"2018-04-26T00:00:00","correctionDescription":"Store at least 6 inches above the floor."}]},{"inspectionid":"40109","inspectionDate":"2017-09-26T00:00:00","inspectionType":"Routine Inspection","inCompliance":"Yes","violationsByInspectionidList":[]},{"inspectionid":"38772","inspectionDate":"2017-05-22T00:00:00","inspectionType":"Routine Inspection","inCompliance":"Yes","violationsByInspectionidList":[{"violationCode":"4-302.14","violationDescription":"A test kit or other device that accurately measures the concentration in mg/L of SANITIZING solutions shall be provided. (Pf)\n","violationType":"Foundation","itemDescription":"Sanitizer test kit","subItem":"quaternary ammonia","problemDescription":"Not provided","subProblem":null,"location":"KITCHEN","subLocation":"Missing Test strips","corrected":"True","daysToCorrect":"10","correctedDate":"2017-05-23T00:00:00","correctionDescription":"Provide as required"}]},{"inspectionid":"37068","inspectionDate":"2016-11-09T00:00:00","inspectionType":"Routine Inspection","inCompliance":"No","violationsByInspectionidList":[{"violationCode":"3-101.11","violationDescription":"FOOD shall be safe, unADULTERATED and honestly presented. (P)\n","violationType":"Priority","itemDescription":"Food","subItem":null,"problemDescription":"Not safe","subProblem":null,"location":"KITCHEN","subLocation":"Inside the Cooler (milk)","corrected":"False","daysToCorrect":"10","correctedDate":null,"correctionDescription":"Discard."}]}]}],"maxInspectionDate":[{"inspectionDate":"2022-07-25T00:00:00"}]}},"pageContext":{"eid":"4673"}},"staticQueryHashes":["3649515864","63159454"]}