{"data":{"site":{"pathPrefix":"/restaurant-inspections"},"postgres":{"establishment":[{"establishmentid":"51623043","name":"Alfa Coney And Grill","address":"7145 W Fort St","zipcode":"48209","owner":"Kol Dushi","licenseNumber":"249482","licenseType":"Fixed Establishment","establishmentType":"Food Service Establishment","establishmentStatus":"Open","riskCategory":null,"reviewFrequencyDays":"180","coords":"-83.11253,42.30274","geojson":{"id":"51623043","type":"Feature","geometry":{"type":"Point","coordinates":[-83.112528442,42.302741671]},"properties":{"name":"Alfa Coney And Grill","owner":"Kol Dushi","address":"7145 W Fort St","zipcode":"48209","license_type":"Fixed Establishment","risk_category":null,"license_number":"249482","establishmentid":"51623043","establishment_type":"Food Service Establishment","establishment_status":"Open","review_frequency_days":"180","most_recent_license_date":"6/16/2020"}},"nearbyList":[{"establishmentid":"675","name":"Motz  Restaurant Inc","address":"7208 Fort St W","zipcode":"48209"},{"establishmentid":"3140","name":"West Fort Street Bar & Grill","address":"7642 Fort St W","zipcode":"48209"},{"establishmentid":"735","name":"Happy Bar","address":"1247 Green St N","zipcode":"48209"},{"establishmentid":"3800","name":"All Saints Soup Kitchen","address":"7824 W Fort Street ","zipcode":"48209"},{"establishmentid":"3926","name":"Taqueria Camino Real","address":"1100 Central Ave","zipcode":"48209"},{"establishmentid":"1276","name":"New Day Center","address":"511 Post St S","zipcode":"48209"},{"establishmentid":"732","name":"Sidekicks Saloon","address":"7023 Chatsfield St","zipcode":"48209"},{"establishmentid":"703","name":"Roberto Clemente Elementary","address":"1551 Beard St","zipcode":"48209"},{"establishmentid":"1650","name":"Dino's Cafe Inc.","address":"1601 Waterman St","zipcode":"48209"},{"establishmentid":"1184","name":"McDonald's #5251","address":"1101 Springwells Ave","zipcode":"48209"}],"inspectionsByEstablishmentidList":[{"inspectionid":"50413","inspectionDate":"2020-01-16T00:00:00","inspectionType":"Routine Inspection","inCompliance":"Yes","violationsByInspectionidList":[{"violationCode":"5-202.13","violationDescription":"An air gap between the water supply inlet and the flood level rim of the PLUMBING FIXTURE, EQUIPMENT, or nonFOOD EQUIPMENT shall be at least twice the diameter of the water supply inlet and may not be less than 1 inch. (P)\r\n","violationType":"Priority","itemDescription":"Air gap","subItem":"between supply line and flood rim of","problemDescription":"Less than twice the diameter of supply line","subProblem":"","location":"3 COMPARTMENT SINK AREA","subLocation":"Spray arm","corrected":"Yes","daysToCorrect":"10","correctedDate":"2020-03-06T00:00:00","correctionDescription":"Provide adequate air gap."},{"violationCode":"4-302.14","violationDescription":"A test kit or other device that accurately measures the concentration in mg/L of SANITIZING solutions shall be provided. (Pf)\r\n","violationType":"Foundation","itemDescription":"Sanitizer test kit","subItem":"quaternary ammonia","problemDescription":"Not provided","subProblem":"","location":"3 COMPARTMENT SINK AREA","subLocation":"Test strips","corrected":"Yes","daysToCorrect":"10","correctedDate":"2020-01-31T00:00:00","correctionDescription":"Provide."}]}]}],"maxInspectionDate":[{"inspectionDate":"2020-10-30T00:00:00"}]}},"pageContext":{"eid":"51623043"}}