{"data":{"site":{"pathPrefix":"/restaurant-inspections"},"postgres":{"establishment":[{"establishmentid":"51623134","name":"BBQ Central","address":"12729 W Seven Mile Rd","zipcode":"48235","owner":"Dentia Ramsey","licenseNumber":"247204","licenseType":"Fixed Establishment","establishmentType":"Food Service Establishment","establishmentStatus":"Open","riskCategory":null,"reviewFrequencyDays":"180","coords":"-83.17131,42.43099","geojson":{"id":"51623134","type":"Feature","geometry":{"type":"Point","coordinates":[-83.171311951,42.430985822]},"properties":{"name":"BBQ Central","owner":"Dentia Ramsey","address":"12729 W Seven Mile Rd","zipcode":"48235","license_type":"Fixed Establishment","risk_category":null,"license_number":"247204","establishmentid":"51623134","establishment_type":"Food Service Establishment","establishment_status":"Open","review_frequency_days":"180","most_recent_license_date":"10/15/2019"}},"nearbyList":[{"establishmentid":"5403","name":"Detroit Shawarma/Spice Giant","address":"12729 W Seven Mile Rd","zipcode":"48235"},{"establishmentid":"723","name":"Motor City Soul Food","address":"12700 W Seven Mile Rd","zipcode":"48235"},{"establishmentid":"669","name":"Lotus Gardens","address":"12832 W Seven Mile Rd","zipcode":"48235"},{"establishmentid":"4098","name":"Checkers #3310","address":"10711 W Seven Mile Rd","zipcode":"48221"},{"establishmentid":"3879","name":"Franks Anatra","address":"18700 Meyers","zipcode":"48221"},{"establishmentid":"5280","name":"Capital Hook Fish & Chicken Inc","address":"10600 W Seven Mile Rd","zipcode":"48221"},{"establishmentid":"912","name":"Macdowell Preparatory Academy","address":"4201 W Outer Dr","zipcode":"48238"},{"establishmentid":"5084","name":"Word In Action Christian Center","address":"19780 Meyers Rd","zipcode":"48227"},{"establishmentid":"1869","name":"Little Caesar's Pizza #24","address":"10200 W Seven Mile Rd","zipcode":"48221"},{"establishmentid":"1705","name":"Northwest Community Programs, Inc.","address":"18100 Meyers","zipcode":"48235"}],"inspectionsByEstablishmentidList":[{"inspectionid":"49766","inspectionDate":"2019-11-07T00:00:00","inspectionType":"Routine Inspection","inCompliance":"Yes","violationsByInspectionidList":[{"violationCode":"2-402.11","violationDescription":"FOOD EMPLOYEES shall wear hair restraints such as hats, hair coverings or nets, beard restraints, and clothing that covers body hair, that are designed and worn to effectively keep their hair from contacting exposed FOOD; clean EQUIPMENT, UTENSILS, and LINENS; or unwrapped SINGLE-SERVICE or SINGLE-USE ARTICLES.","violationType":"Core","itemDescription":"Hair restraint","subItem":"","problemDescription":"Not worn on head/hair","subProblem":"","location":"PERSON IN CHARGE","subLocation":"","corrected":"Yes","daysToCorrect":"30","correctedDate":"2019-11-07T00:00:00","correctionDescription":null},{"violationCode":"5-501.17","violationDescription":"A toilet room used by females shall be provided with a covered receptacle for sanitary napkins.\r\n","violationType":"Core","itemDescription":"Covered waste receptacle(s)","subItem":"","problemDescription":"Not provided","subProblem":"","location":"RESTROOM (EMPLOYEE)","subLocation":"","corrected":"Not required","daysToCorrect":"30","correctedDate":null,"correctionDescription":null}]}]}],"maxInspectionDate":[{"inspectionDate":"2020-05-29T00:00:00"}]}},"pageContext":{"eid":"51623134"}}