{"componentChunkName":"component---src-templates-establishment-page-js","path":"/establishment/1527","result":{"data":{"site":{"pathPrefix":"/restaurant-inspections"},"postgres":{"establishment":[{"establishmentid":"1527","name":"Ferguson Academy","address":"2750 Selden","zipcode":"48208","owner":"Detroit Public Schools Communi","licenseNumber":"217597","licenseType":"Fixed Establishment","establishmentType":"Public School","establishmentStatus":"Open","riskCategory":null,"reviewFrequencyDays":"180","coords":"-83.08970,42.34037","geojson":{"id":"1527","type":"Feature","geometry":{"type":"Point","coordinates":[-83.08970258,42.340372687]},"properties":{"name":"Ferguson Academy","owner":"Detroit Public Schools Communi","address":"2750 Selden","zipcode":"48208","license_type":"Fixed Establishment","risk_category":null,"license_number":"217597","establishmentid":"1527","establishment_type":"Public School","establishment_status":"Open","review_frequency_days":"180","most_recent_license_date":"2021-06-08"}},"nearbyList":[{"establishmentid":"51622519","name":"Ferguson Building","address":"2750 Seldon","zipcode":"48208"},{"establishmentid":"5035","name":"Blanche Kelso Bruce Academy-West","address":"2750 Seldon","zipcode":"48208"},{"establishmentid":"4383","name":"Salvation Army #5","address":"3737 Lawton","zipcode":"48208"},{"establishmentid":"3853","name":"Salvation Army #1","address":"3737  Lawton","zipcode":"48208"},{"establishmentid":"2727","name":"Salvation Army - Acres of Hope","address":"3737 Lawton","zipcode":"48208"},{"establishmentid":"3854","name":"Salvation Army #2","address":"3737 Lawton","zipcode":"48208"},{"establishmentid":"3855","name":"Salvation Army #3","address":"3737 Lawton","zipcode":"48208"},{"establishmentid":"5064","name":"Salvation Army #12","address":"3737 Lawton ","zipcode":"48208"},{"establishmentid":"51623470","name":"Salvation Army Harbor Light- Detroit","address":"3737 Lawton ST ","zipcode":"48208"},{"establishmentid":"2196","name":"APEX VENDING","address":"2700 MLK BLVD","zipcode":"48208"}],"inspectionsByEstablishmentidList":[{"inspectionid":"60797","inspectionDate":"2022-11-16T00:00:00","inspectionType":"Routine Inspection","inCompliance":"Yes","violationsByInspectionidList":[]},{"inspectionid":"59360","inspectionDate":"2022-05-15T00:00:00","inspectionType":"Routine Inspection","inCompliance":"Yes","violationsByInspectionidList":[]},{"inspectionid":"56525","inspectionDate":"2021-11-07T00:00:00","inspectionType":"Routine Inspection","inCompliance":"Yes","violationsByInspectionidList":[]},{"inspectionid":"54889","inspectionDate":"2021-05-13T00:00:00","inspectionType":"Routine Inspection","inCompliance":"Yes","violationsByInspectionidList":[{"violationCode":"6-303.11","violationDescription":"Light of the proper intensity shall be provided as specified.\n","violationType":"Core","itemDescription":"Lighting intensity","subItem":"at work levels","problemDescription":"Not maintained","subProblem":"","location":"KITCHEN","subLocation":"On the ceiling Lights","corrected":"False","daysToCorrect":"30","correctedDate":null,"correctionDescription":null},{"violationCode":"6-202.11","violationDescription":"Except as otherwise approved, light bulbs shall be shielded, coated, or otherwise shatter-resistant in areas where there is exposed FOOD; clean EQUIPMENT, UTENSILS, and LINENS; or unwrapped SINGLE-SERVICE and SINGLE-USE ARTICLES.\n","violationType":"Core","itemDescription":"Light shielding","subItem":"","problemDescription":"Not provided","subProblem":"","location":"KITCHEN","subLocation":"Missing Light Shield(s)","corrected":"False","daysToCorrect":"30","correctedDate":null,"correctionDescription":"Provide adequate light shields and end caps or shatter-proof bulbs."}]},{"inspectionid":"53327","inspectionDate":"2020-11-12T00:00:00","inspectionType":"Routine Inspection","inCompliance":"Yes","violationsByInspectionidList":[{"violationCode":"6-303.11","violationDescription":"Light of the proper intensity shall be provided as specified.\n","violationType":"Core","itemDescription":"Lighting intensity","subItem":"at work levels","problemDescription":"Not maintained","subProblem":"","location":"KITCHEN","subLocation":"Inside the Freezer (reach-in)","corrected":"False","daysToCorrect":"30","correctedDate":null,"correctionDescription":"Maintain in good repair"}]},{"inspectionid":"50297","inspectionDate":"2020-01-06T00:00:00","inspectionType":"Routine Inspection","inCompliance":"Yes","violationsByInspectionidList":[]},{"inspectionid":"48047","inspectionDate":"2019-06-12T00:00:00","inspectionType":"Routine Inspection","inCompliance":"Yes","violationsByInspectionidList":[{"violationCode":"4-501.11","violationDescription":"EQUIPMENT shall be maintained in a state of repair and condition that meets the requirements of the code.\n","violationType":"Core","itemDescription":"Equipment","subItem":"","problemDescription":"Broken","subProblem":"","location":"RESTROOM (EMPLOYEE)","subLocation":"At the Paper towel dispenser","corrected":"False","daysToCorrect":"30","correctedDate":null,"correctionDescription":"Repair/replace."}]},{"inspectionid":"45092","inspectionDate":"2019-02-07T00:00:00","inspectionType":"Routine Inspection","inCompliance":"Yes","violationsByInspectionidList":[]},{"inspectionid":"42602","inspectionDate":"2018-06-18T00:00:00","inspectionType":"Routine Inspection","inCompliance":"Yes","violationsByInspectionidList":[]}]}],"maxInspectionDate":[{"inspectionDate":"2023-04-25T00:00:00"}]}},"pageContext":{"eid":"1527"}},"staticQueryHashes":["3649515864","63159454"]}