{"data":{"site":{"pathPrefix":"/restaurant-inspections"},"postgres":{"establishment":[{"establishmentid":"1282","name":"Tim Horton's","address":"15340 Wyoming Ave","zipcode":"48238","owner":"Copeland TH Inc","licenseNumber":"077771","licenseType":"Fixed Establishment","establishmentType":"Food Service Establishment","establishmentStatus":"Open","riskCategory":null,"reviewFrequencyDays":"365","coords":"-83.15965,42.40326","geojson":{"id":"1282","type":"Feature","geometry":{"type":"Point","coordinates":[-83.159645788,42.403264809]},"properties":{"name":"Tim Horton's","owner":"Copeland TH Inc","address":"15340 Wyoming Ave","zipcode":"48238","license_type":"Fixed Establishment","risk_category":null,"license_number":"077771","establishmentid":"1282","establishment_type":"Food Service Establishment","establishment_status":"Open","review_frequency_days":"365","most_recent_license_date":null}},"nearbyList":[{"establishmentid":"1289","name":"McDonald's #3146","address":"15321 Wyoming Ave","zipcode":"48238"},{"establishmentid":"51622637","name":"Jam Jomar XXV III (McDonalds #3146)","address":"15321 Wyoming Ave ","zipcode":"48238"},{"establishmentid":"2151","name":"White Castle #43","address":"15365 Wyoming Ave","zipcode":"48238"},{"establishmentid":"51622478","name":"Pizza Kebab","address":"15221 Wyoming Ave","zipcode":"48238"},{"establishmentid":"4067","name":"China Garden","address":"15228 Wyoming Ave","zipcode":"48238"},{"establishmentid":"4913","name":"Wyoming Fresh Fish","address":"15151 Wyoming Ave","zipcode":"48238"},{"establishmentid":"4914","name":"Loyola High School Detroit","address":"15325 Pinehurst St","zipcode":"48238"},{"establishmentid":"4665","name":"Faustina's Creole and Soulfood","address":"16155 Wyoming Ave","zipcode":"48221"},{"establishmentid":"1868","name":"WE Care Senior Meal Program","address":"8720 Puritan ","zipcode":"48238"},{"establishmentid":"2744","name":"Super 3 Coney Island","address":"14508 Wyoming Ave","zipcode":"48238"}],"inspectionsByEstablishmentidList":[{"inspectionid":"49504","inspectionDate":"2019-10-15T00:00:00","inspectionType":"Complaint","inCompliance":"Yes","violationsByInspectionidList":[{"violationCode":"6-501.12","violationDescription":"(A) PHYSICAL FACILITIES shall be cleaned as often as necessary to keep them clean.\r\n(B) Except spill cleanup, cleaning shall be done during periods when the least amount of FOOD is exposed such as after closing. ","violationType":"Core","itemDescription":"Physical facilities/structures","subItem":"","problemDescription":"Not clean","subProblem":"","location":"FACILITY","subLocation":"","corrected":"Not required","daysToCorrect":"30","correctedDate":null,"correctionDescription":null},{"violationCode":"6-501.111","violationDescription":"The presence of insects, rodents, and other pests shall be controlled to minimize their presence on the PREMISES.  by:\r\n(A) Routinely inspecting incoming shipments of FOOD and supplies; \r\n(B) Routinely inspecting the PREMISES for evidence of pests;\r\n(C) Using methods, if pests are found, such as trapping devices or other means of pest control as specified.(Pf) \r\n(D) Eliminating harborage conditions. \r\n","violationType":"Core","itemDescription":"Pest(s)","subItem":"","problemDescription":"Present in facility","subProblem":"With over loaded/loaded trapping devices","location":"THROUGHOUT FACILITY","subLocation":"","corrected":"Not required","daysToCorrect":"10","correctedDate":null,"correctionDescription":null}]},{"inspectionid":"36456","inspectionDate":"2016-09-15T00:00:00","inspectionType":"Routine Inspection","inCompliance":"Yes","violationsByInspectionidList":[{"violationCode":"3-501.18","violationDescription":"A FOOD specified in ¶ 3-501.17(A) or (B) shall be discarded if it:  \r\n    (1) Exceeds the temperature and time combination specified in ¶ 3-501.17(A),              except time that the product is frozen; (P)\r\n    (2) Is in a container or PACKAGE that does not bear a date or day; (P) or\r\n    (3) Is appropriately marked with a date or day that exceeds a temperature and              time combination as specified in ¶ 3-501.17(A). (P)  \r\n\r\n","violationType":"Priority","itemDescription":"Ready to eat, potentially hazardous food(s)","subItem":"","problemDescription":"Beyond consume by date","subProblem":"","location":"WALK-IN COOLER","subLocation":"At the DATE MARKING","corrected":"Yes","daysToCorrect":"10","correctedDate":"2016-09-15T00:00:00","correctionDescription":"Discard."},{"violationCode":"6-501.12","violationDescription":"(A) PHYSICAL FACILITIES shall be cleaned as often as necessary to keep them clean.\r\n(B) Except spill cleanup, cleaning shall be done during periods when the least amount of FOOD is exposed such as after closing. ","violationType":"Core","itemDescription":"Physical facilities/structures","subItem":"floors","problemDescription":"With accumulation of debris","subProblem":"","location":"FACILITY","subLocation":"At the Floor","corrected":"Not required","daysToCorrect":"30","correctedDate":null,"correctionDescription":"Keep clean."},{"violationCode":"6-301.14","violationDescription":"A sign or poster that notifies FOOD EMPLOYEES to wash their hands shall be provided at all HANDWASHING SINKS used by FOOD EMPLOYEES and shall be clearly visible to FOOD EMPLOYEES.\r\n","violationType":"Core","itemDescription":"Handwashing signage","subItem":"","problemDescription":"Not provided","subProblem":"At hand sink","location":"HANDSINK(S)","subLocation":"At the Hand washing signage","corrected":"Yes","daysToCorrect":"30","correctedDate":"2016-09-15T00:00:00","correctionDescription":"Provide"}]}]}],"maxInspectionDate":[{"inspectionDate":"2020-10-30T00:00:00"}]}},"pageContext":{"eid":"1282"}}