{"data":{"postgres":{"establishment":[{"establishmentid":"4695","name":"Ford Field - Blitz","address":"2000 Brush St","zipcode":"48226","owner":"Levy Premium Foodservice Ltd.","licenseNumber":"079501","licenseType":"Fixed Establishment","establishmentType":"Food Service Establishment","establishmentStatus":"Plan Review","riskCategory":"Medium","reviewFrequencyDays":"365.0","coords":"-83.04552,42.33984","geojson":{"id":"4695","type":"Feature","geometry":{"type":"Point","coordinates":[-83.04552239,42.339843494]},"properties":{"name":"Ford Field - Blitz","owner":"Levy Premium Foodservice Ltd.","address":"2000 Brush St","zipcode":"48226","license_type":"Fixed Establishment","risk_category":"Medium","license_number":"079501","establishmentid":"4695","establishment_type":"Food Service Establishment","establishment_status":"Plan Review","review_frequency_days":"365.0","most_recent_license_date":"4/30/2018"}},"nearbyList":[{"establishmentid":"2048","name":"Elwood Bar & Grill","address":"300 E Adams","zipcode":"48226"},{"establishmentid":"322","name":"Twentieth Century Club, (Gem Theatre)","address":"333 Madison","zipcode":"48226"},{"establishmentid":"1106","name":"Music Hall Center","address":"350 Madison","zipcode":"48226"},{"establishmentid":"355","name":"Detroit Athletic Club","address":"241 Madison Ave","zipcode":"48226"},{"establishmentid":"3925","name":"La Casa De La Habana Detroit","address":"1502 Randolph","zipcode":"48226"},{"establishmentid":"4217","name":"Comerica Park- Tiger Den/Beer Hall","address":"2100 Woodward Ave","zipcode":"48201"},{"establishmentid":"4845","name":"Comerica Park- New Amsterdam 416","address":"2100 Woodward Ave","zipcode":"48201"},{"establishmentid":"4218","name":"Comerica Park- Kitchens Upper/Lower","address":"2100 Woodward Ave","zipcode":"48201"},{"establishmentid":"5076","name":"Comerica Park- The Corner Tap Room","address":"2100 Woodward Ave","zipcode":"48201"},{"establishmentid":"4220","name":"Comerica Park- Champions Club","address":"2100 Woodward Ave ","zipcode":"48201"},{"establishmentid":"4339","name":"Comerica Park- Mobile Venues","address":"2100 Woodward Ave","zipcode":"48201"},{"establishmentid":"4219","name":"Comerica Park- Tiger Club #300","address":"2100 Woodward Ave","zipcode":"48201"},{"establishmentid":"4221","name":"Comerica Park- Press Box Lounge","address":"2100 Woodward Ave","zipcode":"48201"},{"establishmentid":"4224","name":"Comerica Park- Vending Commissaries","address":"2100 Woodward Ave","zipcode":"48201"},{"establishmentid":"4225","name":"Comerica Park- Concession Stands","address":"2100 Woodward Ave","zipcode":"48201"},{"establishmentid":"4222","name":"Comerica Park- Michigan Craft Beer","address":"2100 Woodward Ave","zipcode":"48201"},{"establishmentid":"4223","name":"Comerica Park- Upper deck Lounge Bar","address":"2100 Woodward Ave","zipcode":"48201"},{"establishmentid":"51622520","name":"Comerica Park- Pitchers Pub","address":"2100 Woodward Ave","zipcode":"48226"},{"establishmentid":"4317","name":"Colors","address":"311 E Grand River Ave","zipcode":"48226"},{"establishmentid":"2007","name":"Subway #44796","address":"1401 Beaubien St","zipcode":"48226"}],"inspectionsByEstablishmentidList":[{"inspectionid":"43688","inspectionDate":"2018-10-07T00:00:00","inspectionType":"Routine Inspection","inCompliance":"Yes","violationsByInspectionidList":[{"violationCode":"5-403.12","violationDescription":"Condensate drainage and other nonSEWAGE liquids and rainwater shall be drained from point of discharge to disposal according to LAW.\r\n","violationType":"Core","itemDescription":"Liquid waste(s)","subItem":"other nonsewage waste","problemDescription":"Not drained from point of discharge","subProblem":"","location":"ICE MACHINE","subLocation":"Drain","corrected":"Not required","daysToCorrect":"30.0","correctedDate":null,"correctionDescription":"Drain from point of discharge to proper disposal system."},{"violationCode":"2-402.11","violationDescription":"FOOD EMPLOYEES shall wear hair restraints such as hats, hair coverings or nets, beard restraints, and clothing that covers body hair, that are designed and worn to effectively keep their hair from contacting exposed FOOD; clean EQUIPMENT, UTENSILS, and LINENS; or unwrapped SINGLE-SERVICE or SINGLE-USE ARTICLES.","violationType":"Core","itemDescription":"Hair restraint","subItem":"hair/beard net","problemDescription":"Not worn on head/hair","subProblem":"","location":"EMPLOYEE(S)","subLocation":"Hair Restraints/Covering","corrected":"Yes","daysToCorrect":"30.0","correctedDate":"2018-10-07T00:00:00","correctionDescription":"Provide hat or hair net."}]},{"inspectionid":"40752","inspectionDate":"2017-11-12T00:00:00","inspectionType":"Routine Inspection","inCompliance":"Yes","violationsByInspectionidList":[{"violationCode":"4-501.114","violationDescription":"A chemical SANITIZER used in a SANITIZING solution for a manual or\r\nmechanical operation shall meet these limits or as otherwise approved: (P)\r\n\tChlorine        ppm           pH<10             pH<8\r\n\t\t      25              120 F              120 F\r\n\t\t      50              100 F              75 F\r\n\t\t     100              55 F               55 F\r\n                 Iodine           a concentration of between 12.5 and 25 ppm and minimum temp of 75 F and pH of 5 or less or meets manufacturer's specifications. (P)\r\n\r\n                Quats            minimum temperature of 75 F, hardness of 500 ppm or less and meet manufacturers use directions. (P)\r\n","violationType":"Priority","itemDescription":"Quaternary ammonia solution","subItem":"","problemDescription":"Below 100 ppm","subProblem":"","location":"THREE COMPARTMENT SINK","subLocation":"At the Sanitizer concentration","corrected":"Yes","daysToCorrect":"10.0","correctedDate":"2017-11-12T00:00:00","correctionDescription":"Provide correct concentration as stated above."},{"violationCode":"4-602.13","violationDescription":"NonFOOD-CONTACT SURFACES of EQUIPMENT shall be cleaned at a frequency necessary to preclude accumulation of soil residues.\r\n","violationType":"Core","itemDescription":"Nonfood contact surface(s)","subItem":"","problemDescription":"With accumulation of debris","subProblem":"","location":"WALK-IN FREEZER","subLocation":"","corrected":"Not required","daysToCorrect":"30.0","correctedDate":null,"correctionDescription":"Keep clean."},{"violationCode":"3-304.14","violationDescription":"(A)  Cloths that are in use for wiping FOOD spills on TABLEWARE shall be maintained dry and used for no other purpose. \r\n(B)  Cloths in-use for wiping counters and equipment shall be held between uses in   a chemical sanitizer solution, and laundered daily.\r\n(C)  Cloths in-use for wiping surfaces in contact with raw animal FOODS shall be      kept separate from cloths used for other purposes.\r\n(D)  Dry wiping cloths and the chemical sanitizing solutions shall be free of FOOD    debris or visible soil.\r\n(E)  Containers of chemical sanitizing solutions shall be stored off the floor and         used in a manner that prevents contamination of FOOD, EQUIPMENT, UTENSILS, LINENS, SINGLE-SERVICE, or SINGLE-USE ARTICLES.\r\n(E)  SINGLE-USE disposable sanitizer wipes shall be used in accordance lable               instructions.\r\n","violationType":"Core","itemDescription":"Sanitizer bucket","subItem":"","problemDescription":"Stored on floor","subProblem":"","location":"SANITIZER BUCKETS","subLocation":"","corrected":"Yes","daysToCorrect":"30.0","correctedDate":"2017-11-12T00:00:00","correctionDescription":"Store off of the floor"}]},{"inspectionid":"36819","inspectionDate":"2016-10-12T00:00:00","inspectionType":"Routine Inspection","inCompliance":"Yes","violationsByInspectionidList":[{"violationCode":"4-302.12","violationDescription":"(A) FOOD TEMPERATURE MEASURING DEVICES shall be provided and readily accessible for use in ensuring attainment and maintenance of FOOD temperatures as specified under Chapter 3. (Pf)   \r\n(B) A TEMPERATURE MEASURING DEVICE with a suitable small-diameter probe that is designed to measure the temperature of thin masses shall be provided and readily accessible to accurately measure the temperature in thin FOODS such as MEAT patties and FISH filets. (Pf)\r\n","violationType":"Foundation","itemDescription":"Food thermometer(s)","subItem":"probe","problemDescription":"Not provided","subProblem":"","location":"FACILITY","subLocation":"","corrected":"Yes","daysToCorrect":"10.0","correctedDate":"2016-10-12T00:00:00","correctionDescription":"Provide as required"}]}]}]}},"pageContext":{"eid":"4695"}}