{"data":{"site":{"pathPrefix":"/restaurant-inspections"},"postgres":{"establishment":[{"establishmentid":"51622518","name":"New Grandy's","address":"22001 Fenkell Ave","zipcode":"48223","owner":"Prene Mark LLC","licenseNumber":"db050818","licenseType":"Fixed Establishment","establishmentType":"Food Service Establishment","establishmentStatus":"Open","riskCategory":null,"reviewFrequencyDays":"180.0","coords":"-83.25687,42.40023","geojson":{"id":"51622518","type":"Feature","geometry":{"type":"Point","coordinates":[-83.256870587,42.4002344310001]},"properties":{"name":"New Grandy's","owner":"Prene Mark LLC","address":"22001 Fenkell Ave","zipcode":"48223","license_type":"Fixed Establishment","risk_category":null,"license_number":"db050818","establishmentid":"51622518","establishment_type":"Food Service Establishment","establishment_status":"Open","review_frequency_days":"180.0","most_recent_license_date":"5/8/2018"}},"nearbyList":[{"establishmentid":"51622753","name":"Fred's Fish & Chicken","address":"21740 Fenkell Street","zipcode":"48223"},{"establishmentid":"5269","name":"Habibi Fish & Chicken","address":"21740 Fenkell","zipcode":"48223"},{"establishmentid":"239","name":"Scotty Simpsons Fish and Chips","address":"22200 Fenkell Ave","zipcode":"48223"},{"establishmentid":"4036","name":"Ronald Brown Academy (Annex)","address":"11450 E Outer Drive","zipcode":"48224"},{"establishmentid":"1710","name":"St. Christine's Community Soup Kitchen","address":"22261 Fenkell Ave","zipcode":"48223"},{"establishmentid":"51622451","name":"F & R Eatery","address":"21451 Fenkell","zipcode":"48223"},{"establishmentid":"51622831","name":"Soula Culinary Ambition LLC","address":"22735 Fenkell","zipcode":"48214"},{"establishmentid":"5121","name":"Brightmoor Artisans Collective","address":"22735 Fenkell St","zipcode":"48223"},{"establishmentid":"51622718","name":"Green House Soups & Chili","address":"22735 Fenkell St","zipcode":"48223"},{"establishmentid":"1521","name":"Mt. Vernon Missionary Baptist Church","address":"15125 Burt Rd","zipcode":"48223"},{"establishmentid":"1331","name":"Restoration Towers","address":"16651 Lahser Rd","zipcode":"48219"},{"establishmentid":"5196","name":"Captain Jay's Fish & Chicken #113","address":"21431 Grand River","zipcode":"48219"},{"establishmentid":"4175","name":"Samuel Gompers Learning Academy PK-8","address":"14450 Burt Rd","zipcode":"48223"},{"establishmentid":"5424","name":"China House ","address":"21427 Grand River Ste 220","zipcode":"48219"},{"establishmentid":"5177","name":"Asian Corned Beef","address":"21559 Grand River Ave","zipcode":"48219"},{"establishmentid":"51622472","name":"Maty's Africa Resturant","address":"21611 Grand River","zipcode":"48219"},{"establishmentid":"676","name":"J's Cafe","address":"20853 Grand River Ave","zipcode":"48219"},{"establishmentid":"2218","name":"JMC Inc VII dba McDonalds","address":"21640 Grand River Ave","zipcode":"48219"},{"establishmentid":"5026","name":"Old Redford Kitchen & Cafe","address":"21733 W Grand River","zipcode":"48219"},{"establishmentid":"1592","name":"Christ the King Grade School","address":"16800 Trinity ","zipcode":"48219"}],"inspectionsByEstablishmentidList":[{"inspectionid":"43278","inspectionDate":"2018-08-28T00:00:00","inspectionType":"Routine Inspection","inCompliance":"Yes","violationsByInspectionidList":[{"violationCode":"3-501.14","violationDescription":"(A)  Cooked POTENTIALLY HAZARDOUS FOOD (TIME/TEMPERATURE CONTROL FOR SAFETY FOOD)  shall be cooled:\r\n         (1)  Within 2 hours, from 135ºF to 70ºF; and (P) \r\n         (2)  Within 4 hours, from 70ºF to 41ºF or less (P)\r\n(B)  POTENTIALLY HAZARDOUS FOOD (TIME/TEMPERATURE CONTROL FOR SAFETY FOOD)  prepared from ingredients at ambient temperature shall be cooled within 4 hours to 41F or less. (P)\r\n(C)  POTENTIALLY HAZARDOUS FOOD (TIME/TEMPERATURE CONTROL FOR SAFETY FOOD)  received in compliance with LAWS   allowing a temperature above 41ºF during shipment from the supplier shall be cooled within 4 hours to 41ºF or less. (P)\r\n","violationType":"Priority","itemDescription":"Cooked food(s) cooled","subItem":"","problemDescription":"From 70 degrees f to 41 degrees F for more than 4 hours","subProblem":"","location":"WALK-IN COOLER","subLocation":"","corrected":"Yes","daysToCorrect":"10.0","correctedDate":"2018-08-28T00:00:00","correctionDescription":"Discard"},{"violationCode":"3-305.11","violationDescription":"FOOD shall be protected from contamination by storing the FOOD:\r\n(1)     In a clean, dry location;\r\n(2)     Where it is not exposed to splash, dust, or other contamination; and\r\n(3)     At least 15 cm (6 inches) above the floor, unless otherwise approved.\r\n","violationType":"Core","itemDescription":"Food item(s) in storage","subItem":"","problemDescription":"Stored on floor or less than 6 inches above floor","subProblem":"","location":"WALK-IN COOLER","subLocation":"","corrected":"Not required","daysToCorrect":"30.0","correctedDate":null,"correctionDescription":"Store at least 6 inches above the floor."}]},{"inspectionid":"41459","inspectionDate":"2018-02-09T00:00:00","inspectionType":"Complaint","inCompliance":"Yes","violationsByInspectionidList":[{"violationCode":"2-301.14","violationDescription":"FOOD EMPLOYEES shall clean their hands and exposed portions of their arms as specified under § 2-301.12 immediately before engaging in FOOD preparation including working with exposed FOOD, clean EQUIPMENT and UTENSILS, and unwrapped SINGLE-SERVICE and SINGLE-USE ARTICLES (P) and:\r\n(A)     After touching bare human body parts other than clean hands and clean, exposed portions of arms; (P)\r\n(B)     After using the toilet room; (P)\r\n(C)     After caring for or handling SERVICE ANIMALS or aquatic animals as specified in ¶ 2-403.11(B); (P).\r\n(D)     Except as specified in ¶ 2-401.11(B), after coughing, sneezing, using a handkerchief or disposable tissue, using tobacco, eating, or drinking; (P)\r\n(E)     After handling soiled EQUIPMENT or UTENSILS; (P)\r\n(F)     During FOOD preparation, as often as necessary to remove soil and contamination and to prevent cross contamination when changing tasks; (P)\r\n(G)     When switching between working with raw FOOD and working with READY-TO-EAT FOOD; (P)\r\n(H)     Before donning gloves for working with FOOD; (P) and\r\n(I)      After engaging in other activities that contaminate the hands. (P)","violationType":"Priority","itemDescription":"Employee(s)","subItem":"","problemDescription":"Did not wash hands","subProblem":" after handling soiled equipment, surfaces, utensils","location":"EMPLOYEE(S)","subLocation":"","corrected":"Yes","daysToCorrect":"10.0","correctedDate":"2018-02-09T00:00:00","correctionDescription":"Hands shall be washed with hot water and soap for at least 20 seconds after contamination."}]},{"inspectionid":"38833","inspectionDate":"2017-05-11T00:00:00","inspectionType":"Routine Inspection","inCompliance":"Yes","violationsByInspectionidList":[{"violationCode":"4-501.114","violationDescription":"A chemical SANITIZER used in a SANITIZING solution for a manual or\r\nmechanical operation shall meet these limits or as otherwise approved: (P)\r\n\tChlorine        ppm           pH<10             pH<8\r\n\t\t      25              120 F              120 F\r\n\t\t      50              100 F              75 F\r\n\t\t     100              55 F               55 F\r\n                 Iodine           a concentration of between 12.5 and 25 ppm and minimum temp of 75 F and pH of 5 or less or meets manufacturer's specifications. (P)\r\n\r\n                Quats            minimum temperature of 75 F, hardness of 500 ppm or less and meet manufacturers use directions. (P)\r\n","violationType":"Priority","itemDescription":"Chlorine solution concentration","subItem":"","problemDescription":"Below 100 ppm","subProblem":"","location":"KITCHEN","subLocation":"","corrected":"Yes","daysToCorrect":"10.0","correctedDate":"2017-05-11T00:00:00","correctionDescription":"Provide correct concentration as stated above."},{"violationCode":"MFL289.2129","violationDescription":"Sec. 2129. (1) All of the following food establishments shall employ a minimum of 1 managerial employee who is currently certified under a personnel certification program accredited by the American national standards institute, utilizing the conference for food protection standards:  (a) A food service establishment that is not any of the following:    (i) Operating under a temporary food service establishment license.  (ii) A vending machine location.     (b) An extended retail food establishment.  (c) Operated within a retail grocery.  (2) An individual certified under subsection (1) shall be recognized with full faith and credit by the state and all local units of government throughout the state.  (3) The department may promulgate rules to do all of the following:  (a) Develop requirements for retail food establishments to follow when employing certified food safety managers or personnel.  (b) Set a reasonable date for compliance with the requirements under subdivision (a) taking into consideration existing local personnel certification requirements.  (c) Establish certification fees necessary to implement, maintain, and track certified individuals directly or by contract. The department may annually adjust the schedule of fees to provide that the fee charged is sufficient to cover the cost of the certification tracking program.  (d) Implement and enforce the requirements described in subdivision (a).    (4) The certification program developed by the American national standards institute, as it exists on April 1, 2008 , is incorporated by reference. The department may adopt updates to the certification program accreditation standards in subsection (1) by rule.     (5) This section does not prohibit any local legislative body from implementing a food handler program, an employee health certification program, or a manager certification program, if it is not in conflict with this section.","violationType":"Core","itemDescription":"Person-in-charge","subItem":"","problemDescription":null,"subProblem":"","location":"KITCHEN","subLocation":"","corrected":"Not required","daysToCorrect":"30.0","correctedDate":null,"correctionDescription":null}]}]}]}},"pageContext":{"eid":"51622518"}}