{"componentChunkName":"component---src-templates-establishment-page-js","path":"/establishment/51623307","result":{"data":{"site":{"pathPrefix":"/restaurant-inspections"},"postgres":{"establishment":[{"establishmentid":"51623307","name":"Griswold ","address":"719 Griswold ","zipcode":"48226","owner":"Robert Lawson ","licenseNumber":"2020KJ","licenseType":"Fixed Establishment","establishmentType":"Food Service Establishment","establishmentStatus":"Open","riskCategory":null,"reviewFrequencyDays":null,"coords":"-83.04799,42.33078","geojson":{"id":"51623307","type":"Feature","geometry":{"type":"Point","coordinates":[-83.047985679,42.330782806]},"properties":{"name":"Griswold ","owner":"Robert Lawson ","address":"719 Griswold ","zipcode":"48226","license_type":"Fixed Establishment","risk_category":null,"license_number":"2020KJ","establishmentid":"51623307","establishment_type":"Food Service Establishment","establishment_status":"Open","review_frequency_days":null,"most_recent_license_date":"2020-09-25"}},"nearbyList":[{"establishmentid":"5039","name":"Mikes Kabob Grille","address":"719 Griswold","zipcode":"48226"},{"establishmentid":"51623969","name":"Kwench Juice Cafe","address":"719 Griswold","zipcode":"48226"},{"establishmentid":"3767","name":"Birmingham Deli","address":"719 Griswold","zipcode":"48226"},{"establishmentid":"4866","name":"Dime Store","address":"719 Griswold","zipcode":"48226"},{"establishmentid":"51622853","name":"Kwench Juice Cafe'","address":"719 Griswold","zipcode":"48226"},{"establishmentid":"51623631","name":"Kwench Juice","address":"719 Griswold","zipcode":"48226"},{"establishmentid":"2192","name":"Rio Wraps of Griswold, LLC","address":"719 Griswold","zipcode":"48226"},{"establishmentid":"3512","name":"The Coffee Cafe","address":"719  Griswold St.","zipcode":"48226"},{"establishmentid":"2511","name":"Robinson Dairy Vending","address":"719 Griswold","zipcode":"48226"},{"establishmentid":"2584","name":"Black Gold Coffee","address":"719 Grisworld St.  Ste 110","zipcode":"48226"}],"inspectionsByEstablishmentidList":[{"inspectionid":"54382","inspectionDate":"2021-03-03T00:00:00","inspectionType":"Routine Inspection","inCompliance":"Yes","violationsByInspectionidList":[{"violationCode":"3-304.14","violationDescription":"(A)  Cloths that are in use for wiping FOOD spills on TABLEWARE shall be maintained dry and used for no other purpose. \n(B)  Cloths in-use for wiping counters and equipment shall be held between uses in   a chemical sanitizer solution, and laundered daily.\n(C)  Cloths in-use for wiping surfaces in contact with raw animal FOODS shall be      kept separate from cloths used for other purposes.\n(D)  Dry wiping cloths and the chemical sanitizing solutions shall be free of FOOD    debris or visible soil.\n(E)  Containers of chemical sanitizing solutions shall be stored off the floor and         used in a manner that prevents contamination of FOOD, EQUIPMENT, UTENSILS, LINENS, SINGLE-SERVICE, or SINGLE-USE ARTICLES.\n(E)  SINGLE-USE disposable sanitizer wipes shall be used in accordance lable               instructions.\n","violationType":"Core","itemDescription":"Wiping cloth(s)","subItem":"wet","problemDescription":"Stored in","subProblem":"Less than 100-200 ppm quaternary ammonia","location":"FRONT AREA","subLocation":"","corrected":"False","daysToCorrect":"30","correctedDate":null,"correctionDescription":null}]},{"inspectionid":"52912","inspectionDate":"2020-09-24T00:00:00","inspectionType":"Routine Inspection","inCompliance":"Yes","violationsByInspectionidList":[{"violationCode":"3-302.11","violationDescription":"(A) FOOD shall be protected from cross contamination by:  \n(1) Except as specified in (1)(c) below, separating raw animal FOODS during         storage, preparation, holding, and display from:\n(a) Raw READY-TO-EAT FOOD including other raw animal FOOD such as FISH for sushi or MOLLUSCAN SHELLFISH, or other raw READY-TO-EAT FOOD such as fruits and vegetables,(P) and\n(b) Cooked READY-TO-EAT FOOD; (P)\n(c) Frozen, commercially processed and packaged raw animal FOOD may be          stored or displayed with or above frozen, commercially processed and           packaged, ready-to-eat food.\n(2) Except when combined as ingredients, separating types of raw animal FOODS    from each other such as beef, FISH, lamb, pork, and POULTRY during storage,        preparation, holding, and display by:\n(a) Using separate EQUIPMENT for each type, (P) or\n(b) Arranging each type of FOOD in EQUIPMENT so that cross contamination of one type with another is prevented, (P) and\n(c) Preparing each type of FOOD at different times or in separate areas; (P)\n","violationType":"Priority","itemDescription":"Raw animal food(s)","subItem":"","problemDescription":"Stored over/next to","subProblem":"Raw ready-to-eat food(s) Fruit(s)","location":"BACK AREA","subLocation":"","corrected":"True","daysToCorrect":"10","correctedDate":"2020-09-25T00:00:00","correctionDescription":null}]},{"inspectionid":"52911","inspectionDate":"2020-09-23T00:00:00","inspectionType":"Routine/Partial","inCompliance":"Yes","violationsByInspectionidList":[]}]}],"maxInspectionDate":[{"inspectionDate":"2023-04-25T00:00:00"}]}},"pageContext":{"eid":"51623307"}},"staticQueryHashes":["3649515864","63159454"]}