{"data":{"site":{"pathPrefix":"/restaurant-inspections"},"postgres":{"establishment":[{"establishmentid":"3786","name":"Hartford Memorial Baptist Church","address":"18700 James Couzens","zipcode":"48235","owner":"Hartford Memorial Church","licenseNumber":"062768","licenseType":"Fixed Establishment","establishmentType":"Food Service Establishment","establishmentStatus":"Open","riskCategory":null,"reviewFrequencyDays":"365.0","coords":"-83.18336,42.42873","geojson":{"id":"3786","type":"Feature","geometry":{"type":"Point","coordinates":[-83.183359626,42.4287264230001]},"properties":{"name":"Hartford Memorial Baptist Church","owner":"Hartford Memorial Church","address":"18700 James Couzens","zipcode":"48235","license_type":"Fixed Establishment","risk_category":null,"license_number":"062768","establishmentid":"3786","establishment_type":"Food Service Establishment","establishment_status":"Open","review_frequency_days":"365.0","most_recent_license_date":"4/27/2018"}},"nearbyList":[{"establishmentid":"2666","name":"Kentucky Fried Chicken","address":"14201 W Seven Mile Rd","zipcode":"48235"},{"establishmentid":"1352","name":"McDonald's #7025","address":"14204 W Seven Mile Rd","zipcode":"48235"},{"establishmentid":"3558","name":"David Ellis Academy","address":"18977 Schaefer Hwy","zipcode":"48235"},{"establishmentid":"3988","name":"Precise Home Health Care Services, LLC","address":"18940 Schaefer Hwy","zipcode":"48235"},{"establishmentid":"280","name":"New China One","address":"13611 W Seven Mile Rd","zipcode":"48235"},{"establishmentid":"4761","name":"David Ellis Academy Kindergarten","address":"18962 Schaefer Hwy","zipcode":"48235"},{"establishmentid":"5179","name":"Original T & J Coney Island","address":"13600 W Seven Mile Rd","zipcode":"48235"},{"establishmentid":"4622","name":"Subway 51089","address":"19100 James Couzens","zipcode":"48235"},{"establishmentid":"5309","name":"Louisiana Creole Gumbo","address":"13505 W Seven Mile Ste A","zipcode":"48235"},{"establishmentid":"2664","name":"Wendy's Old Fashioned Hamburgers #8633","address":"14401 W Seven Mile Rd","zipcode":"48235"},{"establishmentid":"5221","name":"Captain Jay's #119","address":"14420 Seven Mile Rd W","zipcode":"48235"},{"establishmentid":"5341","name":"QuickFire Grille","address":"6001 W Outer Dr","zipcode":"48235"},{"establishmentid":"849","name":"Vernor Elementary","address":"13726 Pembroke","zipcode":"48235"},{"establishmentid":"4839","name":"Asian Corned Beef","address":"14820 Seven Mile Rd W","zipcode":"48235"},{"establishmentid":"4125","name":"University Yes Academy","address":"14669 Curtis","zipcode":"48235"},{"establishmentid":"5000","name":"Sinai Grace Hospital","address":"6071 W Outer Dr","zipcode":"48235"},{"establishmentid":"5292","name":"Subway","address":"6071 Outer Drive","zipcode":"48235"},{"establishmentid":"5033","name":"Great Lakes Coffee Beanery","address":"6071 W Outer Dr","zipcode":"48235"},{"establishmentid":"1703","name":"Westminster Church of Detroit","address":"17567 Hubbell St","zipcode":"48235"},{"establishmentid":"669","name":"Lotus Gardens","address":"12832 W Seven Mile Rd","zipcode":"48235"}],"inspectionsByEstablishmentidList":[{"inspectionid":"44549","inspectionDate":"2018-12-20T00:00:00","inspectionType":"Routine Inspection","inCompliance":"Yes","violationsByInspectionidList":[{"violationCode":"5-205.15","violationDescription":"A PLUMBING SYSTEM shall be:\r\n(A) Repaired according to LAW; (P) and\r\n(B) Maintained in good repair.\r\n","violationType":"Priority","itemDescription":"Plumbing system","subItem":"","problemDescription":"Not maintained","subProblem":"","location":"KITCHEN","subLocation":"","corrected":"No","daysToCorrect":"10.0","correctedDate":null,"correctionDescription":"Maintain in good repair"},{"violationCode":"MFL289.2129","violationDescription":"Sec. 2129. (1) All of the following food establishments shall employ a minimum of 1 managerial employee who is currently certified under a personnel certification program accredited by the American national standards institute, utilizing the conference for food protection standards:  (a) A food service establishment that is not any of the following:    (i) Operating under a temporary food service establishment license.  (ii) A vending machine location.     (b) An extended retail food establishment.  (c) Operated within a retail grocery.  (2) An individual certified under subsection (1) shall be recognized with full faith and credit by the state and all local units of government throughout the state.  (3) The department may promulgate rules to do all of the following:  (a) Develop requirements for retail food establishments to follow when employing certified food safety managers or personnel.  (b) Set a reasonable date for compliance with the requirements under subdivision (a) taking into consideration existing local personnel certification requirements.  (c) Establish certification fees necessary to implement, maintain, and track certified individuals directly or by contract. The department may annually adjust the schedule of fees to provide that the fee charged is sufficient to cover the cost of the certification tracking program.  (d) Implement and enforce the requirements described in subdivision (a).    (4) The certification program developed by the American national standards institute, as it exists on April 1, 2008 , is incorporated by reference. The department may adopt updates to the certification program accreditation standards in subsection (1) by rule.     (5) This section does not prohibit any local legislative body from implementing a food handler program, an employee health certification program, or a manager certification program, if it is not in conflict with this section.","violationType":"Core","itemDescription":"Person-in-charge","subItem":"","problemDescription":null,"subProblem":"","location":"KITCHEN","subLocation":"","corrected":"Not required","daysToCorrect":"30.0","correctedDate":null,"correctionDescription":null},{"violationCode":"4-602.12","violationDescription":"(A) The FOOD-CONTACT SURFACES of cooking and baking EQUIPMENT shall be cleaned at least every 24 hours. This section does not apply to hot oil cooking and filtering EQUIPMENT if it is cleaned as specified in Subparagraph 4-602.11(D)(6).   \r\n(B) The cavities and door seals of microwave ovens shall be cleaned at least every 24 hours by using the manufacturer's recommended cleaning procedure.","violationType":"Core","itemDescription":"Baking and cooking equipment","subItem":"","problemDescription":"Not cleaned","subProblem":"","location":"KITCHEN","subLocation":"","corrected":"Not required","daysToCorrect":"30.0","correctedDate":null,"correctionDescription":"Clean as required above."}]},{"inspectionid":"40254","inspectionDate":"2017-10-05T00:00:00","inspectionType":"Routine Inspection","inCompliance":"Yes","violationsByInspectionidList":[]}]}]}},"pageContext":{"eid":"3786"}}