{"data":{"postgres":{"establishment":[{"establishmentid":"51622651","name":"Views Bar and Grill","address":"24200 Grand River","zipcode":"48219","owner":"Darius Statum","licenseNumber":"221923","licenseType":"Fixed Establishment","establishmentType":"Food Service Establishment","establishmentStatus":null,"riskCategory":null,"reviewFrequencyDays":"180.0","coords":"-83.27862,42.42534","geojson":{"id":"51622651","type":"Feature","geometry":{"type":"Point","coordinates":[-83.278616976,42.4253435640001]},"properties":{"name":"Views Bar and Grill","owner":"Darius Statum","address":"24200 Grand River","zipcode":"48219","license_type":"Fixed Establishment","risk_category":null,"license_number":"221923","establishmentid":"51622651","establishment_type":"Food Service Establishment","establishment_status":null,"review_frequency_days":"180.0","most_recent_license_date":"4/30/2018"}},"nearbyList":[{"establishmentid":"5231","name":"Detroit Fresh Fish & Seafood Co. Inc.","address":"19001 Telegraph Rd","zipcode":"48219"},{"establishmentid":"3885","name":"Ray's Pizza & Chicken","address":"19005 Telegraph Rd","zipcode":"48219"},{"establishmentid":"4630","name":"Just Martinis Bar and Grill (DBA Demi's)","address":"24201 W Seven Mile Rd","zipcode":"48219"},{"establishmentid":"929","name":"City Limits Bar and Grill","address":"24501 Grand River Ave","zipcode":"48219"},{"establishmentid":"1575","name":"China 1 Chinese Restaurant","address":"19129 Telegraph Rd","zipcode":"48219"},{"establishmentid":"1542","name":"Subway #6309","address":"19127 Telegraph Rd","zipcode":"48219"},{"establishmentid":"4318","name":"Nu Wave Fish & Chicken","address":"19125 Telegraph Rd","zipcode":"48219"},{"establishmentid":"4281","name":"Tai Ho","address":"23720 W Seven Mile Rd","zipcode":"48219"},{"establishmentid":"353","name":"Aurora Coney Island","address":"23671 W Seven Mile Rd","zipcode":"48219"},{"establishmentid":"2342","name":"Bookie's Ham & Soul ","address":"23636 Grand River Ave","zipcode":"48219"},{"establishmentid":"751","name":"Dairy Queen of Redford","address":"24671 Grand River Ave","zipcode":"48219"},{"establishmentid":"2328","name":"DeAngelo's Soul Food Deli & More","address":"17425 Telegraph Rd","zipcode":"48219"},{"establishmentid":"1875","name":"Greater Grace Temple","address":"23500 W Seven Mile Rd","zipcode":"48219"},{"establishmentid":"5115","name":"Farmer Kay Market","address":"24311 W McNichols Rd","zipcode":"48219"},{"establishmentid":"327","name":"Toy Box II Bar and Grill, Inc.","address":"24351 W McNichols Rd","zipcode":"48219"},{"establishmentid":"1610","name":"Sun China Restaurant","address":"16901 Telegraph Rd","zipcode":"48219"},{"establishmentid":"2597","name":"Charles Wright Acad.of Arts and Sciences","address":"19299 Berg Rd","zipcode":"48219"},{"establishmentid":"1086","name":"Rocky's Grill Coney Island","address":"24611 W McNichols Rd","zipcode":"48219"},{"establishmentid":"328","name":"Duffy's Den","address":"24800 W McNichols Rd","zipcode":"48219"},{"establishmentid":"4289","name":"Old Redford Academy Middle School","address":"22122 W McNichols Rd","zipcode":"48219"}],"inspectionsByEstablishmentidList":[{"inspectionid":"44497","inspectionDate":"2018-12-14T00:00:00","inspectionType":"Routine Inspection","inCompliance":"Yes","violationsByInspectionidList":[{"violationCode":"3-302.11","violationDescription":"(A) FOOD shall be protected from cross contamination by:  \r\n(1) Except as specified in (1)(c) below, separating raw animal FOODS during         storage, preparation, holding, and display from:\r\n(a) Raw READY-TO-EAT FOOD including other raw animal FOOD such as FISH for sushi or MOLLUSCAN SHELLFISH, or other raw READY-TO-EAT FOOD such as fruits and vegetables,(P) and\r\n(b) Cooked READY-TO-EAT FOOD; (P)\r\n(c) Frozen, commercially processed and packaged raw animal FOOD may be          stored or displayed with or above frozen, commercially processed and           packaged, ready-to-eat food.\r\n(2) Except when combined as ingredients, separating types of raw animal FOODS    from each other such as beef, FISH, lamb, pork, and POULTRY during storage,        preparation, holding, and display by:\r\n(a) Using separate EQUIPMENT for each type, (P) or\r\n(b) Arranging each type of FOOD in EQUIPMENT so that cross contamination of one type with another is prevented, (P) and\r\n(c) Preparing each type of FOOD at different times or in separate areas; (P)\r\n","violationType":"Priority","itemDescription":"Raw animal food(s)","subItem":"","problemDescription":"Stored over/next to","subProblem":"Ready-to-eat food(s)","location":"COOLER","subLocation":"","corrected":"Yes","daysToCorrect":"10.0","correctedDate":"2018-12-14T00:00:00","correctionDescription":"Store raw animal foods below and away from foods needing little or no further prep."}]},{"inspectionid":"42173","inspectionDate":"2018-05-03T00:00:00","inspectionType":"Routine Inspection","inCompliance":"No","violationsByInspectionidList":[{"violationCode":"5-103.12","violationDescription":"Water under pressure shall be provided to all fixtures, EQUIPMENT, and nonFOOD EQUIPMENT that are required to use water unless otherwise approved. (Pf)\r\n","violationType":"Foundation","itemDescription":"Water under pressure","subItem":"","problemDescription":"Insufficient to meet demands","subProblem":"","location":"BAR","subLocation":"","corrected":"No","daysToCorrect":"10.0","correctedDate":null,"correctionDescription":"Provide sufficient water pressure to meet demand of use."}]},{"inspectionid":"40869","inspectionDate":"2017-11-17T00:00:00","inspectionType":"Preopening/Other","inCompliance":"Yes","violationsByInspectionidList":[]}]}]}},"pageContext":{"eid":"51622651"}}