{"data":{"site":{"pathPrefix":"/restaurant-inspections"},"postgres":{"establishment":[{"establishmentid":"51622760","name":"Lost River","address":"15421 Mack Ave","zipcode":"48224","owner":"Rum Capital LLC","licenseNumber":"229220","licenseType":"Fixed Establishment","establishmentType":"Food Service Establishment","establishmentStatus":"Open","riskCategory":null,"reviewFrequencyDays":"365.0","coords":"-82.94233,42.38848","geojson":{"id":"51622760","type":"Feature","geometry":{"type":"Point","coordinates":[-82.942332315,42.3884803280001]},"properties":{"name":"Lost River","owner":"Rum Capital LLC","address":"15421 Mack Ave","zipcode":"48224","license_type":"Fixed Establishment","risk_category":null,"license_number":"229220","establishmentid":"51622760","establishment_type":"Food Service Establishment","establishment_status":"Open","review_frequency_days":"365.0","most_recent_license_date":"3/13/2019"}},"nearbyList":[{"establishmentid":"5150","name":"Memories","address":"15421 Mack Ave","zipcode":"48224"},{"establishmentid":"4868","name":"D C's Alabama Style Chicken Fish & Ribs","address":"15401 Mack Ave","zipcode":"48224"},{"establishmentid":"51622630","name":"Veggininies Paradise Cafe","address":"15439 Mack Ave","zipcode":"48224"},{"establishmentid":"2002","name":"East Bar-Detroit","address":"15045 Mack Ave","zipcode":"48224"},{"establishmentid":"5408","name":"The French Cow (Crepes Shop)","address":"1349 Beaconsfield Ave","zipcode":"4823"},{"establishmentid":"1684","name":"Ye Olde Tap Room","address":"14915 Charlevoix","zipcode":"48215"},{"establishmentid":"846","name":"Clark Elementary School","address":"15755 Bremen Ave","zipcode":"48224"},{"establishmentid":"5381","name":"Mack Coney Island","address":"14845 Mack Ave","zipcode":"48215"},{"establishmentid":"51622848","name":"Foodelicious","address":"14845 Mack Ave","zipcode":"48215"},{"establishmentid":"4126","name":"My Dad's Bar","address":"14911 Kercheval Ave","zipcode":"48215"}],"inspectionsByEstablishmentidList":[{"inspectionid":"44163","inspectionDate":"2018-11-21T00:00:00","inspectionType":"Routine Inspection","inCompliance":"Yes","violationsByInspectionidList":[{"violationCode":"6-501.12","violationDescription":"(A) PHYSICAL FACILITIES shall be cleaned as often as necessary to keep them clean.\r\n(B) Except spill cleanup, cleaning shall be done during periods when the least amount of FOOD is exposed such as after closing. ","violationType":"Core","itemDescription":"Physical facilities/structures","subItem":"floors","problemDescription":"With accumulation of debris","subProblem":"","location":"BASEMENT","subLocation":"On the floor Debris","corrected":"Not required","daysToCorrect":"30.0","correctedDate":null,"correctionDescription":"Keep clean."}]},{"inspectionid":"42388","inspectionDate":"2018-05-30T00:00:00","inspectionType":"Routine Inspection","inCompliance":"Yes","violationsByInspectionidList":[{"violationCode":"4-302.14","violationDescription":"A test kit or other device that accurately measures the concentration in mg/L of SANITIZING solutions shall be provided. (Pf)\r\n","violationType":"Foundation","itemDescription":"Sanitizer test kit","subItem":"","problemDescription":"Not provided","subProblem":"","location":"BAR","subLocation":"No Test strips","corrected":"Yes","daysToCorrect":"10.0","correctedDate":"2018-05-30T00:00:00","correctionDescription":"Provide as required"},{"violationCode":"6-501.12","violationDescription":"(A) PHYSICAL FACILITIES shall be cleaned as often as necessary to keep them clean.\r\n(B) Except spill cleanup, cleaning shall be done during periods when the least amount of FOOD is exposed such as after closing. ","violationType":"Core","itemDescription":"Physical facilities/structures","subItem":"floors","problemDescription":"With accumulation of debris","subProblem":"","location":"BASEMENT","subLocation":"Under the Steps","corrected":"Not required","daysToCorrect":"30.0","correctedDate":null,"correctionDescription":"Keep clean."},{"violationCode":"6-202.15","violationDescription":"Outer openings of a FOOD ESTABLISHMENT shall be protected against the entry of insects and rodents. Unless otherwise allowed by law. \r\n","violationType":"Core","itemDescription":"Outer opening(s)","subItem":"holes or gaps along","problemDescription":"Not sealed to prevent pest entry","subProblem":"","location":"BAR","subLocation":"At the Door sweep","corrected":"Not required","daysToCorrect":"30.0","correctedDate":null,"correctionDescription":"Discard"},{"violationCode":"6-501.11","violationDescription":"PHYSICAL FACILITIES shall be maintained in good repair.\r\n","violationType":"Core","itemDescription":"Physical facilities","subItem":"Floor(s)","problemDescription":"In poor repair","subProblem":"Broken","location":"BASEMENT","subLocation":"At the Steps","corrected":"Not required","daysToCorrect":"30.0","correctedDate":null,"correctionDescription":"Discard"}]}]}],"maxInspectionDate":[{"inspectionDate":"2019-04-30T00:00:00"}]}},"pageContext":{"eid":"51622760"}}