{"data":{"postgres":{"establishment":[{"establishmentid":"451","name":"Weston Preparatory Academy","address":"22930 Chippewa","zipcode":"48219","owner":"Weston Technical Academy","licenseNumber":"034235","licenseType":"Fixed Establishment","establishmentType":"Non-Public School","establishmentStatus":"Open","riskCategory":null,"reviewFrequencyDays":"210.0","coords":"-83.27005,42.43911","geojson":{"id":"451","type":"Feature","geometry":{"type":"Point","coordinates":[-83.270049805,42.43911044]},"properties":{"name":"Weston Preparatory Academy","owner":"Weston Technical Academy","address":"22930 Chippewa","zipcode":"48219","license_type":"Fixed Establishment","risk_category":null,"license_number":"034235","establishmentid":"451","establishment_type":"Non-Public School","establishment_status":"Open","review_frequency_days":"210.0","most_recent_license_date":"4/30/2018"}},"nearbyList":[{"establishmentid":"869","name":"Ludington Magnet Middle School (5-8)","address":"19501 Berg Rd","zipcode":"48219"},{"establishmentid":"3823","name":"Tasty Dawg","address":"22623 Frisbee St","zipcode":"48219"},{"establishmentid":"1504","name":"Omega Coney Island ","address":"22501 W Eight Mile Rd","zipcode":"48219"},{"establishmentid":"2597","name":"Charles Wright Acad.of Arts and Sciences","address":"19299 Berg Rd","zipcode":"48219"},{"establishmentid":"1169","name":"Madison Carver Academy","address":"19900 McIntyre ","zipcode":"48219"},{"establishmentid":"754","name":"Northland Roller Rink","address":"22311 W Eight Mile Rd","zipcode":"48219"},{"establishmentid":"1875","name":"Greater Grace Temple","address":"23500 W Seven Mile Rd","zipcode":"48219"},{"establishmentid":"724","name":"McDonald's #24733","address":"22021 W Eight Mile Rd","zipcode":"48219"},{"establishmentid":"4281","name":"Tai Ho","address":"23720 W Seven Mile Rd","zipcode":"48219"},{"establishmentid":"353","name":"Aurora Coney Island","address":"23671 W Seven Mile Rd","zipcode":"48219"},{"establishmentid":"1542","name":"Subway #6309","address":"19127 Telegraph Rd","zipcode":"48219"},{"establishmentid":"4318","name":"Nu Wave Fish & Chicken","address":"19125 Telegraph Rd","zipcode":"48219"},{"establishmentid":"1575","name":"China 1 Chinese Restaurant","address":"19129 Telegraph Rd","zipcode":"48219"},{"establishmentid":"2722","name":"Nu Wave Fish & Chicken","address":"21729 W Eight Mile Rd","zipcode":"48219"},{"establishmentid":"518","name":"Friends Cocktail Lounge","address":"21633 W Eight Mile Rd","zipcode":"48219"},{"establishmentid":"4630","name":"Just Martinis Bar and Grill (DBA Demi's)","address":"24201 W Seven Mile Rd","zipcode":"48219"},{"establishmentid":"3885","name":"Ray's Pizza & Chicken","address":"19005 Telegraph Rd","zipcode":"48219"},{"establishmentid":"5231","name":"Detroit Fresh Fish & Seafood Co. Inc.","address":"19001 Telegraph Rd","zipcode":"48219"},{"establishmentid":"4267","name":"Opyum Lounge","address":"24587 W Eight Mile Rd","zipcode":"48219"},{"establishmentid":"51622605","name":"Asian Corn Beef","address":"21639 W Eight Mile Rd","zipcode":"48219"}],"inspectionsByEstablishmentidList":[{"inspectionid":"43642","inspectionDate":"2018-10-04T00:00:00","inspectionType":"Routine Inspection","inCompliance":"Yes","violationsByInspectionidList":[{"violationCode":"5-202.12","violationDescription":"(A) A handwashing sink shall be equipped to provide water at a temperature of at least 38°C (100°F) through a mixing valve or combination faucet. (Pf)  \r\n(B) A steam mixing valve may not be used at a handwashing sink.  \r\n(C) A self-closing, slow-closing, or metering faucet shall provide a flow of water for at least 15 seconds without the need to reactivate the faucet.   \r\n(D) An automatic handwashing facility shall be installed in accordance with manufacturer's instructions.\r\n","violationType":"Foundation","itemDescription":"Handwashing facility","subItem":"front","problemDescription":"Lack of hot water","subProblem":"","location":"HANDSINK(S)","subLocation":"","corrected":"Yes","daysToCorrect":"10.0","correctedDate":"2018-10-04T00:00:00","correctionDescription":"Provide hot water."},{"violationCode":"5-205.15","violationDescription":"A PLUMBING SYSTEM shall be:\r\n(A) Repaired according to LAW; (P) and\r\n(B) Maintained in good repair.\r\n","violationType":"Core","itemDescription":"Plumbing system","subItem":"water line(s)","problemDescription":"Not maintained","subProblem":"","location":"HANDSINK(S)","subLocation":"","corrected":"Yes","daysToCorrect":"10.0","correctedDate":"2018-10-04T00:00:00","correctionDescription":"Maintain in good repair"}]},{"inspectionid":"41882","inspectionDate":"2018-04-12T00:00:00","inspectionType":"Routine Inspection","inCompliance":"No","violationsByInspectionidList":[{"violationCode":"6-301.12","violationDescription":"Each HANDWASHING SINK or group of adjacent HANDWASHING SINKS shall be provided with:\r\n(A) Individual, disposable towels; (Pf)\r\n(B) A continuous towel system that supplies the user with a clean towel;(Pf) or \r\n(C) A heated-air hand drying device.(Pf)\r\n(D) A hand drying device that employs an air-knife system that delivers high velocity pressurized air at ambient temperatures.(Pf)\r\n","violationType":"Foundation","itemDescription":"Sanitary hand drying provisions","subItem":"disposable, paper towels","problemDescription":"Not provided","subProblem":"At hand sink","location":"HANDSINK(S)","subLocation":"","corrected":"Yes","daysToCorrect":"10.0","correctedDate":"2018-04-12T00:00:00","correctionDescription":"Provide"},{"violationCode":"7-102.11","violationDescription":"Working containers used for storing POISONOUS OR TOXIC MATERIALS such as cleaners and SANITIZERS taken from bulk supplies shall be clearly and individually identified with the common name of the material. (Pf)\r\n","violationType":"Foundation","itemDescription":"Working containers-toxics","subItem":"sanitizer","problemDescription":"Not labeled as to content","subProblem":"","location":"HANDSINK(S)","subLocation":"","corrected":"No","daysToCorrect":"10.0","correctedDate":null,"correctionDescription":"Label containers with common name."}]},{"inspectionid":"39946","inspectionDate":"2017-09-13T00:00:00","inspectionType":"Routine Inspection","inCompliance":"No","violationsByInspectionidList":[{"violationCode":"6-301.11","violationDescription":"Each HANDWASHING SINK or group of 2 adjacent HANDWASHING SINKS shall be provided with a supply of hand cleaning liquid, powder, or bar soap. (Pf)\r\n","violationType":"Foundation","itemDescription":"Soap","subItem":"at handsink line","problemDescription":"Not provided","subProblem":"","location":"KITCHEN","subLocation":"","corrected":"No","daysToCorrect":"10.0","correctedDate":null,"correctionDescription":"Provide."}]},{"inspectionid":"38816","inspectionDate":"2017-05-17T00:00:00","inspectionType":"Routine Inspection","inCompliance":"Yes","violationsByInspectionidList":[]},{"inspectionid":"36698","inspectionDate":"2016-10-10T00:00:00","inspectionType":"Routine Inspection","inCompliance":"Yes","violationsByInspectionidList":[]}]}]}},"pageContext":{"eid":"451"}}