{"componentChunkName":"component---src-templates-establishment-page-js","path":"/establishment/3614","result":{"data":{"site":{"pathPrefix":"/restaurant-inspections"},"postgres":{"establishment":[{"establishmentid":"3614","name":"Second Ebeneezer Baptist Church","address":"14601 Dequindre","zipcode":"48212","owner":"Edgar Vann Ministries","licenseNumber":"059954","licenseType":"Fixed Establishment","establishmentType":"Food Service Establishment","establishmentStatus":"Open","riskCategory":"Medium","reviewFrequencyDays":"335","coords":"-83.08401,42.41658","geojson":{"id":"3614","type":"Feature","geometry":{"type":"Point","coordinates":[-83.084007224,42.416579698]},"properties":{"name":"Second Ebeneezer Baptist Church","owner":"Edgar Vann Ministries","address":"14601 Dequindre","zipcode":"48212","license_type":"Fixed Establishment","risk_category":"Medium","license_number":"059954","establishmentid":"3614","establishment_type":"Food Service Establishment","establishment_status":"Open","review_frequency_days":"335","most_recent_license_date":"2022-04-26"}},"nearbyList":[{"establishmentid":"51623082","name":"L A Coney Island","address":"1700 E. McNichols","zipcode":"48203"},{"establishmentid":"4074","name":"LA Coney Island Restaurant","address":"1700  E. McNichols","zipcode":"48203"},{"establishmentid":"1045","name":"GJon's Corporation","address":"1700 McNichols Ave. E.","zipcode":"48203"},{"establishmentid":"2199","name":"Total Vending","address":"14620 Dequindre","zipcode":"48212"},{"establishmentid":"1324","name":"Kentucky Fried Chicken H730216/Taco Bell","address":"1850 McNichols E.","zipcode":"48203"},{"establishmentid":"1827","name":"Continental Canteen","address":"14255 Dequindre","zipcode":"48212"},{"establishmentid":"458","name":"Pages Palace","address":"17334 Dequindre","zipcode":"48234"},{"establishmentid":"1725","name":"Willie C. Collins Rental Hall","address":"2001 Davison E.","zipcode":"48212"},{"establishmentid":"1360","name":"Motor City Coney Island","address":"831 McNichols E.","zipcode":"48203"},{"establishmentid":"1481","name":"George's & Joe's Coney Island","address":"2801 McNichols E.","zipcode":"48212"}],"inspectionsByEstablishmentidList":[{"inspectionid":"55990","inspectionDate":"2021-09-13T00:00:00","inspectionType":"Routine Inspection","inCompliance":"Yes","violationsByInspectionidList":[]},{"inspectionid":"55850","inspectionDate":"2020-09-14T00:00:00","inspectionType":"Routine Inspection","inCompliance":"Yes","violationsByInspectionidList":[]},{"inspectionid":"49204","inspectionDate":"2019-09-22T00:00:00","inspectionType":"Routine Inspection","inCompliance":"Yes","violationsByInspectionidList":[]},{"inspectionid":"43253","inspectionDate":"2018-08-23T00:00:00","inspectionType":"Routine Inspection","inCompliance":"Yes","violationsByInspectionidList":[{"violationCode":"3-501.18","violationDescription":"A FOOD specified in ¶ 3-501.17(A) or (B) shall be discarded if it:  \n    (1) Exceeds the temperature and time combination specified in ¶ 3-501.17(A),              except time that the product is frozen; (P)\n    (2) Is in a container or PACKAGE that does not bear a date or day; (P) or\n    (3) Is appropriately marked with a date or day that exceeds a temperature and              time combination as specified in ¶ 3-501.17(A). (P)  \n\n","violationType":"Priority","itemDescription":"Ready to eat, potentially hazardous food(s)","subItem":"","problemDescription":"Beyond consume by date","subProblem":"","location":"COOLER","subLocation":"","corrected":"True","daysToCorrect":"10","correctedDate":"2018-08-24T00:00:00","correctionDescription":"Dispose of food item."},{"violationCode":"3-501.17","violationDescription":"(A)  READY-TO-EAT, POTENTIALLY HAZARDOUS FOOD (TIME/TEMPERATURE CONTROL FOR SAFETY FOOD)  prepared and held refrigerated for more than 24 hours in a FOOD ESTABLISHMENT  shall be clearly marked at the time of preparation to indicate the date or day by which the FOOD shall be consumed. (Pf)\n(B)  A container of refrigerated, commercially prepared READY-TO-EAT POTENTIALLY HAZARDOUS FOOD (TIME/TEMPERATURE CONTROL FOR SAFETY FOOD)  shall be clearly marked, at the time the original container is opened in a FOOD ESTABLISHMENT, to indicate the date or day by which the FOOD shall be consumed. (Pf)\n\nA date marking system that does not exceed 7 days, including date of preparation, or opening is to be used. (Pf)\n","violationType":"Foundation","itemDescription":"Commercially processed ready to eat potentially hazardous food(s)","subItem":"","problemDescription":"Without date of consumption marking","subProblem":"","location":"COOLER","subLocation":"","corrected":"True","daysToCorrect":"10","correctedDate":"2018-08-24T00:00:00","correctionDescription":"Datemark with a discard date of 7 days or less."}]},{"inspectionid":"39402","inspectionDate":"2017-07-11T00:00:00","inspectionType":"Routine Inspection","inCompliance":"Yes","violationsByInspectionidList":[]}]}],"maxInspectionDate":[{"inspectionDate":"2023-04-25T00:00:00"}]}},"pageContext":{"eid":"3614"}},"staticQueryHashes":["3649515864","63159454"]}