{"data":{"site":{"pathPrefix":"/restaurant-inspections"},"postgres":{"establishment":[{"establishmentid":"4364","name":"Bleu Detroit","address":"1540 Woodward Ave","zipcode":"48226","owner":"Bleu Detroit,LLC","licenseNumber":"072056","licenseType":"Fixed Establishment","establishmentType":"Food Service Establishment","establishmentStatus":"Open","riskCategory":"Low","reviewFrequencyDays":"365","coords":"-83.04946,42.33566","geojson":{"id":"4364","type":"Feature","geometry":{"type":"Point","coordinates":[-83.049460496,42.335661008]},"properties":{"name":"Bleu Detroit","owner":"Bleu Detroit,LLC","address":"1540 Woodward Ave","zipcode":"48226","license_type":"Fixed Establishment","risk_category":"Low","license_number":"072056","establishmentid":"4364","establishment_type":"Food Service Establishment","establishment_status":"Open","review_frequency_days":"365","most_recent_license_date":"4/30/2019"}},"nearbyList":[{"establishmentid":"3706","name":"Angelina Italian Bistro","address":"1565 Broadway","zipcode":"48226"},{"establishmentid":"4694","name":"Madison Building ","address":"1555 Broadway St","zipcode":"48226"},{"establishmentid":"5152","name":"Ashe Supply Co.","address":"1555 Broadway St","zipcode":"48226"},{"establishmentid":"51623074","name":"Buddy's Pizza","address":"1555 Broadway St","zipcode":"48226"},{"establishmentid":"2614","name":"Detroit Beer Co.","address":"1529 Broadway St","zipcode":"48226"},{"establishmentid":"4843","name":"Wright & Co.","address":"1500 Woodward Ave","zipcode":"48226"},{"establishmentid":"51622965","name":"The Monarch Club","address":"33 John R","zipcode":"48226"},{"establishmentid":"51622877","name":"Element Detroit at the Metro- Banquets","address":"33 John R Ave","zipcode":"48226"},{"establishmentid":"51622878","name":"Element Detroit at the Metropolitan 1A","address":"33 John R Ave","zipcode":"48226"},{"establishmentid":"4373","name":"Small Plates LLC","address":"1521 Broadway St","zipcode":"48226"}],"inspectionsByEstablishmentidList":[{"inspectionid":"42207","inspectionDate":"2018-05-03T00:00:00","inspectionType":"Routine Inspection","inCompliance":"Yes","violationsByInspectionidList":[{"violationCode":"4-302.14","violationDescription":"A test kit or other device that accurately measures the concentration in mg/L of SANITIZING solutions shall be provided. (Pf)\r\n","violationType":"Foundation","itemDescription":"Sanitizer test kit","subItem":"quaternary ammonia","problemDescription":"Not provided","subProblem":"","location":"THREE COMPARTMENT SINK","subLocation":"At the Test strips","corrected":"Yes","daysToCorrect":"10","correctedDate":"2018-05-15T00:00:00","correctionDescription":"Provide as required"},{"violationCode":"4-602.11","violationDescription":"(A) Equipment FOOD-CONTACT SURFACES and UTENSILS shall be cleaned:     \r\n  (1) Except as specified in ¶ (B) of this section, before each use with a different   type of raw animal FOOD such as beef, FISH, lamb, pork, or POULTRY; (P)   \r\n  (2) Each time there is a change from working with raw FOODS to working with   READY-TO-EAT FOODS; (P)   \r\n  (3) Between uses with raw fruits and vegetables and with POTENTIALLY   HAZARDOUS FOOD (TIME/TEMPERATURE CONTROL FOR SAFETY FOOD);   (P)   \r\n  (4) Before using or storing a FOOD TEMPERATURE MEASURING   DEVICE; (P) and   \r\n  (5) At any time during the operation when contamination may have occurred. (P)\r\n(B) Subparagraph (A)(1) of this section does not apply if the FOOD-CONTACT SURFACE or UTENSIL is in contact with a succession of different raw animal FOODS each requiring a higher cooking temperature as specified under § 3-401.11 than the previous FOOD, such as preparing raw FISH followed by cutting raw poultry on the same cutting board.   \r\n(C) Except as specified in ¶ (D) of this section, if used with POTENTIALLY HAZARDOUS FOOD (TIME/TEMPERATURE CONTROL FOR SAFETY FOOD), EQUIPMENT FOOD-CONTACT SURFACES and UTENSILS shall be cleaned throughout the day at least every 4 hours. (P)   \r\n(D) Except when dry cleaning methods are used as specified under § 4-603.11, surfaces of UTENSILS and EQUIPMENT contacting FOOD that is not POTENTIALLY HAZARDOUS (TIME/TEMPERATURE CONTROL FOR SAFETY FOOD) shall be cleaned:     \r\n  (1)   At any time when contamination may have occurred;\r\n  (2)   At least every 24 hours for iced tea dispensers and CONSUMER self-service UTENSILS such as tongs, scoops, or ladles;\r\n  (3) Before restocking CONSUMER self-service EQUIPMENT and UTENSILS such as condiment dispensers and display containers; and\r\n  (4) In EQUIPMENT such as ice bins and BEVERAGE dispensing nozzles and   enclosed components of EQUIPMENT such as ice makers, cooking oil storage   tanks and distribution lines, BEVERAGE and syrup dispensing lines or tubes,   coffee bean grinders, and water vending EQUIPMENT:\r\n     (a) At a frequency specified by the manufacturer, or\r\n     (b) Absent manufacturer specifications, at a frequency necessary to preclude      accumulation of soil or mold.","violationType":"Core","itemDescription":"Food-contact surface(s) used for nonpotentially hazardous food(s)","subItem":"beverage dispensing nozzles","problemDescription":"Not cleaned when contaminated","subProblem":"","location":"BAR","subLocation":"At the Pop gun holsters","corrected":"Not required","daysToCorrect":"10","correctedDate":null,"correctionDescription":"Clean properly when contaminated."}]},{"inspectionid":"38562","inspectionDate":"2017-04-27T00:00:00","inspectionType":"Routine Inspection","inCompliance":"Yes","violationsByInspectionidList":[]}]}],"maxInspectionDate":[{"inspectionDate":"2020-10-30T00:00:00"}]}},"pageContext":{"eid":"4364"}}