{"data":{"site":{"pathPrefix":"/restaurant-inspections"},"postgres":{"establishment":[{"establishmentid":"51622735","name":"The Custard Hut","address":"18435 Plymouth Rd","zipcode":"48228","owner":"Michael Saad","licenseNumber":"229276","licenseType":"Fixed Establishment","establishmentType":"Food Service Establishment","establishmentStatus":"Seasonal","riskCategory":"High","reviewFrequencyDays":"180.0","coords":"-83.22088,42.37212","geojson":{"id":"51622735","type":"Feature","geometry":{"type":"Point","coordinates":[-83.220882155,42.372117458]},"properties":{"name":"The Custard Hut","owner":"Michael Saad","address":"18435 Plymouth Rd","zipcode":"48228","license_type":"Fixed Establishment","risk_category":"High","license_number":"229276","establishmentid":"51622735","establishment_type":"Food Service Establishment","establishment_status":"Seasonal","review_frequency_days":"180.0","most_recent_license_date":null}},"nearbyList":[{"establishmentid":"455","name":"Starters Lounge","address":"18426 Plymouth Rd","zipcode":"48228"},{"establishmentid":"4416","name":"Detroit Innovation Academy","address":"18211 Plymouth Road","zipcode":"48228"},{"establishmentid":"4986","name":"Sterling's Old Style BBQ","address":"18241 Plymouth Rd","zipcode":"48228"},{"establishmentid":"5307","name":"Black Orchid","address":"17040 Plymouth Rd","zipcode":"48227"},{"establishmentid":"4981","name":"Market Fresh Deli","address":"18200 W Chicago","zipcode":"48228"},{"establishmentid":"2797","name":"Little Caesar's Pizza ","address":"18310 W Chicago Rd","zipcode":"48228"},{"establishmentid":"5357","name":"A 1 Fish & Chicken LLC","address":"16900 Plymouth","zipcode":"48212"},{"establishmentid":"51622623","name":"Chicago Fish & Chicken","address":"16900 Plymouth","zipcode":"48227"},{"establishmentid":"3149","name":"Time Out Sports Bar & Grill","address":"16801 Plymouth Rd","zipcode":"48227"},{"establishmentid":"893","name":"Cody Senior High School","address":"18445 Cathedral St","zipcode":"48228"},{"establishmentid":"1522","name":"Fiberglass Estate Corp. ","address":"16515 Plymouth Rd","zipcode":"48227"},{"establishmentid":"4816","name":"WAY Academy West Campus","address":"19321 Chicago W","zipcode":"48228"},{"establishmentid":"2471","name":"Ply Produce and Deli","address":"19615 Plymouth Rd","zipcode":"48228"},{"establishmentid":"5025","name":"New Bentley Lounge","address":"19631 Plymouth Rd","zipcode":"48228"},{"establishmentid":"3708","name":"Freeze Shop","address":"13590 Glastonbury","zipcode":"48223"},{"establishmentid":"1241","name":"Mann Elementary School","address":"19625 Elmira","zipcode":"48228"},{"establishmentid":"2579","name":"Subway #29018","address":"18334 Joy Rd","zipcode":"48228"},{"establishmentid":"4288","name":"Yusef's Place 2","address":"18516 Schoolcraft","zipcode":"48223"},{"establishmentid":"1127","name":"Dossin Elementary","address":"16650 Glendale","zipcode":"48227"},{"establishmentid":"1729","name":"McDonald's #17266","address":"18137 Joy Rd","zipcode":"48228"}],"inspectionsByEstablishmentidList":[{"inspectionid":"42734","inspectionDate":"2018-07-02T00:00:00","inspectionType":"Plan Review/Final/Ap","inCompliance":"Yes","violationsByInspectionidList":[]},{"inspectionid":"42733","inspectionDate":"2018-06-26T00:00:00","inspectionType":"Plan Review/Pre-Open","inCompliance":"Yes","violationsByInspectionidList":[{"violationCode":"5-402.11","violationDescription":"Except as otherwise allowed, a direct connection may not exist between the SEWAGE system and a drain originating from EQUIPMENT in which FOOD, portable EQUIPMENT, or UTENSILS are placed. (P)\r\n","violationType":"Priority","itemDescription":"Backflow/backsiphonage prevention device(s)","subItem":"Air gap","problemDescription":"Not provided on","subProblem":"Dipper well Drain line","location":"DIPPER WELL","subLocation":"At the AIR GAP","corrected":"Yes","daysToCorrect":"10.0","correctedDate":"2018-07-02T00:00:00","correctionDescription":"Provide adequate air gap."},{"violationCode":"5-205.15","violationDescription":"A PLUMBING SYSTEM shall be:\r\n(A) Repaired according to LAW; (P) and\r\n(B) Maintained in good repair.\r\n","violationType":"Core","itemDescription":"Plumbing system","subItem":"water line(s)","problemDescription":"Not maintained","subProblem":"","location":"THREE COMPARTMENT SINK","subLocation":"","corrected":"Not required","daysToCorrect":"10.0","correctedDate":null,"correctionDescription":"Maintain in good repair"},{"violationCode":"6-201.11","violationDescription":"Except otherwise approved, and except for antislip floor coverings or applications may be used for safety reasons, floors, floor coverings, walls, wall coverings, and ceilings shall be designed, constructed, and installed so they are SMOOTH and EASILY CLEANABLE.\r\n","violationType":"Core","itemDescription":"wall(s)","subItem":"","problemDescription":"Not constructed, designed, installed to be","subProblem":"Easily cleanable","location":"FACILITY","subLocation":"","corrected":"Not required","daysToCorrect":"30.0","correctedDate":null,"correctionDescription":"Repair/replace to be smooth and easily cleanable."},{"violationCode":"4-501.11","violationDescription":"EQUIPMENT shall be maintained in a state of repair and condition that meets the requirements of the code.\r\n","violationType":"Core","itemDescription":"Equipment","subItem":"","problemDescription":"In poor repair","subProblem":"Open seams","location":"WALK-IN COOLER","subLocation":"gasket/rubber lining","corrected":"Not required","daysToCorrect":"30.0","correctedDate":null,"correctionDescription":"Repair/replace."},{"violationCode":"6-501.12","violationDescription":"(A) PHYSICAL FACILITIES shall be cleaned as often as necessary to keep them clean.\r\n(B) Except spill cleanup, cleaning shall be done during periods when the least amount of FOOD is exposed such as after closing. ","violationType":"Core","itemDescription":"Physical facilities/structures","subItem":"ceiling","problemDescription":"Soiled","subProblem":"","location":"FACILITY","subLocation":"","corrected":"Not required","daysToCorrect":"30.0","correctedDate":null,"correctionDescription":"Clean."}]}]}]}},"pageContext":{"eid":"51622735"}}