{"data":{"site":{"pathPrefix":"/restaurant-inspections"},"postgres":{"establishment":[{"establishmentid":"3929","name":"Greektown Casino - Sports Bar","address":"555 E Lafayette Ave","zipcode":"48226","owner":"Greek town Casino LLC","licenseNumber":"65377","licenseType":"Fixed Establishment","establishmentType":"Food Service Establishment","establishmentStatus":"Open","riskCategory":null,"reviewFrequencyDays":"365.0","coords":"-83.04132,42.33457","geojson":{"id":"3929","type":"Feature","geometry":{"type":"Point","coordinates":[-83.041319668,42.33456876]},"properties":{"name":"Greektown Casino - Sports Bar","owner":"Greek town Casino LLC","address":"555 E Lafayette Ave","zipcode":"48226","license_type":"Fixed Establishment","risk_category":null,"license_number":"65377","establishmentid":"3929","establishment_type":"Food Service Establishment","establishment_status":"Open","review_frequency_days":"365.0","most_recent_license_date":"4/12/2018"}},"nearbyList":[{"establishmentid":"1261","name":"Pegasus Taverna","address":"558 Monroe St","zipcode":"48226"},{"establishmentid":"5181","name":"Coldstone Creamery","address":"510 Monroe St","zipcode":"48226"},{"establishmentid":"51622559","name":"Market District Grill","address":"514 Monroe St","zipcode":"48226"},{"establishmentid":"4011","name":"Five Guy's Burgers & Fries","address":"508 Monroe St","zipcode":"48226"},{"establishmentid":"4110","name":"Red Smoke","address":"573 Monroe St","zipcode":"48226"},{"establishmentid":"1108","name":"Flood's Bar & Grill","address":"731 St Antoine St","zipcode":"48226"},{"establishmentid":"1403","name":"Pizza Papalis Taverna","address":"553 Monroe St","zipcode":"48226"},{"establishmentid":"1488","name":"New Parthenon","address":"547 Monroe St","zipcode":"48226"},{"establishmentid":"1447","name":"Monroe Street Cafe","address":"561 Monroe St","zipcode":"48226"},{"establishmentid":"5245","name":"Wahlburgers","address":"569 Monroe St","zipcode":"48226"},{"establishmentid":"4487","name":"Plaka Level 2","address":"535 Monroe St","zipcode":"48226"},{"establishmentid":"1202","name":"The Greek","address":"535 Monroe St","zipcode":"48226"},{"establishmentid":"51622604","name":"Eat N Out Pizza & Gelato","address":"531 Monroe","zipcode":"48226"},{"establishmentid":"389","name":"Golden Fleece Restaurant Inc.","address":"525 Monroe St","zipcode":"48226"},{"establishmentid":"388","name":"Pappy's Bar and Grill","address":"517 Monroe St","zipcode":"48226"},{"establishmentid":"3179","name":"Santorini","address":"501 Monroe St","zipcode":"48226"},{"establishmentid":"1191","name":"Niki's Pizzeria","address":"735-37 Beaubien St","zipcode":"48226"},{"establishmentid":"4682","name":"Niki's Lounge","address":"735 Beaubien St","zipcode":"48226"},{"establishmentid":"964","name":"Bouzouki Club","address":"432 E Lafayette Ave","zipcode":"48226"},{"establishmentid":"1089","name":"Loco Bar & Grill","address":"454 E Lafayette Ave","zipcode":"48226"}],"inspectionsByEstablishmentidList":[{"inspectionid":"44293","inspectionDate":"2018-11-29T00:00:00","inspectionType":"Routine Inspection","inCompliance":"Yes","violationsByInspectionidList":[{"violationCode":"6-501.11","violationDescription":"PHYSICAL FACILITIES shall be maintained in good repair.\r\n","violationType":"Core","itemDescription":"Physical facilities","subItem":"","problemDescription":"In poor repair","subProblem":"","location":"FLOOR AND WALLS","subLocation":"Baseboard (tiles)","corrected":"Not required","daysToCorrect":"30.0","correctedDate":null,"correctionDescription":"Repair"}]},{"inspectionid":"42406","inspectionDate":"2018-06-04T00:00:00","inspectionType":"Routine Inspection","inCompliance":"Yes","violationsByInspectionidList":[]},{"inspectionid":"40361","inspectionDate":"2017-10-12T00:00:00","inspectionType":"Routine Inspection","inCompliance":"Yes","violationsByInspectionidList":[]},{"inspectionid":"38379","inspectionDate":"2017-03-30T00:00:00","inspectionType":"Routine Inspection","inCompliance":"Yes","violationsByInspectionidList":[{"violationCode":"6-501.12","violationDescription":"(A) PHYSICAL FACILITIES shall be cleaned as often as necessary to keep them clean.\r\n(B) Except spill cleanup, cleaning shall be done during periods when the least amount of FOOD is exposed such as after closing. ","violationType":"Core","itemDescription":"Physical facilities/structures","subItem":"walls","problemDescription":"Soiled","subProblem":"","location":"SERVICE AREA","subLocation":"At the Beverage Dispenser","corrected":"Not required","daysToCorrect":"30.0","correctedDate":null,"correctionDescription":"Keep clean."},{"violationCode":"4-903.11","violationDescription":"Cleaned EQUIPMENT and UTENSILS, laundered LINENS, and SINGLE-SERVICE and SINGLE-USE ARTICLES shall be stored in an approved manner and location.\r\n","violationType":"Core","itemDescription":"Single-service/single-use article(s)","subItem":"","problemDescription":"Exposed to dust, splash, or other contaminates","subProblem":"","location":"SERVICE AREA","subLocation":"At the Single service items","corrected":"Yes","daysToCorrect":"30.0","correctedDate":"2017-03-30T00:00:00","correctionDescription":"Discard"}]},{"inspectionid":"36931","inspectionDate":"2016-10-28T00:00:00","inspectionType":"Routine Inspection","inCompliance":"Yes","violationsByInspectionidList":[{"violationCode":"4-602.13","violationDescription":"NonFOOD-CONTACT SURFACES of EQUIPMENT shall be cleaned at a frequency necessary to preclude accumulation of soil residues.\r\n","violationType":"Core","itemDescription":"Nonfood contact surface(s)","subItem":"","problemDescription":"Soiled","subProblem":"","location":"SERVICE AREA","subLocation":"At the Pop gun holsters","corrected":"Not required","daysToCorrect":"30.0","correctedDate":null,"correctionDescription":"Keep clean."}]}]}]}},"pageContext":{"eid":"3929"}}