{"data":{"postgres":{"establishment":[{"establishmentid":"51622563","name":"La Pasada","address":"1601 Springwells St","zipcode":"48209","owner":"Guadalupe Macias","licenseNumber":"218063","licenseType":"Fixed Establishment","establishmentType":"Food Service Establishment","establishmentStatus":"Open","riskCategory":"Medium","reviewFrequencyDays":"365.0","coords":"-83.12411,42.30679","geojson":{"id":"51622563","type":"Feature","geometry":{"type":"Point","coordinates":[-83.1241093099999,42.3067878460001]},"properties":{"name":"La Pasada","owner":"Guadalupe Macias","address":"1601 Springwells St","zipcode":"48209","license_type":"Fixed Establishment","risk_category":"Medium","license_number":"218063","establishmentid":"51622563","establishment_type":"Food Service Establishment","establishment_status":"Open","review_frequency_days":"365.0","most_recent_license_date":null}},"nearbyList":[{"establishmentid":"413","name":"Charlie's Bar","address":"1503 Springwells Ave","zipcode":"48209"},{"establishmentid":"4050","name":"My Spot","address":"1801 Springwells","zipcode":"48209"},{"establishmentid":"1353","name":"Vince's Italian Rest & Pizzeria","address":"1341 Springwells Ave","zipcode":"48209"},{"establishmentid":"3812","name":"Tacos El Caballo","address":"8084 Rathbone St","zipcode":"48209"},{"establishmentid":"51622803","name":"La Posada","address":"1930 Springwells St","zipcode":"48209"}],"inspectionsByEstablishmentidList":[{"inspectionid":"43158","inspectionDate":"2018-07-19T00:00:00","inspectionType":"Routine Inspection","inCompliance":"Yes","violationsByInspectionidList":[]},{"inspectionid":"43868","inspectionDate":"2017-11-16T00:00:00","inspectionType":"Routine Inspection","inCompliance":"Yes","violationsByInspectionidList":[{"violationCode":"3-305.11","violationDescription":"FOOD shall be protected from contamination by storing the FOOD:\r\n(1)     In a clean, dry location;\r\n(2)     Where it is not exposed to splash, dust, or other contamination; and\r\n(3)     At least 15 cm (6 inches) above the floor, unless otherwise approved.\r\n","violationType":"Core","itemDescription":null,"subItem":"","problemDescription":null,"subProblem":"","location":null,"subLocation":"","corrected":"Yes","daysToCorrect":"30.0","correctedDate":"2017-11-16T00:00:00","correctionDescription":null}]},{"inspectionid":"39329","inspectionDate":"2017-07-12T00:00:00","inspectionType":"Routine Inspection","inCompliance":"Yes","violationsByInspectionidList":[{"violationCode":"6-301.14","violationDescription":"A sign or poster that notifies FOOD EMPLOYEES to wash their hands shall be provided at all HANDWASHING SINKS used by FOOD EMPLOYEES and shall be clearly visible to FOOD EMPLOYEES.\r\n","violationType":"Core","itemDescription":null,"subItem":"","problemDescription":null,"subProblem":"","location":"BAR","subLocation":"","corrected":"Not required","daysToCorrect":"30.0","correctedDate":null,"correctionDescription":null}]}]}]}},"pageContext":{"eid":"51622563"}}