{"data":{"postgres":{"establishment":[{"establishmentid":"5191","name":"UAW Local 7","address":"2600 Conner Ave","zipcode":"48215","owner":null,"licenseNumber":"220227","licenseType":"Fixed Establishment","establishmentType":"Food Service Establishment","establishmentStatus":"Plan Review","riskCategory":null,"reviewFrequencyDays":"530.0","coords":"-82.96244,42.37654","geojson":{"id":"5191","type":"Feature","geometry":{"type":"Point","coordinates":[-82.9624406309999,42.376538569]},"properties":{"name":"UAW Local 7","owner":null,"address":"2600 Conner Ave","zipcode":"48215","license_type":"Fixed Establishment","risk_category":null,"license_number":"220227","establishmentid":"5191","establishment_type":"Food Service Establishment","establishment_status":"Plan Review","review_frequency_days":"530.0","most_recent_license_date":"4/23/2018"}},"nearbyList":[{"establishmentid":"3893","name":"Northeast Guidance Center","address":"2900 Conner","zipcode":"48215"},{"establishmentid":"4440","name":"Jimmie's Lounge","address":"12625 Kercheval","zipcode":"48215"},{"establishmentid":"4841","name":"Subway 36794","address":"2101 Conner Ave","zipcode":"48215"},{"establishmentid":"5139","name":"Historic Eastlake Baptist Church","address":"12440 E Jefferson Ave","zipcode":"48215"},{"establishmentid":"1391","name":"Joseph's Coney Island","address":"12500 E Jefferson Ave","zipcode":"48215"},{"establishmentid":"680","name":"Burger King ","address":"12661 Mack Ave","zipcode":"48215"},{"establishmentid":"1104","name":"Maison Fine Food Inc.","address":"13031 Mack Ave","zipcode":"48215"},{"establishmentid":"51622576","name":"Ginger Berry LLC","address":"12626 E Jefferson Avenue","zipcode":"48215"},{"establishmentid":"3751","name":"Manhattan Fish and Chicken","address":"3800 Conner","zipcode":"48215"},{"establishmentid":"2646","name":"McDonald's #25135","address":"3975 Conner Ave","zipcode":"48215"},{"establishmentid":"1731","name":"Capuchin Kitchen","address":"4390 Conner ","zipcode":"48215"},{"establishmentid":"3768","name":"Krazy Pizza","address":"14300 Mack Ave","zipcode":"48215"},{"establishmentid":"1388","name":"Golightly  Career Tech","address":"900 Dickerson Ave","zipcode":"48215"},{"establishmentid":"4927","name":"Davis Aerospace Tech High @ Golightly Te","address":"900 Dickerson Ave","zipcode":"48215"},{"establishmentid":"3317","name":"Detroit Enterprise Academy","address":"11224 Kercheval","zipcode":"48214"},{"establishmentid":"1961","name":"Subway 12011","address":"13222 E Jefferson Ave","zipcode":"48215"},{"establishmentid":"3260","name":"St. John's Congregational Church","address":"14320 Kercheval Ave","zipcode":"48215"},{"establishmentid":"1711","name":"Dynasty Chinese","address":"13340 E Jefferson Ave","zipcode":"48215"},{"establishmentid":"5148","name":"Detroits Finest Coney Island","address":"13337 E Jefferson Ave. ","zipcode":"48215"},{"establishmentid":"3331","name":"Legends Grill","address":"11123 E Jefferson Ave","zipcode":"48214"}],"inspectionsByEstablishmentidList":[{"inspectionid":"39610","inspectionDate":"2017-08-16T00:00:00","inspectionType":"Routine Inspection","inCompliance":"Yes","violationsByInspectionidList":[{"violationCode":"4-602.12","violationDescription":"(A) The FOOD-CONTACT SURFACES of cooking and baking EQUIPMENT shall be cleaned at least every 24 hours. This section does not apply to hot oil cooking and filtering EQUIPMENT if it is cleaned as specified in Subparagraph 4-602.11(D)(6).   \r\n(B) The cavities and door seals of microwave ovens shall be cleaned at least every 24 hours by using the manufacturer's recommended cleaning procedure.","violationType":"Core","itemDescription":"Microwave oven door seals and cavities","subItem":"","problemDescription":"Not cleaned","subProblem":"Through out the day as necessary","location":"KITCHEN","subLocation":"Inside the Microwave Oven(s)","corrected":"Not required","daysToCorrect":"30.0","correctedDate":null,"correctionDescription":"Clean as specified above."},{"violationCode":"4-602.13","violationDescription":"NonFOOD-CONTACT SURFACES of EQUIPMENT shall be cleaned at a frequency necessary to preclude accumulation of soil residues.\r\n","violationType":"Core","itemDescription":"Nonfood contact surface(s)","subItem":"","problemDescription":"With accumulation of debris","subProblem":"","location":"KITCHEN","subLocation":"Inside the Stove (Chinese)","corrected":"Not required","daysToCorrect":"30.0","correctedDate":null,"correctionDescription":"Keep clean."}]}]}]}},"pageContext":{"eid":"5191"}}