{"componentChunkName":"component---src-templates-establishment-page-js","path":"/establishment/51622949","result":{"data":{"site":{"pathPrefix":"/restaurant-inspections"},"postgres":{"establishment":[{"establishmentid":"51622949","name":"Oak and Reel dba Upfront Hospitality LLC","address":"2921 Grand Blvd E.","zipcode":"48202","owner":"Upfront Hospitality LLC","licenseNumber":"250446","licenseType":"Fixed Establishment","establishmentType":"Food Service Establishment","establishmentStatus":"Open","riskCategory":"High","reviewFrequencyDays":"150","coords":"-83.06686,42.37225","geojson":{"id":"51622949","type":"Feature","geometry":{"type":"Point","coordinates":[-83.066862137,42.372246098]},"properties":{"name":"Oak and Reel dba Upfront Hospitality LLC","owner":"Upfront Hospitality LLC","address":"2921 Grand Blvd E.","zipcode":"48202","license_type":"Fixed Establishment","risk_category":"High","license_number":"250446","establishmentid":"51622949","establishment_type":"Food Service Establishment","establishment_status":"Open","review_frequency_days":"150","most_recent_license_date":"26/4/2022"}},"nearbyList":[{"establishmentid":"51623260","name":"Freya and Dragonfly LLC","address":"2929 Grand Blvd. E. ","zipcode":"48202"},{"establishmentid":"51623450","name":"Reef Kitchens #07 (Fixed Trailer)","address":"2915 Grand Blvd E.","zipcode":"48202"},{"establishmentid":"4723","name":"Shawarma King","address":"2920 Grand Blvd.","zipcode":"48202"},{"establishmentid":"51622902","name":"Milwaukee Caffe","address":"447 Milwaukee Ave. E.","zipcode":"48202"},{"establishmentid":"51622696","name":"Kiesling","address":"449 Milwaukee Ave. E.","zipcode":"48202"},{"establishmentid":"2398","name":"B Georges Coney Island","address":"2898 Grand Blvd. W.","zipcode":"48202"},{"establishmentid":"2313","name":"Mariga's","address":"2894-96 Grand Blvd. W.","zipcode":"48202"},{"establishmentid":"785","name":"Parks Old Style Bar-B-Q ","address":"7444 Beaubien St.","zipcode":"48202"},{"establishmentid":"51623848","name":"Thyme & Honey Cafe and Bodega","address":"2990 Grand Blvd. W.","zipcode":"48202"},{"establishmentid":"5182","name":"Simply Spanish","address":"2990 Grand Blvd. W.","zipcode":"48202"}],"inspectionsByEstablishmentidList":[{"inspectionid":"61185","inspectionDate":"2023-01-13T00:00:00","inspectionType":"Routine Inspection","inCompliance":"Yes","violationsByInspectionidList":[{"violationCode":"3-304.12","violationDescription":"During pauses in FOOD preparation or dispensing, UTENSILS shall be stored:\n(A) In the FOOD with their handles above the top of the FOOD and the container;\n(B) In FOOD that is not POTENTIALLY HAZARDOUS with their handles above the      top of the FOOD within containers or EQUIPMENT that can be closed, such as      bins of sugar, flour, or cinnamon;\n(C) On a clean portion of the FOOD preparation table or cooking EQUIPMENT\n(D)  In running water, such as dipper well.\n(E)  In a clean, protected location if the UTENSILS, such as ice scoops, are   used only with a FOOD that is not POTENTIALLY HAZARDOUS; or\n(F)  In a container of water maintained at a temperature of at least 135Â° F.\n","violationType":"Core","itemDescription":"Dispensing utensil(s)","subItem":"","problemDescription":null,"subProblem":"","location":"KITCHEN","subLocation":"On top of the Bulk food containers","corrected":"False","daysToCorrect":"30","correctedDate":null,"correctionDescription":null},{"violationCode":"6-501.12","violationDescription":"(A) PHYSICAL FACILITIES shall be cleaned as often as necessary to keep them clean.\n(B) Except spill cleanup, cleaning shall be done during periods when the least amount of FOOD is exposed such as after closing. ","violationType":"Core","itemDescription":"Physical facilities/structures","subItem":"floors","problemDescription":"With accumulation of debris","subProblem":"","location":"KITCHEN","subLocation":"Behind the Ice machine","corrected":"True","daysToCorrect":"30","correctedDate":"0001-01-01T00:00:00","correctionDescription":"Keep clean."}]},{"inspectionid":"60367","inspectionDate":"2022-08-18T00:00:00","inspectionType":"Preopening/Other","inCompliance":"Yes","violationsByInspectionidList":[]},{"inspectionid":"59627","inspectionDate":"2022-06-17T00:00:00","inspectionType":"Routine Inspection","inCompliance":"Yes","violationsByInspectionidList":[]},{"inspectionid":"56673","inspectionDate":"2021-11-19T00:00:00","inspectionType":"Routine Inspection","inCompliance":"Yes","violationsByInspectionidList":[]},{"inspectionid":"54964","inspectionDate":"2021-05-28T00:00:00","inspectionType":"Routine Inspection","inCompliance":"No","violationsByInspectionidList":[{"violationCode":"2-201.11","violationDescription":"The PERMIT HOLDER shall require FOOD EMPLOYEE applicants and  FOOD EMPLOYEES to report to the PERSON IN CHARGE,  information about their health and activities as they relate to diseases that are transmissible through FOOD. AND report the information in a manner that allows the PERSON IN CHARGE to prevent the likelihood of foodborne disease transmission.(P)\n","violationType":"Priority","itemDescription":"Person-in-charge","subItem":"","problemDescription":"Fail to require employees to report illness as rule requires","subProblem":"","location":"","subLocation":"","corrected":"False","daysToCorrect":"10","correctedDate":null,"correctionDescription":null}]},{"inspectionid":"52403","inspectionDate":"2020-08-17T00:00:00","inspectionType":"Preopening/New","inCompliance":"Yes","violationsByInspectionidList":[]}]}],"maxInspectionDate":[{"inspectionDate":"2023-04-13T00:00:00"}]}},"pageContext":{"eid":"51622949"}},"staticQueryHashes":["3649515864","63159454"]}