{"data":{"site":{"pathPrefix":"/restaurant-inspections"},"postgres":{"establishment":[{"establishmentid":"5033","name":"Great Lakes Coffee Beanery","address":"6071 W Outer Dr","zipcode":"48235","owner":"Dennis Zoma","licenseNumber":"080840","licenseType":"Fixed Establishment","establishmentType":"Food Service Establishment","establishmentStatus":"Open","riskCategory":"Medium","reviewFrequencyDays":"385.0","coords":"-83.18413,42.41832","geojson":{"id":"5033","type":"Feature","geometry":{"type":"Point","coordinates":[-83.18413227,42.4183233100001]},"properties":{"name":"Great Lakes Coffee Beanery","owner":"Dennis Zoma","address":"6071 W Outer Dr","zipcode":"48235","license_type":"Fixed Establishment","risk_category":"Medium","license_number":"080840","establishmentid":"5033","establishment_type":"Food Service Establishment","establishment_status":"Open","review_frequency_days":"385.0","most_recent_license_date":"4/30/2018"}},"nearbyList":[{"establishmentid":"345","name":"Teresa's Place","address":"14000 W McNichols Rd","zipcode":"48235"},{"establishmentid":"3381","name":"Rono's Caribbean Paradise Restaurant","address":"14001 W McNichols Rd","zipcode":"48235"},{"establishmentid":"2131","name":"Twisted Dairy","address":"13801 W McNichols Rd","zipcode":"48235"},{"establishmentid":"4396","name":"Sweet Soul Bistro","address":"13741 W McNichols Rd","zipcode":"48235"},{"establishmentid":"4454","name":"Southern Smokehouse","address":"14340 W McNichols Rd","zipcode":"48235"},{"establishmentid":"5341","name":"QuickFire Grille","address":"6001 W Outer Dr","zipcode":"48235"},{"establishmentid":"1895","name":"L. George's Coney Island ","address":"13635 W McNichols Rd","zipcode":"48235"},{"establishmentid":"1426","name":"Burger King ","address":"13600 W McNichols Rd","zipcode":"48235"},{"establishmentid":"5163","name":"Brown's Kitchen","address":"17150 Schaefer Hwy","zipcode":"48235"},{"establishmentid":"2361","name":"Kentucky Fried Chicken H730222","address":"13546 W McNichols Rd","zipcode":"48235"},{"establishmentid":"3520","name":"Nu Wave Fish & Chicken","address":"14541 W McNichols Rd","zipcode":"48235"},{"establishmentid":"1913","name":"Happy's Pizza #4","address":"16850 Schaefer Hwy","zipcode":"48235"},{"establishmentid":"2362","name":"Shirley Nelson's E & S Carryout","address":"13400 W McNichols Rd","zipcode":"48235"},{"establishmentid":"1543","name":"Foreign Language Immersion","address":"6501 W Outer Dr","zipcode":"48235"},{"establishmentid":"1703","name":"Westminster Church of Detroit","address":"17567 Hubbell St","zipcode":"48235"},{"establishmentid":"5332","name":"Sliders LLC","address":"13330 W McNichols Rd","zipcode":"48235"},{"establishmentid":"4253","name":"Golden Bowl Chop Suey","address":"13337 W McNichols Rd","zipcode":"48235"},{"establishmentid":"3582","name":"Lincoln-King Academy","address":"13436 Grove St","zipcode":"48235"},{"establishmentid":"4125","name":"University Yes Academy","address":"14669 Curtis","zipcode":"48235"},{"establishmentid":"519","name":"Connie & Barbara Restaurant","address":"13101 W McNichols Rd","zipcode":"48235"}],"inspectionsByEstablishmentidList":[{"inspectionid":"44854","inspectionDate":"2019-01-11T00:00:00","inspectionType":"Routine Inspection","inCompliance":"Yes","violationsByInspectionidList":[{"violationCode":"3-501.17","violationDescription":"(A)  READY-TO-EAT, POTENTIALLY HAZARDOUS FOOD (TIME/TEMPERATURE CONTROL FOR SAFETY FOOD)  prepared and held refrigerated for more than 24 hours in a FOOD ESTABLISHMENT  shall be clearly marked at the time of preparation to indicate the date or day by which the FOOD shall be consumed. (Pf)\r\n(B)  A container of refrigerated, commercially prepared READY-TO-EAT POTENTIALLY HAZARDOUS FOOD (TIME/TEMPERATURE CONTROL FOR SAFETY FOOD)  shall be clearly marked, at the time the original container is opened in a FOOD ESTABLISHMENT, to indicate the date or day by which the FOOD shall be consumed. (Pf)\r\n\r\nA date marking system that does not exceed 7 days, including date of preparation, or opening is to be used. (Pf)\r\n","violationType":"Foundation","itemDescription":"In house prepared ready-to-eat potentially hazardous  food(s)","subItem":"","problemDescription":"Without date of consumption marking","subProblem":"","location":"BACK STORAGE AREA","subLocation":"In the Freezer (2 door)","corrected":"Yes","daysToCorrect":"10.0","correctedDate":"2019-01-11T00:00:00","correctionDescription":"Discard"},{"violationCode":"2-102.11","violationDescription":"The PERSON IN CHARGE shall demonstrate this knowledge by compliance with this Code, by being a certified FOOD protection manager who has shown proficiency of required information through passing a test that is part of an ACCREDITED PROGRAM, or by responding correctly to the inspector's questions as they relate to the specific FOOD operation. (Pf)","violationType":"Foundation","itemDescription":"Person-in-charge","subItem":"","problemDescription":"Not ensuring compliance","subProblem":"","location":"RESTAURANT","subLocation":"Throughout Facility","corrected":"Yes","daysToCorrect":"10.0","correctedDate":"2019-02-22T00:00:00","correctionDescription":"Knowledge is to be obtained through an approved training program"}]},{"inspectionid":"41235","inspectionDate":"2018-01-12T00:00:00","inspectionType":"Routine Inspection","inCompliance":"Yes","violationsByInspectionidList":[]},{"inspectionid":"37499","inspectionDate":"2017-01-03T00:00:00","inspectionType":"Routine Inspection","inCompliance":"Yes","violationsByInspectionidList":[{"violationCode":"3-501.17","violationDescription":"(A)  READY-TO-EAT, POTENTIALLY HAZARDOUS FOOD (TIME/TEMPERATURE CONTROL FOR SAFETY FOOD)  prepared and held refrigerated for more than 24 hours in a FOOD ESTABLISHMENT  shall be clearly marked at the time of preparation to indicate the date or day by which the FOOD shall be consumed. (Pf)\r\n(B)  A container of refrigerated, commercially prepared READY-TO-EAT POTENTIALLY HAZARDOUS FOOD (TIME/TEMPERATURE CONTROL FOR SAFETY FOOD)  shall be clearly marked, at the time the original container is opened in a FOOD ESTABLISHMENT, to indicate the date or day by which the FOOD shall be consumed. (Pf)\r\n\r\nA date marking system that does not exceed 7 days, including date of preparation, or opening is to be used. (Pf)\r\n","violationType":"Foundation","itemDescription":"Commercially processed ready to eat potentially hazardous food(s)","subItem":"","problemDescription":"Improperly date marked","subProblem":"","location":"Refrigerator","subLocation":"","corrected":"Yes","daysToCorrect":"10.0","correctedDate":"2017-01-03T00:00:00","correctionDescription":"Establishment shall provide a clear date marking system."},{"violationCode":"3-304.12","violationDescription":"During pauses in FOOD preparation or dispensing, UTENSILS shall be stored:\r\n(A) In the FOOD with their handles above the top of the FOOD and the container;\r\n(B) In FOOD that is not POTENTIALLY HAZARDOUS with their handles above the      top of the FOOD within containers or EQUIPMENT that can be closed, such as      bins of sugar, flour, or cinnamon;\r\n(C) On a clean portion of the FOOD preparation table or cooking EQUIPMENT\r\n(D)  In running water, such as dipper well.\r\n(E)  In a clean, protected location if the UTENSILS, such as ice scoops, are   used only with a FOOD that is not POTENTIALLY HAZARDOUS; or\r\n(F)  In a container of water maintained at a temperature of at least 135Â° F.\r\n","violationType":"Core","itemDescription":"Dispensing utensil(s)","subItem":"","problemDescription":"Improperly stored","subProblem":"With handle in product","location":"ICE BIN","subLocation":"","corrected":"Yes","daysToCorrect":"30.0","correctedDate":"2017-01-03T00:00:00","correctionDescription":"Store with handle extended out of product."}]},{"inspectionid":"36080","inspectionDate":"2016-08-02T00:00:00","inspectionType":"Routine Inspection","inCompliance":"Yes","violationsByInspectionidList":[{"violationCode":"4-602.13","violationDescription":"NonFOOD-CONTACT SURFACES of EQUIPMENT shall be cleaned at a frequency necessary to preclude accumulation of soil residues.\r\n","violationType":"Core","itemDescription":"Nonfood contact surface(s)","subItem":"","problemDescription":"Soiled","subProblem":"","location":"DRAIN LINES","subLocation":"","corrected":"Not required","daysToCorrect":"30.0","correctedDate":null,"correctionDescription":"Clean."},{"violationCode":"4-501.11","violationDescription":"EQUIPMENT shall be maintained in a state of repair and condition that meets the requirements of the code.\r\n","violationType":"Core","itemDescription":"Equipment","subItem":"","problemDescription":"In poor repair","subProblem":"Broken","location":"DISH MACHINE","subLocation":"","corrected":"Not required","daysToCorrect":"30.0","correctedDate":null,"correctionDescription":"Repair/replace."}]}]}]}},"pageContext":{"eid":"5033"}}