{"data":{"site":{"pathPrefix":null},"postgres":{"establishment":[{"establishmentid":"600","name":"Metropolitan Prince Hall","address":"3500 McDougall Rd","zipcode":"48207","owner":"Metropolitan Prince Hall G.L.","licenseNumber":"034487","licenseType":"Fixed Establishment","establishmentType":"Food Service Establishment","establishmentStatus":"Open","riskCategory":"Low","reviewFrequencyDays":"530.0","coords":"-83.02857,42.35711","geojson":{"id":"600","type":"Feature","geometry":{"type":"Point","coordinates":[-83.028566725,42.3571058200001]},"properties":{"name":"Metropolitan Prince Hall","owner":"Metropolitan Prince Hall G.L.","address":"3500 McDougall Rd","zipcode":"48207","license_type":"Fixed Establishment","risk_category":"Low","license_number":"034487","establishmentid":"600","establishment_type":"Food Service Establishment","establishment_status":"Open","review_frequency_days":"530.0","most_recent_license_date":"4/28/2017"}},"nearbyList":[{"establishmentid":"654","name":"Gratiot Grill Coney Island","address":"3121 Gratiot Ave","zipcode":"48207"},{"establishmentid":"51622855","name":"Detroit Collegiate High School","address":"3111 Elmwood","zipcode":"48207"},{"establishmentid":"2824","name":"Ross-Hill Academy","address":"3111 Elmwood","zipcode":"48207"},{"establishmentid":"1076","name":"Franklin Wright Settlement","address":"3360 Charlevoix","zipcode":"48207"},{"establishmentid":"4926","name":"Boggs, James & Grace Lee Boggs School","address":"4141 Mitchell","zipcode":"48207"},{"establishmentid":"541","name":"D Motown Deli","address":"3750 Gratiot Ave","zipcode":"48207"},{"establishmentid":"1578","name":"Grandy's Coney Island","address":"3570 Mt Elliott Rd","zipcode":"48207"},{"establishmentid":"1005","name":"Burger King","address":"2155 Gratiot Ave","zipcode":"48207"},{"establishmentid":"1350","name":"Kentucky Fried Chicken","address":"3785 Gratiot","zipcode":"48207"},{"establishmentid":"4614","name":"University Prep Science & Math Elem","address":"2251 Antietam","zipcode":"48207"}],"inspectionsByEstablishmentidList":[{"inspectionid":"43092","inspectionDate":"2017-07-17T00:00:00","inspectionType":"Routine Inspection","inCompliance":"No","violationsByInspectionidList":[{"violationCode":"5-103.11","violationDescription":"(A) The water source and system shall be of sufficient capacity to meet the peak water demands of the FOOD ESTABLISHMENT. (Pf)\r\n(B) Hot water generation and distribution systems shall be sufficient to meet the peak hot water demands throughout the FOOD ESTABLISHMENT. (Pf)\r\n","violationType":"Foundation","itemDescription":"Hot water supply","subItem":"","problemDescription":"Insufficient to meet demands","subProblem":"","location":"RESTROOM (WOMEN'S)","subLocation":"","corrected":"No","daysToCorrect":"10.0","correctedDate":null,"correctionDescription":"Provide sufficient supply if hot water such as a larger or additional hot water heater."},{"violationCode":"6-501.11","violationDescription":"PHYSICAL FACILITIES shall be maintained in good repair.\r\n","violationType":"Core","itemDescription":"Physical facilities","subItem":"","problemDescription":"In poor repair","subProblem":"","location":"THROUGHOUT FACILITY","subLocation":"","corrected":"Not required","daysToCorrect":"30.0","correctedDate":null,"correctionDescription":null},{"violationCode":"4-501.11","violationDescription":"EQUIPMENT shall be maintained in a state of repair and condition that meets the requirements of the code.\r\n","violationType":"Core","itemDescription":"Equipment","subItem":"","problemDescription":"In poor repair","subProblem":"","location":"RESTROOM (WOMEN'S)","subLocation":"","corrected":"Not required","daysToCorrect":"30.0","correctedDate":null,"correctionDescription":null},{"violationCode":"4-602.13","violationDescription":"NonFOOD-CONTACT SURFACES of EQUIPMENT shall be cleaned at a frequency necessary to preclude accumulation of soil residues.\r\n","violationType":"Core","itemDescription":"Nonfood contact surface(s)","subItem":"","problemDescription":"Soiled","subProblem":"","location":"KITCHEN (1st FLOOR)","subLocation":"","corrected":"Not required","daysToCorrect":"30.0","correctedDate":null,"correctionDescription":"Clean."}]}]}]}},"pageContext":{"eid":"600"}}