{"data":{"site":{"pathPrefix":"/restaurant-inspections"},"postgres":{"establishment":[{"establishmentid":"3304","name":"Cesar Chavez Middle School","address":"6782 Goldsmith St","zipcode":"48209","owner":"Guinevere Hovey","licenseNumber":"081155","licenseType":"Fixed Establishment","establishmentType":"Non-Public School","establishmentStatus":"Open","riskCategory":null,"reviewFrequencyDays":"180.0","coords":"-83.11543,42.31148","geojson":{"id":"3304","type":"Feature","geometry":{"type":"Point","coordinates":[-83.115431417,42.3114837580001]},"properties":{"name":"Cesar Chavez Middle School","owner":"Guinevere Hovey","address":"6782 Goldsmith St","zipcode":"48209","license_type":"Fixed Establishment","risk_category":null,"license_number":"081155","establishmentid":"3304","establishment_type":"Non-Public School","establishment_status":"Open","review_frequency_days":"180.0","most_recent_license_date":"4/29/2019"}},"nearbyList":[{"establishmentid":"2343","name":"Cesar Chavez Academy High School","address":"1761 Waterman St","zipcode":"48209"},{"establishmentid":"1650","name":"Dino's Cafe Inc.","address":"1601 Waterman St","zipcode":"48209"},{"establishmentid":"703","name":"Roberto Clemente Elementary","address":"1551 Beard St","zipcode":"48209"},{"establishmentid":"732","name":"Sidekicks Saloon","address":"7023 Chatsfield St","zipcode":"48209"},{"establishmentid":"51623131","name":"Ice Cream & Cafe La Niña","address":"2257 Waterman","zipcode":"48209"},{"establishmentid":"51622712","name":"Tacos Regios Mexican Grill","address":"2257 Waterman St","zipcode":"48209"},{"establishmentid":"4792","name":"Las Palmas Neveria Y Cafeteria","address":"7009 Vernor Hwy","zipcode":"48209"},{"establishmentid":"735","name":"Happy Bar","address":"1247 Green St N","zipcode":"48209"},{"establishmentid":"5070","name":"Mi Lindo Sanblas","address":"1807 Livernois Ave","zipcode":"48209"},{"establishmentid":"51623109","name":"Ice Cream & Cafe La Niña","address":"7431 W Vernor","zipcode":"48209"}],"inspectionsByEstablishmentidList":[{"inspectionid":"49121","inspectionDate":"2019-09-16T00:00:00","inspectionType":"Routine Inspection","inCompliance":"Yes","violationsByInspectionidList":[{"violationCode":"MFL289.2129","violationDescription":"Sec. 2129. (1) All food establishments shall employ a minimum of 1 managerial employee as a food safety manager, who must be an individual who is currently certified under a personnel certification program accredited by the American National Standards Institute, utilizing the Conference for Food Protection standards:\r\n(2) Beginning January 14, 2017 and every 5 years thereafter, a certified  food safety manager who supervises the operations of a food service establishment shall have completed a food safety training program\r\ncontaining an allergen awareness  component that has been approved by  the department. A food service establishment shall retain records on the  site of the food service establishment documenting compliance of its  certified food safety managers with this subsection. ","violationType":"Core","itemDescription":"Person-in-charge","subItem":"","problemDescription":null,"subProblem":"","location":"ESTABLISHMENT","subLocation":"Allergens Training","corrected":"Not required","daysToCorrect":"30.0","correctedDate":null,"correctionDescription":null}]},{"inspectionid":"47713","inspectionDate":"2019-05-14T00:00:00","inspectionType":"Routine Inspection","inCompliance":"Yes","violationsByInspectionidList":[{"violationCode":"4-702.11","violationDescription":"UTENSILS and FOOD-CONTACT SURFACES of EQUIPMENT shall be SANITIZED before use after cleaning. (P)\r\n","violationType":"Priority","itemDescription":"Clean utensil(s) and food-contact surface(s)","subItem":"","problemDescription":"Not sanitized","subProblem":"","location":"THREE COMPARTMENT SINK","subLocation":"SANITIZING","corrected":"Yes","daysToCorrect":"10.0","correctedDate":"2019-05-14T00:00:00","correctionDescription":"Equipment/utensils must be sanitized after cleaning."}]},{"inspectionid":"44140","inspectionDate":"2018-11-20T00:00:00","inspectionType":"Routine Inspection","inCompliance":"Yes","violationsByInspectionidList":[]},{"inspectionid":"42088","inspectionDate":"2018-04-26T00:00:00","inspectionType":"Routine Inspection","inCompliance":"Yes","violationsByInspectionidList":[]},{"inspectionid":"39967","inspectionDate":"2017-09-13T00:00:00","inspectionType":"Routine Inspection","inCompliance":"Yes","violationsByInspectionidList":[]},{"inspectionid":"38594","inspectionDate":"2017-04-19T00:00:00","inspectionType":"Routine Inspection","inCompliance":"Yes","violationsByInspectionidList":[]},{"inspectionid":"36712","inspectionDate":"2016-10-10T00:00:00","inspectionType":"Routine Inspection","inCompliance":"Yes","violationsByInspectionidList":[]}]}],"maxInspectionDate":[{"inspectionDate":"2019-10-31T00:00:00"}]}},"pageContext":{"eid":"3304"}}