{"data":{"site":{"pathPrefix":"/restaurant-inspections"},"postgres":{"establishment":[{"establishmentid":"5062","name":"Bag Of Bonez","address":"1250 S Beatrice St","zipcode":"48221","owner":"Gary Smith/Toia Parks-Smith","licenseNumber":"039943","licenseType":"Special Transitory Food Unit","establishmentType":"LHD - Special Transitory Food","establishmentStatus":"Seasonal","riskCategory":null,"reviewFrequencyDays":"210","coords":"-83.14596,42.27894","geojson":{"id":"5062","type":"Feature","geometry":{"type":"Point","coordinates":[-83.14595535,42.278943922]},"properties":{"name":"Bag Of Bonez","owner":"Gary Smith/Toia Parks-Smith","address":"1250 S Beatrice St","zipcode":"48221","license_type":"Special Transitory Food Unit","risk_category":null,"license_number":"039943","establishmentid":"5062","establishment_type":"LHD - Special Transitory Food","establishment_status":"Seasonal","review_frequency_days":"210","most_recent_license_date":"6/1/2020"}},"nearbyList":[{"establishmentid":"51622762","name":"D's Coney Island","address":"2626 S Schaefer Hwy","zipcode":"48217"},{"establishmentid":"51622934","name":"Tacos Regios Mexican grill #2","address":"1781 S Fort St","zipcode":"48217"},{"establishmentid":"2245","name":"Perfect Beat","address":"1941 Fort St S","zipcode":"48217"},{"establishmentid":"1021","name":"Giovanni's Ristorante","address":"330 Oakwood Blvd S","zipcode":"48217"},{"establishmentid":"51622674","name":"Google Detroit Cafe","address":"52 E Henry St","zipcode":"48218"},{"establishmentid":"617","name":"New Paradigm College Prep School","address":"2450  S Beatrice St ","zipcode":"48217"},{"establishmentid":"4068","name":"Ella Mae's Place","address":"2251 S Fort Street","zipcode":"48217"},{"establishmentid":"3115","name":"Diamond Queen-Blue Water Exploration","address":"13000 Denmark St","zipcode":"48217"},{"establishmentid":"1580","name":"Diamond Jack-Blue Water Exploration","address":"13000 Denmark St","zipcode":"48217"},{"establishmentid":"3931","name":"Blue Water Exploration Commissary","address":"13000 Denmark St","zipcode":"48217"}],"inspectionsByEstablishmentidList":[{"inspectionid":"49168","inspectionDate":"2019-04-30T00:00:00","inspectionType":"Routine Inspection","inCompliance":"Yes","violationsByInspectionidList":[{"violationCode":"4-302.12","violationDescription":"(A) FOOD TEMPERATURE MEASURING DEVICES shall be provided and readily accessible for use in ensuring attainment and maintenance of FOOD temperatures as specified under Chapter 3. (Pf)   \r\n(B) A TEMPERATURE MEASURING DEVICE with a suitable small-diameter probe that is designed to measure the temperature of thin masses shall be provided and readily accessible to accurately measure the temperature in thin FOODS such as MEAT patties and FISH filets. (Pf)\r\n","violationType":"Foundation","itemDescription":"Food thermometer(s)","subItem":"","problemDescription":"Not provided","subProblem":"","location":"MOBILE UNIT","subLocation":"","corrected":"Yes","daysToCorrect":"10","correctedDate":"2019-05-03T00:00:00","correctionDescription":null},{"violationCode":"4-302.14","violationDescription":"A test kit or other device that accurately measures the concentration in mg/L of SANITIZING solutions shall be provided. (Pf)\r\n","violationType":"Foundation","itemDescription":"Sanitizer test kit","subItem":"","problemDescription":"Not provided","subProblem":"","location":"MOBILE UNIT","subLocation":"","corrected":"Yes","daysToCorrect":"10","correctedDate":"2019-05-03T00:00:00","correctionDescription":null}]},{"inspectionid":"38630","inspectionDate":"2017-04-27T00:00:00","inspectionType":"Routine Inspection","inCompliance":"No","violationsByInspectionidList":[]},{"inspectionid":"38528","inspectionDate":"2017-04-20T00:00:00","inspectionType":"Routine Inspection","inCompliance":"No","violationsByInspectionidList":[{"violationCode":"4-302.12","violationDescription":"(A) FOOD TEMPERATURE MEASURING DEVICES shall be provided and readily accessible for use in ensuring attainment and maintenance of FOOD temperatures as specified under Chapter 3. (Pf)   \r\n(B) A TEMPERATURE MEASURING DEVICE with a suitable small-diameter probe that is designed to measure the temperature of thin masses shall be provided and readily accessible to accurately measure the temperature in thin FOODS such as MEAT patties and FISH filets. (Pf)\r\n","violationType":"Foundation","itemDescription":"Food thermometer(s)","subItem":"","problemDescription":"Not provided","subProblem":"","location":"MOBILE UNIT","subLocation":"","corrected":"No","daysToCorrect":"10","correctedDate":null,"correctionDescription":"Provide."}]}]}],"maxInspectionDate":[{"inspectionDate":"2020-10-30T00:00:00"}]}},"pageContext":{"eid":"5062"}}