{"componentChunkName":"component---src-templates-establishment-page-js","path":"/establishment/51622855","result":{"data":{"site":{"pathPrefix":"/restaurant-inspections"},"postgres":{"establishment":[{"establishmentid":"51622855","name":"Detroit Collegiate High School","address":"3111 Elmwood","zipcode":"48207","owner":"Equity Education","licenseNumber":"230529","licenseType":"Fixed Establishment","establishmentType":"Public School","establishmentStatus":"Permanently Closed","riskCategory":null,"reviewFrequencyDays":"180","coords":"-83.02596,42.35646","geojson":{"id":"51622855","type":"Feature","geometry":{"type":"Point","coordinates":[-83.025959032,42.356456291]},"properties":{"name":"Detroit Collegiate High School","owner":"Equity Education","address":"3111 Elmwood","zipcode":"48207","license_type":"Fixed Establishment","risk_category":null,"license_number":"230529","establishmentid":"51622855","establishment_type":"Public School","establishment_status":"Permanently Closed","review_frequency_days":"180","most_recent_license_date":null}},"nearbyList":[{"establishmentid":"2824","name":"Ross-Hill Academy","address":"3111   Elmwood","zipcode":"48207"},{"establishmentid":"633","name":"Marracci Temple/ Grenadier Lodge #13","address":"3101 Mc Dougall","zipcode":"48207"},{"establishmentid":"1682","name":"Open Door Rescue Mission","address":"3442 McDougall","zipcode":"48207"},{"establishmentid":"600","name":"Metropolitan Prince Hall","address":"3500 McDougall Rd.","zipcode":"48207"},{"establishmentid":"1076","name":"Franklin Wright Settlement","address":"3360 Charlevoix","zipcode":"48207"},{"establishmentid":"5125","name":"Franklin-Wright Settlement","address":"3360 Charlevoix","zipcode":"48207"},{"establishmentid":"1805","name":"Robinson Dairy Vending","address":"3300 Mack","zipcode":"48207"},{"establishmentid":"654","name":"Gratiot Grill Coney Island","address":"3121 Gratiot","zipcode":"48207"},{"establishmentid":"2479","name":"K & D ICE CREAM","address":"3177 MACK","zipcode":"48234"},{"establishmentid":"2137","name":"K & D","address":"3177 Mack Ave.","zipcode":"48234"}],"inspectionsByEstablishmentidList":[{"inspectionid":"50059","inspectionDate":"2019-12-04T00:00:00","inspectionType":"Routine Inspection","inCompliance":"Yes","violationsByInspectionidList":[]},{"inspectionid":"47776","inspectionDate":"2019-05-21T00:00:00","inspectionType":"Routine Inspection","inCompliance":"Yes","violationsByInspectionidList":[]},{"inspectionid":"43825","inspectionDate":"2018-10-16T00:00:00","inspectionType":"Routine Inspection","inCompliance":"No","violationsByInspectionidList":[{"violationCode":"7-201.11","violationDescription":"POISONOUS OR TOXIC MATERIAL shall be stored so they can not contaminate FOOD, EQUIPMENT, UTENSILS, LINENS, AND SINGLE-SERVICE AND SINGLE-USE ARTICLES by:   \n(A) Separating the POISONOUS OR TOXIC MATERIAL by spacing or partitioning; (P) and   \n(B) Locating the POISONOUS OR TOXIC MATERIAL in an area that is not above FOOD, EQUIPMENT, UTENSILS, LINENS, AND SINGLE-SERVICE AND SINGLE-USE ARTICLES.  This paragraph does not apply to EQUIPMENT and UTENSIL cleaners and sanitizers that are stored in WAREWASHING areas for availability and convenience if the materials are stored to prevent contamination of FOOD, EQUIPMENT, UTENSILS, LINENS, AND SINGLE-SERVICE and SINGLE-USE ARTICLES. (P)","violationType":"Priority","itemDescription":"Poisonous/toxic material(s)","subItem":null,"problemDescription":"Stored over/with","subProblem":"Food","location":"FOOD SERVICE AREA","subLocation":"On the Shelf","corrected":"True","daysToCorrect":"10","correctedDate":"2018-10-16T00:00:00","correctionDescription":"Store toxics below and away from all other items."},{"violationCode":"4-302.14","violationDescription":"A test kit or other device that accurately measures the concentration in mg/L of SANITIZING solutions shall be provided. (Pf)\n","violationType":"Foundation","itemDescription":"Sanitizer test kit","subItem":"quaternary ammonia","problemDescription":"Not provided","subProblem":null,"location":"KITCHEN","subLocation":"Missing Test strips","corrected":"False","daysToCorrect":"10","correctedDate":null,"correctionDescription":"Provide as required"},{"violationCode":"5-501.17","violationDescription":"A toilet room used by females shall be provided with a covered receptacle for sanitary napkins.\n","violationType":"Core","itemDescription":"Covered waste receptacle(s)","subItem":null,"problemDescription":null,"subProblem":null,"location":"RESTROOM (UNISEX)","subLocation":"Missing Covered waste container","corrected":"False","daysToCorrect":"30","correctedDate":null,"correctionDescription":"Provide as required"},{"violationCode":"5-205.15","violationDescription":"A PLUMBING SYSTEM shall be:\n(A) Repaired according to LAW; (P) and\n(B) Maintained in good repair.\n","violationType":"Core","itemDescription":"Plumbing system","subItem":"water line(s)","problemDescription":"Not maintained","subProblem":null,"location":"DISHWASHING AREA","subLocation":"At the Three compartment sink","corrected":"False","daysToCorrect":"10","correctedDate":null,"correctionDescription":"Maintain in good repair"}]}]}],"maxInspectionDate":[{"inspectionDate":"2022-07-25T00:00:00"}]}},"pageContext":{"eid":"51622855"}},"staticQueryHashes":["3649515864","63159454"]}