{"componentChunkName":"component---src-templates-establishment-page-js","path":"/establishment/1187","result":{"data":{"site":{"pathPrefix":"/restaurant-inspections"},"postgres":{"establishment":[{"establishmentid":"1187","name":"Hik Cubi LLC Starlite","address":"20445 Van Dyke Ave.","zipcode":"48234","owner":"Hik Cubi","licenseNumber":"066486","licenseType":"Fixed Establishment","establishmentType":"Food Service Establishment","establishmentStatus":"Permanently Closed","riskCategory":null,"reviewFrequencyDays":"150","coords":"-83.02497,42.44676","geojson":{"id":"1187","type":"Feature","geometry":{"type":"Point","coordinates":[-83.024973885,42.446762897]},"properties":{"name":"Hik Cubi LLC Starlite","owner":"Hik Cubi","address":"20445 Van Dyke Ave.","zipcode":"48234","license_type":"Fixed Establishment","risk_category":null,"license_number":"066486","establishmentid":"1187","establishment_type":"Food Service Establishment","establishment_status":"Permanently Closed","review_frequency_days":"150","most_recent_license_date":"27/5/2010"}},"nearbyList":[{"establishmentid":"5335","name":"Great Lakes Fish & Chicken Market","address":"20445 VanDyke St","zipcode":"48234"},{"establishmentid":"51622683","name":"Detroit Grill & Deli","address":"20216 Van Dyke","zipcode":"48234"},{"establishmentid":"51623814","name":"Bragg About Us","address":"20018 Van Dyke","zipcode":"48234"},{"establishmentid":"51623191","name":"Detroit Hot Dog Bistro ","address":"20018 Van Dyke","zipcode":"48212"},{"establishmentid":"1478","name":"Nortown Dairy Bar","address":"20018 Van Dyke Ave.","zipcode":"48234"},{"establishmentid":"1864","name":"Hec's Stables","address":"20005 Van Dyke Ave.","zipcode":"48234"},{"establishmentid":"643","name":"UAW Local Union #1700","address":"8230 Eight Mile Rd. E.","zipcode":"48234"},{"establishmentid":"51624010","name":"Kris Culinary Creations ","address":"19969 Stotter St","zipcode":"48223"},{"establishmentid":"564","name":"American Serbian Memorial Hall","address":"19940 Van Dyke Ave.","zipcode":"48234"},{"establishmentid":"1576","name":"Burger King Corp #6796","address":"19901 Van Dyke Ave.","zipcode":"48234"}],"inspectionsByEstablishmentidList":[{"inspectionid":"45217","inspectionDate":"2019-01-03T00:00:00","inspectionType":"Routine Inspection","inCompliance":"Yes","violationsByInspectionidList":[{"violationCode":"4-601.11","violationDescription":"(A) EQUIPMENT FOOD-CONTACT SURFACES and UTENSILS shall be clean to sight and touch. (Pf)\n(B) The FOOD-CONTACT SURFACES of cooking EQUIPMENT and pans shall be kept free of encrusted grease deposits and other soil accumulations. \n(C) NonFOOD-CONTACT SURFACES of EQUIPMENT shall be kept free of an accumulation of dust, dirt, FOOD residue, and other debris. \n","violationType":"Foundation","itemDescription":"Food-contact surface(s)","subItem":"","problemDescription":"Soiled","subProblem":"","location":"PREP AREA(S)","subLocation":"","corrected":"True","daysToCorrect":"10","correctedDate":"0001-01-01T00:00:00","correctionDescription":"Clean."},{"violationCode":"4-602.13","violationDescription":"NonFOOD-CONTACT SURFACES of EQUIPMENT shall be cleaned at a frequency necessary to preclude accumulation of soil residues.\n","violationType":"Core","itemDescription":"Nonfood contact surface(s)","subItem":"","problemDescription":"Soiled","subProblem":"","location":"DISHWASHING AREA","subLocation":"","corrected":"True","daysToCorrect":"30","correctedDate":"0001-01-01T00:00:00","correctionDescription":"Keep clean."},{"violationCode":"6-303.11","violationDescription":"Light of the proper intensity shall be provided as specified.\n","violationType":"Core","itemDescription":"Lighting intensity","subItem":"","problemDescription":"Not maintained","subProblem":"","location":"FREEZER","subLocation":"","corrected":"False","daysToCorrect":"30","correctedDate":null,"correctionDescription":"Provide"}]}]}],"maxInspectionDate":[{"inspectionDate":"2023-04-13T00:00:00"}]}},"pageContext":{"eid":"1187"}},"staticQueryHashes":["3649515864","63159454"]}