{"data":{"postgres":{"establishment":[{"establishmentid":"1942","name":"Kentucky Fried Chicken F428120","address":"22345 Grand River Ave","zipcode":"48219","owner":"FQSR LLC dba KBP Foods","licenseNumber":"202825","licenseType":"Fixed Establishment","establishmentType":"Food Service Establishment","establishmentStatus":"Open","riskCategory":null,"reviewFrequencyDays":"180.0","coords":"-83.26178,42.41780","geojson":{"id":"1942","type":"Feature","geometry":{"type":"Point","coordinates":[-83.261777302,42.417801324]},"properties":{"name":"Kentucky Fried Chicken F428120","owner":"FQSR LLC dba KBP Foods","address":"22345 Grand River Ave","zipcode":"48219","license_type":"Fixed Establishment","risk_category":null,"license_number":"202825","establishmentid":"1942","establishment_type":"Food Service Establishment","establishment_status":"Open","review_frequency_days":"180.0","most_recent_license_date":"5/31/2017"}},"nearbyList":[{"establishmentid":"4882","name":"Nicky D's Coney Island","address":"22365 Grand River","zipcode":"48219"},{"establishmentid":"620","name":"Wendy's Restaurant #4","address":"22222 Grand River Ave","zipcode":"48219"},{"establishmentid":"2749","name":"Old Redford Academy","address":"17195 Redford Ave","zipcode":"48219"},{"establishmentid":"4490","name":"Old Redford Community Development  LLC","address":"17405 Lahser","zipcode":"48219"},{"establishmentid":"4249","name":"Crazy Joe's Pizza","address":"22019 Grand River Ave","zipcode":"48219"},{"establishmentid":"3593","name":"Redford Theater","address":"17360 Lahser Rd","zipcode":"48219"},{"establishmentid":"5026","name":"Old Redford Kitchen & Cafe","address":"21733 W Grand River","zipcode":"48219"},{"establishmentid":"791","name":"Sha Max","address":"18050 Lahser Rd","zipcode":"48219"},{"establishmentid":"2218","name":"JMC Inc VII dba McDonalds","address":"21640 Grand River Ave","zipcode":"48219"},{"establishmentid":"51622472","name":"Maty's Africa Resturant","address":"21611 Grand River","zipcode":"48219"},{"establishmentid":"5177","name":"Asian Corned Beef","address":"21559 Grand River Ave","zipcode":"48219"},{"establishmentid":"1331","name":"Restoration Towers","address":"16651 Lahser Rd","zipcode":"48219"},{"establishmentid":"5424","name":"China House ","address":"21427 Grand River Ste 220","zipcode":"48219"},{"establishmentid":"5196","name":"Captain Jay's Fish & Chicken #113","address":"21431 Grand River","zipcode":"48219"},{"establishmentid":"576","name":"Detroit Service Learning Academy","address":"21605 W Seven Mile Rd","zipcode":"48219"},{"establishmentid":"3930","name":"Manhattan Fish & Chicken","address":"22000 W Seven Mile Rd","zipcode":"48219"},{"establishmentid":"2342","name":"Bookie's Ham & Soul ","address":"23636 Grand River Ave","zipcode":"48219"},{"establishmentid":"1592","name":"Christ the King Grade School","address":"16800 Trinity ","zipcode":"48219"},{"establishmentid":"1875","name":"Greater Grace Temple","address":"23500 W Seven Mile Rd","zipcode":"48219"},{"establishmentid":"676","name":"J's Cafe","address":"20853 Grand River Ave","zipcode":"48219"}],"inspectionsByEstablishmentidList":[{"inspectionid":"44808","inspectionDate":"2019-01-08T00:00:00","inspectionType":"Routine Inspection","inCompliance":"Yes","violationsByInspectionidList":[{"violationCode":"MFL289.4119","violationDescription":"Sec. 4119. (1) Except as otherwise provided in subsection (2), a person licensed as a food establishment under this chapter shall keep a copy of the current license or temporary license furnished by the department posted and exposed in a conspicuous place for public inspection. A conspicuous place is the principal place where food business is transacted.  (2) In the case of vending machines, the name and address and telephone number of the current vending machine location operator shall be conspicuously displayed on each vending machine.","violationType":"Core","itemDescription":"Food Service License","subItem":"","problemDescription":"Not displayed","subProblem":"","location":"ESTABLISHMENT","subLocation":"","corrected":"Not required","daysToCorrect":"30.0","correctedDate":null,"correctionDescription":null}]},{"inspectionid":"42729","inspectionDate":"2018-06-26T00:00:00","inspectionType":"Routine Inspection","inCompliance":"Yes","violationsByInspectionidList":[]},{"inspectionid":"41289","inspectionDate":"2018-01-12T00:00:00","inspectionType":"Routine Inspection","inCompliance":"Yes","violationsByInspectionidList":[]},{"inspectionid":"39206","inspectionDate":"2017-07-12T00:00:00","inspectionType":"Routine Inspection","inCompliance":"Yes","violationsByInspectionidList":[{"violationCode":"6-301.12","violationDescription":"Each HANDWASHING SINK or group of adjacent HANDWASHING SINKS shall be provided with:\r\n(A) Individual, disposable towels; (Pf)\r\n(B) A continuous towel system that supplies the user with a clean towel;(Pf) or \r\n(C) A heated-air hand drying device.(Pf)\r\n(D) A hand drying device that employs an air-knife system that delivers high velocity pressurized air at ambient temperatures.(Pf)\r\n","violationType":"Foundation","itemDescription":"Sanitary hand drying provisions","subItem":"disposable, paper towels","problemDescription":"Not provided","subProblem":"At hand sink","location":"KITCHEN","subLocation":"","corrected":"Yes","daysToCorrect":"10.0","correctedDate":"2017-07-12T00:00:00","correctionDescription":"Provide"}]},{"inspectionid":"38000","inspectionDate":"2017-02-02T00:00:00","inspectionType":"Routine Inspection","inCompliance":"Yes","violationsByInspectionidList":[{"violationCode":"6-301.12","violationDescription":"Each HANDWASHING SINK or group of adjacent HANDWASHING SINKS shall be provided with:\r\n(A) Individual, disposable towels; (Pf)\r\n(B) A continuous towel system that supplies the user with a clean towel;(Pf) or \r\n(C) A heated-air hand drying device.(Pf)\r\n(D) A hand drying device that employs an air-knife system that delivers high velocity pressurized air at ambient temperatures.(Pf)\r\n","violationType":"Foundation","itemDescription":"Sanitary hand drying provisions","subItem":"disposable, paper towels","problemDescription":"Not provided","subProblem":"At hand sink","location":"KITCHEN","subLocation":"","corrected":"Yes","daysToCorrect":"10.0","correctedDate":"2017-02-02T00:00:00","correctionDescription":"Provide"}]},{"inspectionid":"36408","inspectionDate":"2016-09-12T00:00:00","inspectionType":"Routine Inspection","inCompliance":"Yes","violationsByInspectionidList":[{"violationCode":"6-301.12","violationDescription":"Each HANDWASHING SINK or group of adjacent HANDWASHING SINKS shall be provided with:\r\n(A) Individual, disposable towels; (Pf)\r\n(B) A continuous towel system that supplies the user with a clean towel;(Pf) or \r\n(C) A heated-air hand drying device.(Pf)\r\n(D) A hand drying device that employs an air-knife system that delivers high velocity pressurized air at ambient temperatures.(Pf)\r\n","violationType":"Foundation","itemDescription":"Sanitary hand drying provisions","subItem":"disposable, paper towels","problemDescription":"Not provided","subProblem":"At hand sink","location":"KITCHEN","subLocation":"","corrected":"Yes","daysToCorrect":"10.0","correctedDate":"2016-09-12T00:00:00","correctionDescription":"Provide"}]}]}]}},"pageContext":{"eid":"1942"}}