{"data":{"postgres":{"establishment":[{"establishmentid":"3555","name":"Friends of Detroit & Tri County","address":"8230 E Forest Ave","zipcode":"48214","owner":"Michael Wimberly","licenseNumber":"058532","licenseType":"Fixed Establishment","establishmentType":"Food Service Establishment","establishmentStatus":"Open","riskCategory":null,"reviewFrequencyDays":"180.0","coords":"-83.00849,42.37483","geojson":{"id":"3555","type":"Feature","geometry":{"type":"Point","coordinates":[-83.008489759,42.3748270570001]},"properties":{"name":"Friends of Detroit & Tri County","owner":"Michael Wimberly","address":"8230 E Forest Ave","zipcode":"48214","license_type":"Fixed Establishment","risk_category":null,"license_number":"058532","establishmentid":"3555","establishment_type":"Food Service Establishment","establishment_status":"Open","review_frequency_days":"180.0","most_recent_license_date":"4/30/2018"}},"nearbyList":[{"establishmentid":"4831","name":"Cesar Chavez Academy - East","address":"4130 Maxwell","zipcode":"48214"},{"establishmentid":"2327","name":"Wendy's ","address":"7850 Gratiot Ave","zipcode":"48213"},{"establishmentid":"1548","name":"Anani ","address":"7650 Gratiot Ave","zipcode":"48213"},{"establishmentid":"51622687","name":"House of BBQ","address":"8300 Gratiot Ave","zipcode":"48213"},{"establishmentid":"932","name":"Brewer's Party Room","address":"8225 Gratiot Ave","zipcode":"48213"},{"establishmentid":"51622465","name":"The Commons","address":"7900 Mack Ave","zipcode":"48214"},{"establishmentid":"4017","name":"Little Caesars Pizza","address":"7447 Gratiot Ave","zipcode":"48213"},{"establishmentid":"1158","name":"Franklin Gourmet Dairy Bar","address":"8405 Mack Ave","zipcode":"48214"},{"establishmentid":"317","name":"Elbow Lounge","address":"7310 Mack Ave","zipcode":"48214"},{"establishmentid":"1244","name":"Bethel Baptist Church East","address":"5715 Holcomb St","zipcode":"48213"},{"establishmentid":"4294","name":"King Fish Market","address":"1167 E Grand Blvd","zipcode":"48211"},{"establishmentid":"3874","name":"Covenant East /Lifeskills","address":"7600 Goethe St","zipcode":"48214"},{"establishmentid":"4999","name":"Big A's Concessions","address":"5119 Cadillac","zipcode":"48213"},{"establishmentid":"1006","name":"John Nichols Elementary","address":"3000 Burns","zipcode":"48214"},{"establishmentid":"3821","name":"Shabazz East Restaurant","address":"4712-16 Cadillac Blvd","zipcode":"48214"},{"establishmentid":"1436","name":"Blackwell Institute","address":"9330 Shoemaker St","zipcode":"48213"},{"establishmentid":"51622851","name":"Dilla's Delights LLC","address":"4731 Bellevue St","zipcode":"48207"},{"establishmentid":"51622484","name":"Avalon Commissary","address":"4731 Bellevue St","zipcode":"48207"},{"establishmentid":"207","name":"Burger King ","address":"9239 Gratiot Ave","zipcode":"48213"},{"establishmentid":"1037","name":"Detroit Lions Academy","address":"10101 E Canfield","zipcode":"48214"}],"inspectionsByEstablishmentidList":[{"inspectionid":"44799","inspectionDate":"2019-01-09T00:00:00","inspectionType":"Routine Inspection","inCompliance":"Yes","violationsByInspectionidList":[{"violationCode":"7-204.11","violationDescription":"Chemical SANITIZERS and other chemical antimicrobials applied to FOOD-CONTACT SURFACES shall meet the requirements specified in this code. (P)\r\n","violationType":"Priority","itemDescription":"Sanitizer(s)","subItem":"","problemDescription":"Do not comply with law","subProblem":"","location":"KITCHEN","subLocation":"At the Sanitizer","corrected":"Yes","daysToCorrect":"10.0","correctedDate":"2019-01-23T00:00:00","correctionDescription":"Provide labels that comply with law."}]},{"inspectionid":"42937","inspectionDate":"2018-07-19T00:00:00","inspectionType":"Routine Inspection","inCompliance":"Yes","violationsByInspectionidList":[]},{"inspectionid":"41306","inspectionDate":"2018-01-22T00:00:00","inspectionType":"Routine Inspection","inCompliance":"Yes","violationsByInspectionidList":[{"violationCode":"5-205.15","violationDescription":"A PLUMBING SYSTEM shall be:\r\n(A) Repaired according to LAW; (P) and\r\n(B) Maintained in good repair.\r\n","violationType":"Core","itemDescription":"Plumbing system","subItem":"water line(s)","problemDescription":"Not maintained","subProblem":"","location":"KITCHEN","subLocation":"At the Three compartment sink","corrected":"Not required","daysToCorrect":"10.0","correctedDate":null,"correctionDescription":"Maintain in good repair"}]},{"inspectionid":"39361","inspectionDate":"2017-07-27T00:00:00","inspectionType":"Routine Inspection","inCompliance":"Yes","violationsByInspectionidList":[]},{"inspectionid":"37853","inspectionDate":"2017-02-01T00:00:00","inspectionType":"Routine Inspection","inCompliance":"Yes","violationsByInspectionidList":[{"violationCode":"4-501.11","violationDescription":"EQUIPMENT shall be maintained in a state of repair and condition that meets the requirements of the code.\r\n","violationType":"Core","itemDescription":"Equipment components","subItem":"","problemDescription":"In poor repair","subProblem":"","location":"KITCHEN","subLocation":"At the Digital Thermometer","corrected":"Yes","daysToCorrect":"30.0","correctedDate":"2017-02-01T00:00:00","correctionDescription":null},{"violationCode":"6-501.12","violationDescription":"(A) PHYSICAL FACILITIES shall be cleaned as often as necessary to keep them clean.\r\n(B) Except spill cleanup, cleaning shall be done during periods when the least amount of FOOD is exposed such as after closing. ","violationType":"Core","itemDescription":"Physical facilities/structures","subItem":"walls","problemDescription":"Soiled","subProblem":"","location":"STORAGE ROOM","subLocation":"At the Wall(s)","corrected":"Yes","daysToCorrect":"30.0","correctedDate":"2017-02-01T00:00:00","correctionDescription":"Keep clean."}]}]}]}},"pageContext":{"eid":"3555"}}