{"componentChunkName":"component---src-templates-establishment-page-js","path":"/establishment/3098","result":{"data":{"site":{"pathPrefix":"/restaurant-inspections"},"postgres":{"establishment":[{"establishmentid":"3098","name":"Olympia Coney Island","address":"11429 Seven Mile Rd. E.","zipcode":"48213","owner":"Donny Dedvukaj","licenseNumber":"046700","licenseType":"Fixed Establishment","establishmentType":"Food Service Establishment","establishmentStatus":"Temporarily Closed","riskCategory":null,"reviewFrequencyDays":"150","coords":"-83.00611,42.43459","geojson":{"id":"3098","type":"Feature","geometry":{"type":"Point","coordinates":[-83.006105704,42.434589568]},"properties":{"name":"Olympia Coney Island","owner":"Donny Dedvukaj","address":"11429 Seven Mile Rd. E.","zipcode":"48213","license_type":"Fixed Establishment","risk_category":null,"license_number":"046700","establishmentid":"3098","establishment_type":"Food Service Establishment","establishment_status":"Temporarily Closed","review_frequency_days":"150","most_recent_license_date":"5/25/2007"}},"nearbyList":[{"establishmentid":"3744","name":"Two Brothers Soul Food","address":"11429 Seven Mile Rd. E.","zipcode":"48234"},{"establishmentid":"51623618","name":"5 Stars Royal Fish & Chicken LLC","address":"11429 Seven Mile","zipcode":"48234"},{"establishmentid":"4042","name":"Starlight Grill","address":"11429 Seven Mile Rd. E.","zipcode":"48234"},{"establishmentid":"5411","name":"Royal Fish & Chicken Inc.","address":"11429 7 Mile East","zipcode":"48234"},{"establishmentid":"3639","name":"Olympia Coney Island","address":"11429 Seven Mile Rd. E.","zipcode":"48234"},{"establishmentid":"940","name":"Osborn Senior High School","address":"11600 Seven Mile Rd. E.","zipcode":"48205"},{"establishmentid":"3797","name":"R & D One Stop Meals","address":"11811 Seven Mile Rd. E.","zipcode":"48205"},{"establishmentid":"5338","name":"R & D One Stop Meals ( King Kong) ","address":"11811 Seven Mile E.","zipcode":"48205"},{"establishmentid":"4772","name":"Me & My Girls Soul Food","address":"11831 Seven Mile Rd. E.","zipcode":"48205"},{"establishmentid":"398","name":"Happy's Pizza","address":"11831 Seven Mile Rd. E.","zipcode":"48205"}],"inspectionsByEstablishmentidList":[{"inspectionid":"49906","inspectionDate":"2019-03-13T00:00:00","inspectionType":"Routine Inspection","inCompliance":"No","violationsByInspectionidList":[{"violationCode":"2-301.14","violationDescription":"FOOD EMPLOYEES shall clean their hands and exposed portions of their arms as specified under § 2-301.12 immediately before engaging in FOOD preparation including working with exposed FOOD, clean EQUIPMENT and UTENSILS, and unwrapped SINGLE-SERVICE and SINGLE-USE ARTICLES (P) and:\n(A)     After touching bare human body parts other than clean hands and clean, exposed portions of arms; (P)\n(B)     After using the toilet room; (P)\n(C)     After caring for or handling SERVICE ANIMALS or aquatic animals as specified in ¶ 2-403.11(B); (P).\n(D)     Except as specified in ¶ 2-401.11(B), after coughing, sneezing, using a handkerchief or disposable tissue, using tobacco, eating, or drinking; (P)\n(E)     After handling soiled EQUIPMENT or UTENSILS; (P)\n(F)     During FOOD preparation, as often as necessary to remove soil and contamination and to prevent cross contamination when changing tasks; (P)\n(G)     When switching between working with raw FOOD and working with READY-TO-EAT FOOD; (P)\n(H)     Before donning gloves for working with FOOD; (P) and\n(I)      After engaging in other activities that contaminate the hands. (P)","violationType":"Priority","itemDescription":"Employee(s)","subItem":null,"problemDescription":"Did not wash hands","subProblem":"after other activities","location":"EMPLOYEE(S)","subLocation":null,"corrected":"True","daysToCorrect":"10","correctedDate":"2019-03-13T00:00:00","correctionDescription":null},{"violationCode":"5-202.12","violationDescription":"(A) A handwashing sink shall be equipped to provide water at a temperature of at least 38°C (100°F) through a mixing valve or combination faucet. (Pf)  \n(B) A steam mixing valve may not be used at a handwashing sink.  \n(C) A self-closing, slow-closing, or metering faucet shall provide a flow of water for at least 15 seconds without the need to reactivate the faucet.   \n(D) An automatic handwashing facility shall be installed in accordance with manufacturer's instructions.\n","violationType":"Foundation","itemDescription":"Handwashing facility","subItem":null,"problemDescription":"Lack of hot water","subProblem":null,"location":"HANDSINK(S)","subLocation":null,"corrected":"False","daysToCorrect":"10","correctedDate":null,"correctionDescription":null}]}]}],"maxInspectionDate":[{"inspectionDate":"2022-07-25T00:00:00"}]}},"pageContext":{"eid":"3098"}},"staticQueryHashes":["3649515864","63159454"]}