{"componentChunkName":"component---src-templates-establishment-page-js","path":"/establishment/51623013","result":{"data":{"site":{"pathPrefix":"/restaurant-inspections"},"postgres":{"establishment":[{"establishmentid":"51623013","name":"Ms. Ruth's Catering","address":"8000 E. Jefferson","zipcode":"48214","owner":"Tammi Reed","licenseNumber":"238139","licenseType":"Fixed Establishment","establishmentType":"Food Service Establishment","establishmentStatus":"Permanently Closed","riskCategory":null,"reviewFrequencyDays":"150","coords":"-82.99376,42.35020","geojson":{"id":"51623013","type":"Feature","geometry":{"type":"Point","coordinates":[-82.993764988,42.350200997]},"properties":{"name":"Ms. Ruth's Catering","owner":"Tammi Reed","address":"8000 E. Jefferson","zipcode":"48214","license_type":"Fixed Establishment","risk_category":null,"license_number":"238139","establishmentid":"51623013","establishment_type":"Food Service Establishment","establishment_status":"Permanently Closed","review_frequency_days":"150","most_recent_license_date":null}},"nearbyList":[{"establishmentid":"51623468","name":"UAW Solidarity House","address":"8000 Jefferson Ave ","zipcode":"48214"},{"establishmentid":"419","name":"Kosch/ U.A.W.","address":"8000 Jefferson Ave. E.","zipcode":"48214"},{"establishmentid":"4984","name":"Four Seasons Catering LLC","address":"8000 Jefferson E","zipcode":"48214"},{"establishmentid":"3022","name":"Robinson Dairy Vending","address":"8000 Jefferson E.","zipcode":"48214"},{"establishmentid":"51623142","name":"River Towers Apartments","address":"7800 Jefferson  Ave. E.","zipcode":"48214"},{"establishmentid":"1091","name":"River Towers Apartments","address":"7800 Jefferson Ave. E.","zipcode":"48214"},{"establishmentid":"1870","name":"Belle Isle Pizza (fka) Garalino's Pizza","address":"7869 Jefferson Ave. E.","zipcode":"48214"},{"establishmentid":"51623103","name":"Detroit Grill & Chill","address":"8009 Jefferson E.","zipcode":"48214"},{"establishmentid":"51623649","name":"Frederick Stearns House","address":"8109 Jefferson E.","zipcode":"48214"},{"establishmentid":"713","name":"American Vending","address":"8045 Jefferson Ave. E.","zipcode":"48214"}],"inspectionsByEstablishmentidList":[{"inspectionid":"47867","inspectionDate":"2019-05-23T00:00:00","inspectionType":"Routine Inspection","inCompliance":"Yes","violationsByInspectionidList":[{"violationCode":"4-302.12","violationDescription":"(A) FOOD TEMPERATURE MEASURING DEVICES shall be provided and readily accessible for use in ensuring attainment and maintenance of FOOD temperatures as specified under Chapter 3. (Pf)   \n(B) A TEMPERATURE MEASURING DEVICE with a suitable small-diameter probe that is designed to measure the temperature of thin masses shall be provided and readily accessible to accurately measure the temperature in thin FOODS such as MEAT patties and FISH filets. (Pf)\n","violationType":"Foundation","itemDescription":"Food thermometer(s)","subItem":"probe","problemDescription":"Not available","subProblem":null,"location":"ESTABLISHMENT","subLocation":"Not provided (with) Digital Thermometer","corrected":"True","daysToCorrect":"10","correctedDate":"2019-06-04T00:00:00","correctionDescription":null},{"violationCode":"4-501.11","violationDescription":"EQUIPMENT shall be maintained in a state of repair and condition that meets the requirements of the code.\n","violationType":"Core","itemDescription":"Equipment components","subItem":null,"problemDescription":"Not adjusted per manufacturer's specifications","subProblem":null,"location":"KITCHEN","subLocation":"At the FILTERS","corrected":"False","daysToCorrect":"30","correctedDate":null,"correctionDescription":null}]}]}],"maxInspectionDate":[{"inspectionDate":"2022-07-25T00:00:00"}]}},"pageContext":{"eid":"51623013"}},"staticQueryHashes":["3649515864","63159454"]}