{"componentChunkName":"component---src-templates-establishment-page-js","path":"/establishment/51622654","result":{"data":{"site":{"pathPrefix":"/restaurant-inspections"},"postgres":{"establishment":[{"establishmentid":"51622654","name":"La Reata","address":"1633 Lawndale","zipcode":"48209","owner":"Nancy Diaz","licenseNumber":"237726","licenseType":"Mobile Food Establishment","establishmentType":"LHD - Mobile Food Establishmen","establishmentStatus":"Seasonal","riskCategory":"Medium","reviewFrequencyDays":"180","coords":"-83.12967,42.30469","geojson":{"id":"51622654","type":"Feature","geometry":{"type":"Point","coordinates":[-83.129674215,42.304693411]},"properties":{"name":"La Reata","owner":"Nancy Diaz","address":"1633 Lawndale","zipcode":"48209","license_type":"Mobile Food Establishment","risk_category":"Medium","license_number":"237726","establishmentid":"51622654","establishment_type":"LHD - Mobile Food Establishmen","establishment_status":"Seasonal","review_frequency_days":"180","most_recent_license_date":"23/4/2019"}},"nearbyList":[{"establishmentid":"4960","name":"El Parian Commissary","address":"1633 Lawndale","zipcode":"48209"},{"establishmentid":"51622914","name":"La Palapa Del Parian","address":"1633 Lawndale","zipcode":"48209"},{"establishmentid":"4990","name":"Marisqueria El Emperio","address":"1633 Lawndale","zipcode":"48209"},{"establishmentid":"4803","name":"El Parian Commissary","address":"1633 Lawndale","zipcode":"48209"},{"establishmentid":"3383","name":"La Terraza","address":"1633  Lawndale","zipcode":"48209"},{"establishmentid":"5028","name":"Marisqueria El Emperio","address":"1633 Lawndale","zipcode":"48209"},{"establishmentid":"51623625","name":"LA Palapa Del Parian ","address":"1631 Lawndale ","zipcode":"48209"},{"establishmentid":"51623434","name":"El Mayab Cocina Yucateca LLC","address":"8845 Mason Place","zipcode":"48209"},{"establishmentid":"1356","name":"SW Det Lodge #1870 Loo Moose","address":"2034 Lawndale","zipcode":"48209"},{"establishmentid":"674","name":"Stankos Bar","address":"1550 Mullane St","zipcode":"48209"}],"inspectionsByEstablishmentidList":[{"inspectionid":"59932","inspectionDate":"2022-07-12T00:00:00","inspectionType":"Mobile Inspection","inCompliance":"Yes","violationsByInspectionidList":[]},{"inspectionid":"54119","inspectionDate":"2021-02-15T00:00:00","inspectionType":"Closed - Temporary","inCompliance":"Yes","violationsByInspectionidList":[]},{"inspectionid":"47722","inspectionDate":"2019-05-16T00:00:00","inspectionType":"Mobile Inspection","inCompliance":"Yes","violationsByInspectionidList":[{"violationCode":"6-303.11","violationDescription":"Light of the proper intensity shall be provided as specified.\n","violationType":"Core","itemDescription":"Lighting intensity","subItem":"","problemDescription":"Not maintained","subProblem":"","location":"MOBILE UNIT","subLocation":"Under the Ventilation hood","corrected":"True","daysToCorrect":"30","correctedDate":"0001-01-01T00:00:00","correctionDescription":null},{"violationCode":"4-903.11","violationDescription":"Cleaned EQUIPMENT and UTENSILS, laundered LINENS, and SINGLE-SERVICE and SINGLE-USE ARTICLES shall be stored in an approved manner and location.\n","violationType":"Core","itemDescription":"Single-service/single-use article(s)","subItem":"","problemDescription":"Exposed to dust, splash, or other contaminates","subProblem":"Not covered","location":"MOBILE UNIT","subLocation":"At the Single service items","corrected":"False","daysToCorrect":"30","correctedDate":null,"correctionDescription":null}]}]}],"maxInspectionDate":[{"inspectionDate":"2023-04-13T00:00:00"}]}},"pageContext":{"eid":"51622654"}},"staticQueryHashes":["3649515864","63159454"]}