{"data":{"site":{"pathPrefix":"/restaurant-inspections"},"postgres":{"establishment":[{"establishmentid":"3163","name":"Detroit Public Safety Academy","address":"1250 Rosa Parks Blvd","zipcode":"48216","owner":"Isaiah Pettway","licenseNumber":"077869","licenseType":"Fixed Establishment","establishmentType":"Non-Public School","establishmentStatus":"Open","riskCategory":null,"reviewFrequencyDays":"180.0","coords":"-83.06736,42.32516","geojson":{"id":"3163","type":"Feature","geometry":{"type":"Point","coordinates":[-83.0673647949999,42.325156258]},"properties":{"name":"Detroit Public Safety Academy","owner":"Isaiah Pettway","address":"1250 Rosa Parks Blvd","zipcode":"48216","license_type":"Fixed Establishment","risk_category":null,"license_number":"077869","establishmentid":"3163","establishment_type":"Non-Public School","establishment_status":"Open","review_frequency_days":"180.0","most_recent_license_date":"5/4/2018"}},"nearbyList":[{"establishmentid":"5072","name":"Bucharest Catering ","address":"1697 Abbott St","zipcode":"48216"},{"establishmentid":"5174","name":"Red Dunn/ Events","address":"1331 Trumbull","zipcode":"48216"},{"establishmentid":"51622514","name":"Burroughs","address":"1331 Trumbull","zipcode":"48216"},{"establishmentid":"1082","name":"Salvation Army","address":"1627 W Fort St","zipcode":"48216"},{"establishmentid":"4013","name":"Le Petit Zinc","address":"1055 Trumbull","zipcode":"48216"},{"establishmentid":"2656","name":"Valley Foods","address":"1980 Bagley","zipcode":"48216"},{"establishmentid":"51622591","name":"The Farmer's Hand LLC /DBA Folk","address":"1701 Trumbull Ste B","zipcode":"48216"},{"establishmentid":"51622639","name":"Meta Physica Wellness Center","address":"1701 Trumbull Ste 3","zipcode":"48216"},{"establishmentid":"5124","name":"Mercy Education Project","address":"1450 Howard St","zipcode":"48216"},{"establishmentid":"4939","name":"Batch Brewing Company","address":"1408 Porter St","zipcode":"48216"}],"inspectionsByEstablishmentidList":[{"inspectionid":"44153","inspectionDate":"2018-11-20T00:00:00","inspectionType":"Routine Inspection","inCompliance":"Yes","violationsByInspectionidList":[]},{"inspectionid":"42630","inspectionDate":"2018-06-21T00:00:00","inspectionType":"Routine Inspection","inCompliance":"Yes","violationsByInspectionidList":[]},{"inspectionid":"41498","inspectionDate":"2018-02-15T00:00:00","inspectionType":"Routine Inspection","inCompliance":"Yes","violationsByInspectionidList":[]},{"inspectionid":"39898","inspectionDate":"2017-09-14T00:00:00","inspectionType":"Routine Inspection","inCompliance":"Yes","violationsByInspectionidList":[]},{"inspectionid":"38311","inspectionDate":"2017-03-20T00:00:00","inspectionType":"Routine Inspection","inCompliance":"Yes","violationsByInspectionidList":[{"violationCode":"7-204.11","violationDescription":"Chemical SANITIZERS and other chemical antimicrobials applied to FOOD-CONTACT SURFACES shall meet the requirements specified in this code. (P)\r\n","violationType":"Priority","itemDescription":"Sanitizer(s)","subItem":"","problemDescription":null,"subProblem":"","location":"KITCHEN","subLocation":"No Sanitizer","corrected":"Yes","daysToCorrect":"10.0","correctedDate":"2017-03-20T00:00:00","correctionDescription":null}]},{"inspectionid":"36580","inspectionDate":"2016-09-28T00:00:00","inspectionType":"Routine Inspection","inCompliance":"Yes","violationsByInspectionidList":[{"violationCode":"4-502.11","violationDescription":"(A) UTENSILS shall be maintained in a state of repair or condition that complies with the requirements specified under Parts 4-1 and 4-2 or shall be discarded.\r\n(B) FOOD TEMPERATURE MEASURING DEVICES shall be calibrated in accordance with manufacturer's specifications as necessary to ensure their accuracy. (Pf)   \r\n(C) Ambient air temperature, water pressure, and water TEMPERATURE MEAURING DEVICES shall be maintained in good repair and be accurate within the intended range of use.","violationType":"Foundation","itemDescription":"Food thermometer(s)","subItem":"probe","problemDescription":"Not calibrated","subProblem":"","location":"KITCHEN","subLocation":"At the Thermometer(s)","corrected":"Yes","daysToCorrect":"10.0","correctedDate":"2016-09-28T00:00:00","correctionDescription":"Calibrate in accordance with manufacturer specifications."},{"violationCode":"4-204.112","violationDescription":"(A)  In a mechanically refrigerated or hot FOOD storage unit, the sensor of a TEMPERATURE MEASURING DEVICE shall be located to measure the air temperature in the warmest part of a mechanically refrigerated unit and in the coolest part of a hot FOOD storage unit.\r\n(B)  Cold or hot holding EQUIPMENT used for POTENTIALLY HAZARDOUS FOOD shall be designed to include and shall be equipped with at least one integral or permanently affixed TEMPERATURE MEASURING DEVICE that is located to allow easy viewing of the device's temperature display (EXCEPT, heat lamps, cold plates, steam tables, or other equipment where it is not practical).\r\n(C)  TEMPERATURE MEASURING DEVICES shall be designed to be easily readable.\r\n(D)  FOOD TEMPERATURE MEASURING DEVICES and water TEMPERATURE MEASURING DEVICES on WAREWASHING machines shall have a numerical scale, printed record, or digital readout in increments no greater than 1C or 2F in the intended range of use. (Pf)\r\n\r\n","violationType":"Core","itemDescription":"Thermometer(s)","subItem":"refrigeration","problemDescription":"Not provided","subProblem":"","location":"REAR STORAGE AREA","subLocation":"Inside the Cooler (2 door)","corrected":"Not required","daysToCorrect":"10.0","correctedDate":null,"correctionDescription":"Provide as required"}]}]}],"maxInspectionDate":[{"inspectionDate":"2019-03-31T00:00:00"}]}},"pageContext":{"eid":"3163"}}