{"data":{"postgres":{"establishment":[{"establishmentid":"4946","name":"Dominos Pizza","address":"535 Griswold","zipcode":"48226","owner":"Randy Asmar","licenseNumber":"080180","licenseType":"Fixed Establishment","establishmentType":"Food Service Establishment","establishmentStatus":"Open","riskCategory":"Medium","reviewFrequencyDays":"365.0","coords":"-83.04694,42.32943","geojson":{"id":"4946","type":"Feature","geometry":{"type":"Point","coordinates":[-83.0469385219999,42.3294305590001]},"properties":{"name":"Dominos Pizza","owner":"Randy Asmar","address":"535 Griswold","zipcode":"48226","license_type":"Fixed Establishment","risk_category":"Medium","license_number":"080180","establishmentid":"4946","establishment_type":"Food Service Establishment","establishment_status":"Open","review_frequency_days":"365.0","most_recent_license_date":"4/27/2018"}},"nearbyList":[{"establishmentid":"1687","name":"The Green Room","address":"120 W Congress","zipcode":"48226"},{"establishmentid":"4371","name":"Flat 151","address":"151 W Congress St","zipcode":"48226"},{"establishmentid":"3791","name":"Mr. Pita","address":"615 Griswold","zipcode":"48226"},{"establishmentid":"2704","name":"Jimmy John's Sandwiches #573","address":"615 Griswold","zipcode":"48226"},{"establishmentid":"4032","name":"London Chop House","address":"155 W Congress Ste 10","zipcode":"48226"},{"establishmentid":"5194","name":"The Caucus Club","address":"150 W Congress","zipcode":"48226"},{"establishmentid":"5418","name":"The Guardian Cafe","address":"500 Griswold St","zipcode":"48226"},{"establishmentid":"51622894","name":"Crazy Gringo Express","address":"500 Griswold","zipcode":"48226"},{"establishmentid":"3202","name":"Rowland Cafe","address":"500 Griswold St","zipcode":"48226"},{"establishmentid":"5110","name":"Which Wich? Superior Sandwiches","address":"645 Griswold St Ste. 1300","zipcode":"48226"},{"establishmentid":"4799","name":"Drive Table Tennis Social Club","address":"645 Griswold St ","zipcode":"48226"},{"establishmentid":"4449","name":"Carnival Fresh Mex","address":"645 Griswold St  Ste. 56 ","zipcode":"48226"},{"establishmentid":"3859","name":"Fastbreak Donut (Detroit Donut)","address":"645 Griswold St","zipcode":"48226"},{"establishmentid":"4365","name":"Eurest Cafe' Qzine","address":"611 Woodward Ave","zipcode":"48226"},{"establishmentid":"1531","name":"TJ's Grill Works Inc","address":"150 W Jefferson Ave","zipcode":"48226"},{"establishmentid":"51622608","name":"Anita's Kitchen","address":"150 W Jefferson Ave","zipcode":"48226"},{"establishmentid":"4182","name":"Terrace Cafe","address":"150 W Jefferson Ave. STE 180","zipcode":"48226"},{"establishmentid":"51622749","name":"Trust Night Club","address":"205 W Congress","zipcode":"4821"},{"establishmentid":"5149","name":"Epitome Lounge","address":"205 W Congress","zipcode":"48226"},{"establishmentid":"51622554","name":"Brome Modern Eatery","address":"607 Shelby St","zipcode":"48226"}],"inspectionsByEstablishmentidList":[{"inspectionid":"41671","inspectionDate":"2018-03-07T00:00:00","inspectionType":"Routine Inspection","inCompliance":"No","violationsByInspectionidList":[{"violationCode":"3-501.16","violationDescription":"Except during preparation, cooking, or cooling, or when time is used as the public health control POTENTIALLY HAZARDOUS FOOD (TIME/TEMPERATURE CONTROL FOR SAFETY FOOD) shall be maintained:\r\n(A)  135ºF or above, except that roasts properly cooked and cooled may be held              at a temperature of 130ºF; or (P)\r\n(B)   At 41ºF or less (P)\r\n","violationType":"Priority","itemDescription":"Cold food item(s)","subItem":"","problemDescription":"Stored above 41 degrees F","subProblem":"","location":"PIZZA PREP AREA","subLocation":"","corrected":"Yes","daysToCorrect":"10.0","correctedDate":"2018-03-07T00:00:00","correctionDescription":"Store below 41 degrees F."},{"violationCode":"6-301.12","violationDescription":"Each HANDWASHING SINK or group of adjacent HANDWASHING SINKS shall be provided with:\r\n(A) Individual, disposable towels; (Pf)\r\n(B) A continuous towel system that supplies the user with a clean towel;(Pf) or \r\n(C) A heated-air hand drying device.(Pf)\r\n(D) A hand drying device that employs an air-knife system that delivers high velocity pressurized air at ambient temperatures.(Pf)\r\n","violationType":"Foundation","itemDescription":"Sanitary hand drying provisions","subItem":"disposable, paper towels","problemDescription":"Not provided","subProblem":"At hand sink","location":"PREP AREA(S)","subLocation":"","corrected":"No","daysToCorrect":"10.0","correctedDate":null,"correctionDescription":"Provide"},{"violationCode":"7-102.11","violationDescription":"Working containers used for storing POISONOUS OR TOXIC MATERIALS such as cleaners and SANITIZERS taken from bulk supplies shall be clearly and individually identified with the common name of the material. (Pf)\r\n","violationType":"Foundation","itemDescription":"Working containers-toxics","subItem":"","problemDescription":"Not labeled as to content","subProblem":"","location":"CHEMICAL STORAGE AREA","subLocation":"","corrected":"No","daysToCorrect":"10.0","correctedDate":null,"correctionDescription":"Label containers with common name."}]},{"inspectionid":"38366","inspectionDate":"2017-03-29T00:00:00","inspectionType":"Routine Inspection","inCompliance":"Yes","violationsByInspectionidList":[{"violationCode":"5-501.17","violationDescription":"A toilet room used by females shall be provided with a covered receptacle for sanitary napkins.\r\n","violationType":"Core","itemDescription":"Covered waste receptacle(s)","subItem":"in public restroom","problemDescription":"Not provided","subProblem":"","location":"RESTROOM (UNISEX)","subLocation":"At the Covered waste container","corrected":"Not required","daysToCorrect":"30.0","correctedDate":null,"correctionDescription":"Provide as required"},{"violationCode":"4-501.11","violationDescription":"EQUIPMENT shall be maintained in a state of repair and condition that meets the requirements of the code.\r\n","violationType":"Core","itemDescription":"Equipment","subItem":"","problemDescription":"Broken","subProblem":"","location":"RESTAURANT","subLocation":"","corrected":"Not required","daysToCorrect":"30.0","correctedDate":null,"correctionDescription":"Repair/replace."}]}]}]}},"pageContext":{"eid":"4946"}}