{"data":{"site":{"pathPrefix":"/restaurant-inspections"},"postgres":{"establishment":[{"establishmentid":"4182","name":"Terrace Cafe","address":"150 W Jefferson Ave. STE 180","zipcode":"48226","owner":"Linda Dally","licenseNumber":"076895","licenseType":"Fixed Establishment","establishmentType":"Food Service Establishment","establishmentStatus":"Open","riskCategory":null,"reviewFrequencyDays":"365.0","coords":"-83.04655,42.32842","geojson":{"id":"4182","type":"Feature","geometry":{"type":"Point","coordinates":[-83.046552071,42.328417007]},"properties":{"name":"Terrace Cafe","owner":"Linda Dally","address":"150 W Jefferson Ave. STE 180","zipcode":"48226","license_type":"Fixed Establishment","risk_category":null,"license_number":"076895","establishmentid":"4182","establishment_type":"Food Service Establishment","establishment_status":"Open","review_frequency_days":"365.0","most_recent_license_date":"5/2/2018"}},"nearbyList":[{"establishmentid":"4946","name":"Dominos Pizza","address":"535 Griswold","zipcode":"48226"},{"establishmentid":"4393","name":"The Buhl Bar","address":"535 Griswold Ste 103","zipcode":"48226"},{"establishmentid":"3583","name":"Frank's Deli in the Buhl","address":"535 Griswold St #114","zipcode":"48226"},{"establishmentid":"4628","name":"La Dulce","address":"2 Washington Blvd","zipcode":"48226"},{"establishmentid":"4918","name":"Pontchartrain Hotel- Top of the Pontch","address":"2 Washington Blvd","zipcode":"48226"},{"establishmentid":"4768","name":"Pontchartrain Hotel - Tabbacci","address":"2 Washington Blvd","zipcode":"48226"},{"establishmentid":"51622736","name":"Pontchartrain Hotel-Jefferson House/Main","address":"2 Washington Blvd","zipcode":"48226"},{"establishmentid":"4032","name":"London Chop House","address":"155 W Congress Ste 10","zipcode":"48226"},{"establishmentid":"51622894","name":"Crazy Gringo Express","address":"500 Griswold","zipcode":"48226"},{"establishmentid":"5418","name":"The Guardian Cafe","address":"500 Griswold St","zipcode":"48226"},{"establishmentid":"3202","name":"Rowland Cafe","address":"500 Griswold St","zipcode":"48226"},{"establishmentid":"4371","name":"Flat 151","address":"151 W Congress St","zipcode":"48226"},{"establishmentid":"1687","name":"The Green Room","address":"120 W Congress","zipcode":"48226"},{"establishmentid":"2704","name":"Jimmy John's Sandwiches #573","address":"615 Griswold","zipcode":"48226"},{"establishmentid":"3791","name":"Mr. Pita","address":"615 Griswold","zipcode":"48226"},{"establishmentid":"5149","name":"Epitome Lounge","address":"205 W Congress","zipcode":"48226"},{"establishmentid":"51622749","name":"Trust Night Club","address":"205 W Congress","zipcode":"4821"},{"establishmentid":"3806","name":"Mikes Legends Catering Inc.","address":"151 W Jefferson Ave","zipcode":"48226"},{"establishmentid":"5194","name":"The Caucus Club","address":"150 W Congress","zipcode":"48226"},{"establishmentid":"5396","name":"Foundation Hotel- Apparatus Room","address":"250 W Larned","zipcode":"48226"}],"inspectionsByEstablishmentidList":[{"inspectionid":"42888","inspectionDate":"2018-07-16T00:00:00","inspectionType":"Routine Inspection","inCompliance":"Yes","violationsByInspectionidList":[{"violationCode":"3-302.11","violationDescription":"(A) FOOD shall be protected from cross contamination by:  \r\n(1) Except as specified in (1)(c) below, separating raw animal FOODS during         storage, preparation, holding, and display from:\r\n(a) Raw READY-TO-EAT FOOD including other raw animal FOOD such as FISH for sushi or MOLLUSCAN SHELLFISH, or other raw READY-TO-EAT FOOD such as fruits and vegetables,(P) and\r\n(b) Cooked READY-TO-EAT FOOD; (P)\r\n(c) Frozen, commercially processed and packaged raw animal FOOD may be          stored or displayed with or above frozen, commercially processed and           packaged, ready-to-eat food.\r\n(2) Except when combined as ingredients, separating types of raw animal FOODS    from each other such as beef, FISH, lamb, pork, and POULTRY during storage,        preparation, holding, and display by:\r\n(a) Using separate EQUIPMENT for each type, (P) or\r\n(b) Arranging each type of FOOD in EQUIPMENT so that cross contamination of one type with another is prevented, (P) and\r\n(c) Preparing each type of FOOD at different times or in separate areas; (P)\r\n","violationType":"Priority","itemDescription":"Raw animal food(s)","subItem":"","problemDescription":"Stored over/next to","subProblem":"Ready-to-eat food(s)","location":"KITCHEN","subLocation":"","corrected":"Yes","daysToCorrect":"10.0","correctedDate":"2018-07-16T00:00:00","correctionDescription":"Store raw animal foods below and away from foods needing little or no further prep."},{"violationCode":"4-602.13","violationDescription":"NonFOOD-CONTACT SURFACES of EQUIPMENT shall be cleaned at a frequency necessary to preclude accumulation of soil residues.\r\n","violationType":"Core","itemDescription":"Nonfood contact surface(s)","subItem":"","problemDescription":"Soiled","subProblem":"","location":"DISPLAY COUNTER","subLocation":"","corrected":"Not required","daysToCorrect":"30.0","correctedDate":null,"correctionDescription":"Clean."}]},{"inspectionid":"39006","inspectionDate":"2017-06-13T00:00:00","inspectionType":"Routine Inspection","inCompliance":"Yes","violationsByInspectionidList":[{"violationCode":"3-501.17","violationDescription":"(A)  READY-TO-EAT, POTENTIALLY HAZARDOUS FOOD (TIME/TEMPERATURE CONTROL FOR SAFETY FOOD)  prepared and held refrigerated for more than 24 hours in a FOOD ESTABLISHMENT  shall be clearly marked at the time of preparation to indicate the date or day by which the FOOD shall be consumed. (Pf)\r\n(B)  A container of refrigerated, commercially prepared READY-TO-EAT POTENTIALLY HAZARDOUS FOOD (TIME/TEMPERATURE CONTROL FOR SAFETY FOOD)  shall be clearly marked, at the time the original container is opened in a FOOD ESTABLISHMENT, to indicate the date or day by which the FOOD shall be consumed. (Pf)\r\n\r\nA date marking system that does not exceed 7 days, including date of preparation, or opening is to be used. (Pf)\r\n","violationType":"Foundation","itemDescription":"In house prepared ready-to-eat potentially hazardous  food(s)","subItem":"","problemDescription":"Without date of consumption marking","subProblem":"","location":"KITCHEN","subLocation":"","corrected":"Yes","daysToCorrect":"10.0","correctedDate":"2017-06-13T00:00:00","correctionDescription":"Datemark with a discard date of 7 days or less."},{"violationCode":"3-307.11","violationDescription":"FOOD shall be protected from contamination that may result from a factor or source not specified under Subparts 3-301 - 3-306.\r\n","violationType":"Core","itemDescription":"Food","subItem":"","problemDescription":null,"subProblem":"","location":"COOLER","subLocation":"","corrected":"Not required","daysToCorrect":"30.0","correctedDate":null,"correctionDescription":null},{"violationCode":"MFL289.2129","violationDescription":"Sec. 2129. (1) All of the following food establishments shall employ a minimum of 1 managerial employee who is currently certified under a personnel certification program accredited by the American national standards institute, utilizing the conference for food protection standards:  (a) A food service establishment that is not any of the following:    (i) Operating under a temporary food service establishment license.  (ii) A vending machine location.     (b) An extended retail food establishment.  (c) Operated within a retail grocery.  (2) An individual certified under subsection (1) shall be recognized with full faith and credit by the state and all local units of government throughout the state.  (3) The department may promulgate rules to do all of the following:  (a) Develop requirements for retail food establishments to follow when employing certified food safety managers or personnel.  (b) Set a reasonable date for compliance with the requirements under subdivision (a) taking into consideration existing local personnel certification requirements.  (c) Establish certification fees necessary to implement, maintain, and track certified individuals directly or by contract. The department may annually adjust the schedule of fees to provide that the fee charged is sufficient to cover the cost of the certification tracking program.  (d) Implement and enforce the requirements described in subdivision (a).    (4) The certification program developed by the American national standards institute, as it exists on April 1, 2008 , is incorporated by reference. The department may adopt updates to the certification program accreditation standards in subsection (1) by rule.     (5) This section does not prohibit any local legislative body from implementing a food handler program, an employee health certification program, or a manager certification program, if it is not in conflict with this section.","violationType":"Core","itemDescription":"Person-in-charge","subItem":"","problemDescription":null,"subProblem":"","location":"FACILITY","subLocation":"","corrected":"Not required","daysToCorrect":"30.0","correctedDate":null,"correctionDescription":"Provide"}]}]}]}},"pageContext":{"eid":"4182"}}