{"data":{"site":{"pathPrefix":"/restaurant-inspections"},"postgres":{"establishment":[{"establishmentid":"4246","name":"El Parian #1","address":"1064 London St","zipcode":"48149","owner":"Nancy Lopez","licenseNumber":"208161","licenseType":"Mobile Food Establishment","establishmentType":"LHD - Mobile Food Establishmen","establishmentStatus":"Seasonal","riskCategory":null,"reviewFrequencyDays":"210","coords":"-83.17814,42.23924","geojson":{"id":"4246","type":"Feature","geometry":{"type":"Point","coordinates":[-83.178140634,42.239235738]},"properties":{"name":"El Parian #1","owner":"Nancy Lopez","address":"1064 London St","zipcode":"48149","license_type":"Mobile Food Establishment","risk_category":null,"license_number":"208161","establishmentid":"4246","establishment_type":"LHD - Mobile Food Establishmen","establishment_status":"Seasonal","review_frequency_days":"210","most_recent_license_date":null}},"nearbyList":[{"establishmentid":"4660","name":"El Parian #2","address":"1064 London St","zipcode":"48149"},{"establishmentid":"4876","name":"El Parian #3","address":"1064 London St","zipcode":"48146"},{"establishmentid":"3590","name":"Happy's Pizza #22","address":"3517 S Fort St","zipcode":"48217"},{"establishmentid":"51622686","name":"Detroit Police Athletic League","address":"1680 Michigan Ave","zipcode":"48216"},{"establishmentid":"5378","name":"Bobcat Bonnies","address":"1800 Michigan Ave","zipcode":"48216"},{"establishmentid":"1371","name":"The Works Bar & Grill","address":"1846 Michigan Ave","zipcode":"48216"},{"establishmentid":"2154","name":"White Castle #19","address":"1930-50  Michigan Ave","zipcode":"48216"},{"establishmentid":"539","name":"Motor City Wine Bar","address":"1949 Michigan Ave","zipcode":"48216"},{"establishmentid":"51622746","name":"Tacos El Rodeo","address":"1949 Michigan Ave","zipcode":"48216"},{"establishmentid":"592","name":"Gaelic League Irish American Club","address":"2066-68 Michigan Ave","zipcode":"48216"}],"inspectionsByEstablishmentidList":[{"inspectionid":"52938","inspectionDate":"2020-09-21T00:00:00","inspectionType":"Routine Inspection","inCompliance":"No","violationsByInspectionidList":[{"violationCode":"4-102.11","violationDescription":"Materials that are used to make SINGLE-SERVICE and SINGLE-USE ARTICLES:\r\n(A)    May not:\r\n        (1) Allow the migration of deleterious substances,(P) or\r\n        (2) Impart colors, odors, or tastes to FOOD; and \r\n(B)    Shall be:\r\n        (1) Safe,(P) and\r\n        (2) Clean.\r\n","violationType":"Priority","itemDescription":"Single-service/use articles","subItem":"","problemDescription":"Constructed from materials that are not","subProblem":"Safe","location":"HOT HOLDING AREA","subLocation":"UNAPPROVED","corrected":"No","daysToCorrect":"10","correctedDate":null,"correctionDescription":"Provide safe, approved materials."},{"violationCode":"MFL289.6149","violationDescription":"Definitions; satisfaction of  section 3-603.11 of food code; statement; disclosures and reminders; text;  exemptions.*  Sec. 6149. (1) As used in this section: (P)    (a) &quot; Publicly available&quot; means  accessible to consumers, without their having to request it, before their  placing food orders or making their selections.    (b) &quot; Selection information&quot; means  whatever consumers read to make their order selections, such as menu, table  tent, placard, chalkboard, or other written means.    (2) To satisfy section 3-603.11 of the food code, the food establishment may  provide the following statement on selection information so that it is publicly  available: &quot; Ask your server about menu items that are cooked to order or  served raw. Consuming raw or undercooked meats, poultry, seafood, shellfish, or  eggs may increase your risk of foodborne illness&quot;.(P)    (4) The language for the menu items shall match the language used for the  disclosure and the reminder.Â  The  disclosure and reminder may also be in additional languages.(P)    (5) The text for disclosures and reminders shall meet the following requirements: (P)    (a) The text size for statements on handheld  menus or table tents shall be visually equivalent to at least 11-point font  size or may be visually equivalent to the font size of menu item descriptions.    (b) Text color provides a clear contrast to  background.    (6) Table tents, placards, or chalkboards that are used exclusively to list food  items that are offered as daily, weekly, or temporary specials are exempt from  the requirements of this section when those food items also appear in the  primary selection information that contains the disclosures and reminders  meeting the requirements of this section.(S)","violationType":"Priority","itemDescription":null,"subItem":"","problemDescription":null,"subProblem":"","location":"FOOD TRUCK","subLocation":"Menu","corrected":"No","daysToCorrect":"10","correctedDate":null,"correctionDescription":null}]},{"inspectionid":"47717","inspectionDate":"2019-05-16T00:00:00","inspectionType":"Routine Inspection","inCompliance":"Yes","violationsByInspectionidList":[{"violationCode":"4-501.11","violationDescription":"EQUIPMENT shall be maintained in a state of repair and condition that meets the requirements of the code.\r\n","violationType":"Core","itemDescription":"Equipment","subItem":"","problemDescription":"Broken","subProblem":"","location":"COOLER","subLocation":"LID","corrected":"Not required","daysToCorrect":"30","correctedDate":null,"correctionDescription":"Repair/replace."}]}]}],"maxInspectionDate":[{"inspectionDate":"2020-10-30T00:00:00"}]}},"pageContext":{"eid":"4246"}}