{"data":{"site":{"pathPrefix":"/restaurant-inspections"},"postgres":{"establishment":[{"establishmentid":"1377","name":"Dynamo Corned Beef Deli","address":"20716 W Seven Mile Rd","zipcode":"48219","owner":"Johnny Edward Lewis","licenseNumber":"035526","licenseType":"Fixed Establishment","establishmentType":"Food Service Establishment","establishmentStatus":"Open","riskCategory":"High","reviewFrequencyDays":"180","coords":"-83.24661,42.42964","geojson":{"id":"1377","type":"Feature","geometry":{"type":"Point","coordinates":[-83.24660718,42.429635539]},"properties":{"name":"Dynamo Corned Beef Deli","owner":"Johnny Edward Lewis","address":"20716 W Seven Mile Rd","zipcode":"48219","license_type":"Fixed Establishment","risk_category":"High","license_number":"035526","establishmentid":"1377","establishment_type":"Food Service Establishment","establishment_status":"Open","review_frequency_days":"180","most_recent_license_date":"5/28/2017"}},"nearbyList":[{"establishmentid":"5168","name":"The Real McCoy Southern Bar-B-Cue","address":"20817 W Seven Mile","zipcode":"48219"},{"establishmentid":"476","name":"Bob's Pizza Palace Inc.","address":"20510 W Seven Mile Rd","zipcode":"48219"},{"establishmentid":"5241","name":"S & T Fresh Fish & Seafood Inc.","address":"20231 W Seven Mile Rd","zipcode":"48219"},{"establishmentid":"2238","name":"Subway #15573","address":"20170 W Seven Mile Rd","zipcode":"48219"},{"establishmentid":"2246","name":"Happy's Pizza #5","address":"20150 W Seven Mile Rd","zipcode":"48219"},{"establishmentid":"1647","name":"China One","address":"20160 W Seven Mile Rd","zipcode":"48219"},{"establishmentid":"51623291","name":"Grandy's Coney Island","address":"19833 W Seven Mile Rd","zipcode":"48219"},{"establishmentid":"5160","name":"Olympia Coney Island","address":"19740 W Seven Mile","zipcode":"48219"},{"establishmentid":"2592","name":"Crab House","address":"19721 W Seven Mile Rd","zipcode":"48219"},{"establishmentid":"51622724","name":"Kalahari African Restaurant LLC","address":"19701 W Seven Mile Rd","zipcode":"48219"}],"inspectionsByEstablishmentidList":[{"inspectionid":"37912","inspectionDate":"2017-02-06T00:00:00","inspectionType":"Routine Inspection","inCompliance":"Yes","violationsByInspectionidList":[{"violationCode":"3-501.16","violationDescription":"Except during preparation, cooking, or cooling, or when time is used as the public health control POTENTIALLY HAZARDOUS FOOD (TIME/TEMPERATURE CONTROL FOR SAFETY FOOD) shall be maintained:\r\n(A)  135ºF or above, except that roasts properly cooked and cooled may be held              at a temperature of 130ºF; or (P)\r\n(B)   At 41ºF or less (P)\r\n","violationType":"Priority","itemDescription":"Hot food item(s)","subItem":"","problemDescription":"Stored below 135 degrees F","subProblem":"","location":"KITCHEN","subLocation":"","corrected":"Yes","daysToCorrect":"10","correctedDate":"2017-02-06T00:00:00","correctionDescription":"Store above 135 degrees F."}]},{"inspectionid":"36500","inspectionDate":"2016-09-21T00:00:00","inspectionType":"Routine Inspection","inCompliance":"Yes","violationsByInspectionidList":[{"violationCode":"4-302.14","violationDescription":"A test kit or other device that accurately measures the concentration in mg/L of SANITIZING solutions shall be provided. (Pf)\r\n","violationType":"Foundation","itemDescription":"Sanitizer test kit","subItem":"chlorine","problemDescription":"Not provided","subProblem":"","location":"KITCHEN","subLocation":"","corrected":"Yes","daysToCorrect":"10","correctedDate":"2016-09-21T00:00:00","correctionDescription":"Provide."},{"violationCode":"6-301.11","violationDescription":"Each HANDWASHING SINK or group of 2 adjacent HANDWASHING SINKS shall be provided with a supply of hand cleaning liquid, powder, or bar soap. (Pf)\r\n","violationType":"Foundation","itemDescription":"Soap","subItem":"at handsink prep area","problemDescription":"Not provided","subProblem":"At hand sink","location":"KITCHEN","subLocation":"","corrected":"Yes","daysToCorrect":"10","correctedDate":"2016-09-21T00:00:00","correctionDescription":"Provide"},{"violationCode":"6-501.11","violationDescription":"PHYSICAL FACILITIES shall be maintained in good repair.\r\n","violationType":"Core","itemDescription":"Physical facilities","subItem":"ceiling(s)","problemDescription":"In poor repair","subProblem":"","location":"KITCHEN","subLocation":"","corrected":"Not required","daysToCorrect":"30","correctedDate":null,"correctionDescription":null},{"violationCode":"6-501.111","violationDescription":"The presence of insects, rodents, and other pests shall be controlled to minimize their presence on the PREMISES.  by:\r\n(A) Routinely inspecting incoming shipments of FOOD and supplies; \r\n(B) Routinely inspecting the PREMISES for evidence of pests;\r\n(C) Using methods, if pests are found, such as trapping devices or other means of pest control as specified.(Pf) \r\n(D) Eliminating harborage conditions. \r\n","violationType":"Core","itemDescription":"Pest(s)","subItem":"gnats","problemDescription":"Present in facility","subProblem":"","location":"KITCHEN","subLocation":"","corrected":"Not required","daysToCorrect":"10","correctedDate":null,"correctionDescription":"Remove pests from facility."}]}]}],"maxInspectionDate":[{"inspectionDate":"2020-10-30T00:00:00"}]}},"pageContext":{"eid":"1377"}}