{"componentChunkName":"component---src-templates-establishment-page-js","path":"/establishment/51622632","result":{"data":{"site":{"pathPrefix":"/restaurant-inspections"},"postgres":{"establishment":[{"establishmentid":"51622632","name":"Detroit Achievement Academy","address":"7000 W. Outer Drive","zipcode":"48235","owner":"Kyle Smitley","licenseNumber":"237723","licenseType":"Fixed Establishment","establishmentType":"Charter School","establishmentStatus":"Open","riskCategory":"Medium","reviewFrequencyDays":"150","coords":"-83.20052,42.41997","geojson":{"id":"51622632","type":"Feature","geometry":{"type":"Point","coordinates":[-83.200515916,42.419965939]},"properties":{"name":"Detroit Achievement Academy","owner":"Kyle Smitley","address":"7000 W. Outer Drive","zipcode":"48235","license_type":"Fixed Establishment","risk_category":"Medium","license_number":"237723","establishmentid":"51622632","establishment_type":"Charter School","establishment_status":"Open","review_frequency_days":"150","most_recent_license_date":"4/11/2022"}},"nearbyList":[{"establishmentid":"2262","name":"Old Redford Academy Middle School","address":"7000 Outer Dr. W.","zipcode":"48235"},{"establishmentid":"51623099","name":"KYC Enterprize (Oakland County)","address":"18090  Forrer","zipcode":"48235"},{"establishmentid":"1330","name":"McDonald's #6799","address":"15550 McNichols Rd. W.","zipcode":"48235"},{"establishmentid":"1199","name":"Taco Bell #24449","address":"15624 McNichols Rd. W.","zipcode":"48235"},{"establishmentid":"4104","name":"Wheaties Deli","address":"15640  McNichols Rd. W.","zipcode":"48235"},{"establishmentid":"4271","name":"Sweetwater Express","address":"15640 McNichols Rd. W.","zipcode":"48235"},{"establishmentid":"3660","name":"Big Mouth Cheese Steak & Hoagies","address":"15640 McNichols Rd. W.","zipcode":"48235"},{"establishmentid":"51622870","name":"Wild Wild West Wings","address":"15535  McNichols W.","zipcode":"48235"},{"establishmentid":"1413","name":"Lady Louisa's Place","address":"15535 McNichols Rd. W.","zipcode":"48235"},{"establishmentid":"4732","name":"Chicare Fresh Fish Market","address":"15635  W. McNichols","zipcode":"48235"}],"inspectionsByEstablishmentidList":[{"inspectionid":"58201","inspectionDate":"2022-04-05T00:00:00","inspectionType":"Routine Inspection","inCompliance":"Yes","violationsByInspectionidList":[{"violationCode":"3-501.16","violationDescription":"Except during preparation, cooking, or cooling, or when time is used as the public health control POTENTIALLY HAZARDOUS FOOD (TIME/TEMPERATURE CONTROL FOR SAFETY FOOD) shall be maintained:\n(A)  135ºF or above, except that roasts properly cooked and cooled may be held              at a temperature of 130ºF; or (P)\n(B)   At 41ºF or less (P)\n","violationType":"Priority","itemDescription":"Cold food item(s)","subItem":null,"problemDescription":"Stored above 41 degrees F","subProblem":null,"location":"COOLER","subLocation":null,"corrected":"True","daysToCorrect":"10","correctedDate":"2022-04-05T00:00:00","correctionDescription":null}]},{"inspectionid":"56057","inspectionDate":"2021-09-27T00:00:00","inspectionType":"Routine Inspection","inCompliance":"No","violationsByInspectionidList":[{"violationCode":"5-202.12","violationDescription":"(A) A handwashing sink shall be equipped to provide water at a temperature of at least 38°C (100°F) through a mixing valve or combination faucet. (Pf)  \n(B) A steam mixing valve may not be used at a handwashing sink.  \n(C) A self-closing, slow-closing, or metering faucet shall provide a flow of water for at least 15 seconds without the need to reactivate the faucet.   \n(D) An automatic handwashing facility shall be installed in accordance with manufacturer's instructions.\n","violationType":"Priority","itemDescription":"Handwashing facility","subItem":null,"problemDescription":"Not provided","subProblem":null,"location":"HANDSINK(S)","subLocation":null,"corrected":"False","daysToCorrect":"10","correctedDate":null,"correctionDescription":null}]},{"inspectionid":"53441","inspectionDate":"2020-11-02T00:00:00","inspectionType":"Routine Inspection","inCompliance":"Yes","violationsByInspectionidList":[]},{"inspectionid":"49244","inspectionDate":"2019-09-26T00:00:00","inspectionType":"Routine Inspection","inCompliance":"Yes","violationsByInspectionidList":[]},{"inspectionid":"46002","inspectionDate":"2019-04-25T00:00:00","inspectionType":"Routine Inspection","inCompliance":"Yes","violationsByInspectionidList":[]},{"inspectionid":"43818","inspectionDate":"2018-10-18T00:00:00","inspectionType":"Routine Inspection","inCompliance":"Yes","violationsByInspectionidList":[]},{"inspectionid":"42024","inspectionDate":"2018-04-19T00:00:00","inspectionType":"Routine Inspection","inCompliance":"Yes","violationsByInspectionidList":[]},{"inspectionid":"40218","inspectionDate":"2017-09-27T00:00:00","inspectionType":"Routine Inspection","inCompliance":"Yes","violationsByInspectionidList":[{"violationCode":"7-102.11","violationDescription":"Working containers used for storing POISONOUS OR TOXIC MATERIALS such as cleaners and SANITIZERS taken from bulk supplies shall be clearly and individually identified with the common name of the material. (Pf)\n","violationType":"Foundation","itemDescription":"Working containers-toxics","subItem":"sanitizer","problemDescription":"Not labeled as to content","subProblem":null,"location":"KITCHEN","subLocation":null,"corrected":"True","daysToCorrect":"10","correctedDate":"2017-09-27T00:00:00","correctionDescription":"Label containers with common name."}]}]}],"maxInspectionDate":[{"inspectionDate":"2022-08-31T00:00:00"}]}},"pageContext":{"eid":"51622632"}},"staticQueryHashes":["3649515864","63159454"]}