{"data":{"site":{"pathPrefix":"/restaurant-inspections"},"postgres":{"establishment":[{"establishmentid":"680","name":"Burger King ","address":"12661 Mack Ave","zipcode":"48215","owner":"EYM King of Michigan LLC","licenseNumber":"075688","licenseType":"Fixed Establishment","establishmentType":"Food Service Establishment","establishmentStatus":"Open","riskCategory":null,"reviewFrequencyDays":"365.0","coords":"-82.96589,42.38425","geojson":{"id":"680","type":"Feature","geometry":{"type":"Point","coordinates":[-82.965892219,42.3842525090001]},"properties":{"name":"Burger King ","owner":"EYM King of Michigan LLC","address":"12661 Mack Ave","zipcode":"48215","license_type":"Fixed Establishment","risk_category":null,"license_number":"075688","establishmentid":"680","establishment_type":"Food Service Establishment","establishment_status":"Open","review_frequency_days":"365.0","most_recent_license_date":"6/6/2018"}},"nearbyList":[{"establishmentid":"3751","name":"Manhattan Fish and Chicken","address":"3800 Conner","zipcode":"48215"},{"establishmentid":"2646","name":"McDonald's #25135","address":"3975 Conner Ave","zipcode":"48215"},{"establishmentid":"1731","name":"Capuchin Kitchen","address":"4390 Conner ","zipcode":"48215"},{"establishmentid":"1104","name":"Maison Fine Food Inc.","address":"13031 Mack Ave","zipcode":"48215"},{"establishmentid":"3893","name":"Northeast Guidance Center","address":"2900 Conner","zipcode":"48215"},{"establishmentid":"2766","name":"Wendy's ","address":"4749 Conner St","zipcode":"48215"},{"establishmentid":"5425","name":"Spud Headz","address":"12700 E Warren","zipcode":"48215"},{"establishmentid":"51622565","name":"Tasty Bob's","address":"13000 E Warren Ave","zipcode":"48215"},{"establishmentid":"5191","name":"UAW Local 7","address":"2600 Conner Ave","zipcode":"48215"},{"establishmentid":"5240","name":"Red Sea Food Inc.","address":"12500 E Warren","zipcode":"48215"}],"inspectionsByEstablishmentidList":[{"inspectionid":"42026","inspectionDate":"2018-04-26T00:00:00","inspectionType":"Routine Inspection","inCompliance":"Yes","violationsByInspectionidList":[{"violationCode":"7-201.11","violationDescription":"POISONOUS OR TOXIC MATERIAL shall be stored so they can not contaminate FOOD, EQUIPMENT, UTENSILS, LINENS, AND SINGLE-SERVICE AND SINGLE-USE ARTICLES by:   \r\n(A) Separating the POISONOUS OR TOXIC MATERIAL by spacing or partitioning; (P) and   \r\n(B) Locating the POISONOUS OR TOXIC MATERIAL in an area that is not above FOOD, EQUIPMENT, UTENSILS, LINENS, AND SINGLE-SERVICE AND SINGLE-USE ARTICLES.  This paragraph does not apply to EQUIPMENT and UTENSIL cleaners and sanitizers that are stored in WAREWASHING areas for availability and convenience if the materials are stored to prevent contamination of FOOD, EQUIPMENT, UTENSILS, LINENS, AND SINGLE-SERVICE and SINGLE-USE ARTICLES. (P)","violationType":"Priority","itemDescription":"Poisonous/toxic material(s)","subItem":"","problemDescription":"Stored over/with","subProblem":"Single-service/use items","location":"FRONT COUNTER/AREA","subLocation":"Under the Table(s)","corrected":"Yes","daysToCorrect":"10.0","correctedDate":"2018-04-26T00:00:00","correctionDescription":"Store toxics below and away from all other items."}]},{"inspectionid":"38455","inspectionDate":"2017-04-10T00:00:00","inspectionType":"Routine Inspection","inCompliance":"Yes","violationsByInspectionidList":[{"violationCode":"6-501.11","violationDescription":"PHYSICAL FACILITIES shall be maintained in good repair.\r\n","violationType":"Core","itemDescription":"Physical facilities","subItem":"wall(s) at sink","problemDescription":"In poor repair","subProblem":"Broken","location":"DRIVE-THRU WINDOW","subLocation":"At the Wall (back)","corrected":"Not required","daysToCorrect":"30.0","correctedDate":null,"correctionDescription":"Repair/replace."},{"violationCode":"6-304.11","violationDescription":"If necessary to keep rooms free of excessive heat, steam, condensation, vapors, obnoxious odors, smoke, and fumes, mechanical ventilation of sufficient capacity shall be provided.\r\n","violationType":"Core","itemDescription":"Mechanical ventilation","subItem":"","problemDescription":"Not provided","subProblem":"","location":"RESTROOM (EMPLOYEE)","subLocation":"At the Mechanical ventilation","corrected":"Not required","daysToCorrect":"30.0","correctedDate":null,"correctionDescription":"Provide as required"},{"violationCode":"5-205.15","violationDescription":"A PLUMBING SYSTEM shall be:\r\n(A) Repaired according to LAW; (P) and\r\n(B) Maintained in good repair.\r\n","violationType":"Core","itemDescription":"Plumbing system","subItem":"water line(s)","problemDescription":"Not maintained","subProblem":"","location":"DRIVE-THRU WINDOW","subLocation":"At the Handsink","corrected":"Not required","daysToCorrect":"10.0","correctedDate":null,"correctionDescription":"Maintain in good repair"},{"violationCode":"5-501.17","violationDescription":"A toilet room used by females shall be provided with a covered receptacle for sanitary napkins.\r\n","violationType":"Core","itemDescription":"Covered waste receptacle(s)","subItem":"","problemDescription":"Not provided","subProblem":"At hand sink","location":"RESTROOM (EMPLOYEE)","subLocation":"No Covered waste container","corrected":"Not required","daysToCorrect":"30.0","correctedDate":null,"correctionDescription":"Provide"}]}]}]}},"pageContext":{"eid":"680"}}