{"componentChunkName":"component---src-templates-establishment-page-js","path":"/establishment/51622866","result":{"data":{"site":{"pathPrefix":"/restaurant-inspections"},"postgres":{"establishment":[{"establishmentid":"51622866","name":"Isla/Fort Street Galley","address":"160 Fort","zipcode":"48226","owner":"Juan Paulo Garcia","licenseNumber":"238181","licenseType":"Fixed Establishment","establishmentType":"Food Service Establishment","establishmentStatus":"Permanently Closed","riskCategory":"High","reviewFrequencyDays":"150","coords":"-83.04858,42.33058","geojson":{"id":"51622866","type":"Feature","geometry":{"type":"Point","coordinates":[-83.048577708,42.330577292]},"properties":{"name":"Isla/Fort Street Galley","owner":"Juan Paulo Garcia","address":"160 Fort","zipcode":"48226","license_type":"Fixed Establishment","risk_category":"High","license_number":"238181","establishmentid":"51622866","establishment_type":"Food Service Establishment","establishment_status":"Permanently Closed","review_frequency_days":"150","most_recent_license_date":"4/29/2019"}},"nearbyList":[{"establishmentid":"5320","name":"Maru Detroit","address":"160 Fort W.","zipcode":"48226"},{"establishmentid":"51623148","name":"Which Came First","address":"160 W. Fort Street","zipcode":"48226"},{"establishmentid":"51623044","name":"Michigan & Trumbull/Fort Street Galley","address":"160 Fort W. Street","zipcode":"48226"},{"establishmentid":"51623015","name":"Table Detroit/Fort Street Galley","address":"160 Fort St. W..","zipcode":"48226"},{"establishmentid":"1926","name":"Sodexho","address":"160 Fort W.","zipcode":"48226"},{"establishmentid":"51622819","name":"Fort Street Galley- Bar & Table","address":"160 W. Fort","zipcode":"48226"},{"establishmentid":"51622867","name":"Allenby/Fort Street Galley","address":"160 Fort","zipcode":"48226"},{"establishmentid":"51622865","name":"Lucky's Noble BBQ/Fort Street Galley","address":"160 Fort","zipcode":"48226"},{"establishmentid":"51622868","name":"Pursue/Fort Street Galley","address":"160 Fort St. W.","zipcode":"48226"},{"establishmentid":"2584","name":"Black Gold Coffee","address":"719 Grisworld St.  Ste 110","zipcode":"48226"}],"inspectionsByEstablishmentidList":[{"inspectionid":"49228","inspectionDate":"2019-09-23T00:00:00","inspectionType":"Routine Inspection","inCompliance":"Yes","violationsByInspectionidList":[{"violationCode":"3-302.11","violationDescription":"(A) FOOD shall be protected from cross contamination by:  \n(1) Except as specified in (1)(c) below, separating raw animal FOODS during         storage, preparation, holding, and display from:\n(a) Raw READY-TO-EAT FOOD including other raw animal FOOD such as FISH for sushi or MOLLUSCAN SHELLFISH, or other raw READY-TO-EAT FOOD such as fruits and vegetables,(P) and\n(b) Cooked READY-TO-EAT FOOD; (P)\n(c) Frozen, commercially processed and packaged raw animal FOOD may be          stored or displayed with or above frozen, commercially processed and           packaged, ready-to-eat food.\n(2) Except when combined as ingredients, separating types of raw animal FOODS    from each other such as beef, FISH, lamb, pork, and POULTRY during storage,        preparation, holding, and display by:\n(a) Using separate EQUIPMENT for each type, (P) or\n(b) Arranging each type of FOOD in EQUIPMENT so that cross contamination of one type with another is prevented, (P) and\n(c) Preparing each type of FOOD at different times or in separate areas; (P)\n","violationType":"Priority","itemDescription":"Raw animal food(s)","subItem":null,"problemDescription":"Stored over/next to","subProblem":null,"location":"WALK-IN COOLER","subLocation":"Above the ACCESS","corrected":"True","daysToCorrect":"10","correctedDate":"2019-09-23T00:00:00","correctionDescription":null}]},{"inspectionid":"45201","inspectionDate":"2019-02-15T00:00:00","inspectionType":"Routine Inspection","inCompliance":"No","violationsByInspectionidList":[{"violationCode":"3-602.11","violationDescription":"(A)  FOOD PACKAGED in a FOOD ESTABLISHMENT, shall be labeled as specified in LAW. \n(B) The name of the FOOD source for each MAJOR FOOD ALLERGEN contained in the FOOD unless the FOOD source is already part of the common or usual name of the respective ingredient. (Pf)\n(C)  Bulk FOOD that is available for CONSUMER self-dispensing shall be prominently labeled with the following information in plain view of the CONSUMER:\n(1)  the manufacturer's or processor's label that was provided with the  FOOD; or \n(2)  A card, sign, or other method of notification that includes the information required by law. \n","violationType":"Core","itemDescription":"Self-serve bulk food label(s)","subItem":null,"problemDescription":"Missing","subProblem":null,"location":"PREP AREA(S)","subLocation":null,"corrected":"False","daysToCorrect":"10","correctedDate":null,"correctionDescription":"Provide."}]},{"inspectionid":"44298","inspectionDate":"2018-11-30T00:00:00","inspectionType":"Plan Review/Pre-Open","inCompliance":"Yes","violationsByInspectionidList":[]}]}],"maxInspectionDate":[{"inspectionDate":"2022-08-31T00:00:00"}]}},"pageContext":{"eid":"51622866"}},"staticQueryHashes":["3649515864","63159454"]}