{"data":{"site":{"pathPrefix":null},"postgres":{"establishment":[{"establishmentid":"4233","name":"St. Charles","address":"1491 Baldwin","zipcode":"48214","owner":"Archdiocee of Detroit","licenseNumber":"073930","licenseType":"Fixed Establishment","establishmentType":"Food Service Establishment","establishmentStatus":"Open","riskCategory":null,"reviewFrequencyDays":"365.0","coords":"-83.00163,42.35493","geojson":{"id":"4233","type":"Feature","geometry":{"type":"Point","coordinates":[-83.001632883,42.3549290880001]},"properties":{"name":"St. Charles","owner":"Archdiocee of Detroit","address":"1491 Baldwin","zipcode":"48214","license_type":"Fixed Establishment","risk_category":null,"license_number":"073930","establishmentid":"4233","establishment_type":"Food Service Establishment","establishment_status":"Open","review_frequency_days":"365.0","most_recent_license_date":"5/8/2018"}},"nearbyList":[{"establishmentid":"2593","name":"Moses Field School","address":"1100 Sheridan","zipcode":"48214"},{"establishmentid":"1099","name":"Butzel Recreation Center","address":"7737 Kercheval Ave","zipcode":"48214"},{"establishmentid":"833","name":"Marcus Garvey","address":"2301 Van Dyke Ave","zipcode":"48207"},{"establishmentid":"4953","name":"The Red Hook, Detroit, LLC","address":"8025 Agnes St","zipcode":"48214"},{"establishmentid":"4765","name":"Detroit Vegan Soul, LLC","address":"8029 Agnes St","zipcode":"48214"},{"establishmentid":"4817","name":"Craft Work","address":"8047 Agnes St","zipcode":"48214"},{"establishmentid":"5368","name":"Chubby Duck Detroit","address":"208 E Grand River","zipcode":"48226"},{"establishmentid":"3171","name":"Delray Senior Pavillon","address":"275 Grand Blvd W","zipcode":"48216"},{"establishmentid":"51622473","name":"Yum Village Food Truck Works Detroit","address":"1415 Parker #867 ","zipcode":"48214"},{"establishmentid":"1336","name":"Indian Village Tennis Club","address":"1502 Parker Ave","zipcode":"48214"}],"inspectionsByEstablishmentidList":[{"inspectionid":"43718","inspectionDate":"2018-10-10T00:00:00","inspectionType":"Routine Inspection","inCompliance":"No","violationsByInspectionidList":[{"violationCode":"4-302.12","violationDescription":"(A) FOOD TEMPERATURE MEASURING DEVICES shall be provided and readily accessible for use in ensuring attainment and maintenance of FOOD temperatures as specified under Chapter 3. (Pf)   \r\n(B) A TEMPERATURE MEASURING DEVICE with a suitable small-diameter probe that is designed to measure the temperature of thin masses shall be provided and readily accessible to accurately measure the temperature in thin FOODS such as MEAT patties and FISH filets. (Pf)\r\n","violationType":"Foundation","itemDescription":"Food thermometer(s)","subItem":"probe","problemDescription":"Not available","subProblem":"","location":"KITCHEN","subLocation":"Missing Thermometer(s)","corrected":"No","daysToCorrect":"10.0","correctedDate":null,"correctionDescription":"Make available at all times."},{"violationCode":"4-302.14","violationDescription":"A test kit or other device that accurately measures the concentration in mg/L of SANITIZING solutions shall be provided. (Pf)\r\n","violationType":"Foundation","itemDescription":"Sanitizer test kit","subItem":"chlorine","problemDescription":"Not provided","subProblem":"","location":"KITCHEN","subLocation":"At the Test strips","corrected":"No","daysToCorrect":"10.0","correctedDate":null,"correctionDescription":"Provide as required"},{"violationCode":"4-202.18","violationDescription":"Filters or other grease extracting EQUIPMENT shall be designed to be readily removable for cleaning and replacement if not designed to be cleaned in place.\r\n","violationType":"Core","itemDescription":"Ventilation hood filter(s)","subItem":"","problemDescription":null,"subProblem":"","location":"KITCHEN","subLocation":"At the Ventilation hood filters","corrected":"Not required","daysToCorrect":"30.0","correctedDate":null,"correctionDescription":null}]},{"inspectionid":"40573","inspectionDate":"2017-10-26T00:00:00","inspectionType":"Routine Inspection","inCompliance":"Yes","violationsByInspectionidList":[]},{"inspectionid":"36679","inspectionDate":"2016-10-06T00:00:00","inspectionType":"Routine Inspection","inCompliance":"Yes","violationsByInspectionidList":[{"violationCode":"5-205.15","violationDescription":"A PLUMBING SYSTEM shall be:\r\n(A) Repaired according to LAW; (P) and\r\n(B) Maintained in good repair.\r\n","violationType":"Core","itemDescription":"Drainage system","subItem":"drain lines","problemDescription":"Not constructed, designed, installed according to law","subProblem":"","location":"KITCHEN","subLocation":"Under the Three compartment sink","corrected":"Not required","daysToCorrect":"10.0","correctedDate":null,"correctionDescription":"Remove and replace to be in compliance with law."}]}]}]}},"pageContext":{"eid":"4233"}}