{"data":{"site":{"pathPrefix":"/restaurant-inspections"},"postgres":{"establishment":[{"establishmentid":"261","name":"Park-Joy Bar","address":"23220 Joy Rd","zipcode":"48239","owner":"Albert A. Acker Inc","licenseNumber":"069044","licenseType":"Fixed Establishment","establishmentType":"Food Service Establishment","establishmentStatus":"Open","riskCategory":"Medium","reviewFrequencyDays":"180.0","coords":"-83.26565,42.35731","geojson":{"id":"261","type":"Feature","geometry":{"type":"Point","coordinates":[-83.2656524559999,42.3573076280001]},"properties":{"name":"Park-Joy Bar","owner":"Albert A. Acker Inc","address":"23220 Joy Rd","zipcode":"48239","license_type":"Fixed Establishment","risk_category":"Medium","license_number":"069044","establishmentid":"261","establishment_type":"Food Service Establishment","establishment_status":"Open","review_frequency_days":"180.0","most_recent_license_date":"4/27/2019"}},"nearbyList":[{"establishmentid":"3921","name":"Westside Christian Academy","address":"9540 Bramell St","zipcode":"48239"},{"establishmentid":"1236","name":"Ann Arbor Trail Magnet School","address":"7635 Chatham St","zipcode":"48228"},{"establishmentid":"2605","name":"Prince Pizza II","address":"22507 Plymouth Rd","zipcode":"48239"},{"establishmentid":"1524","name":"North American Indian Association","address":"22720 Plymouth Rd","zipcode":"48239"},{"establishmentid":"473","name":"J.P.'s West","address":"22234 W Warren Ave","zipcode":"48239"},{"establishmentid":"890","name":"Dixon Educational Learning Center","address":"8401 Trinity St","zipcode":"48228"},{"establishmentid":"542","name":"3 ELEVEN ULTRA LOUNGE","address":"22100 W Warren Ave","zipcode":"48239"},{"establishmentid":"262","name":"B. M. G. Bar & Grill","address":"20809 Joy Rd","zipcode":"48228"},{"establishmentid":"991","name":"Rouge Park Golf Course","address":"11701 Burt Rd","zipcode":"48228"},{"establishmentid":"3552","name":"El Bosque Salon","address":"6705 Lafayette Ave W","zipcode":"48209"}],"inspectionsByEstablishmentidList":[{"inspectionid":"44746","inspectionDate":"2019-01-04T00:00:00","inspectionType":"Routine Inspection","inCompliance":"Yes","violationsByInspectionidList":[{"violationCode":"3-304.14","violationDescription":"(A)  Cloths that are in use for wiping FOOD spills on TABLEWARE shall be maintained dry and used for no other purpose. \r\n(B)  Cloths in-use for wiping counters and equipment shall be held between uses in   a chemical sanitizer solution, and laundered daily.\r\n(C)  Cloths in-use for wiping surfaces in contact with raw animal FOODS shall be      kept separate from cloths used for other purposes.\r\n(D)  Dry wiping cloths and the chemical sanitizing solutions shall be free of FOOD    debris or visible soil.\r\n(E)  Containers of chemical sanitizing solutions shall be stored off the floor and         used in a manner that prevents contamination of FOOD, EQUIPMENT, UTENSILS, LINENS, SINGLE-SERVICE, or SINGLE-USE ARTICLES.\r\n(E)  SINGLE-USE disposable sanitizer wipes shall be used in accordance lable               instructions.\r\n","violationType":"Core","itemDescription":"Wiping cloth(s)","subItem":"","problemDescription":"Stored on","subProblem":"Counter","location":"BAR","subLocation":"","corrected":"Not required","daysToCorrect":"30.0","correctedDate":null,"correctionDescription":"Store wiping cloths completely submersed in sanitizer."}]},{"inspectionid":"42981","inspectionDate":"2018-07-24T00:00:00","inspectionType":"Routine Inspection","inCompliance":"Yes","violationsByInspectionidList":[{"violationCode":"4-903.11","violationDescription":"Cleaned EQUIPMENT and UTENSILS, laundered LINENS, and SINGLE-SERVICE and SINGLE-USE ARTICLES shall be stored in an approved manner and location.\r\n","violationType":"Core","itemDescription":null,"subItem":"","problemDescription":null,"subProblem":"","location":null,"subLocation":"","corrected":"Not required","daysToCorrect":"30.0","correctedDate":null,"correctionDescription":null}]},{"inspectionid":"41310","inspectionDate":"2018-01-18T00:00:00","inspectionType":"Routine Inspection","inCompliance":"Yes","violationsByInspectionidList":[]},{"inspectionid":"39244","inspectionDate":"2017-07-13T00:00:00","inspectionType":"Routine Inspection","inCompliance":"Yes","violationsByInspectionidList":[]},{"inspectionid":"37867","inspectionDate":"2017-01-31T00:00:00","inspectionType":"Routine Inspection","inCompliance":"Yes","violationsByInspectionidList":[{"violationCode":"MFL289.2129","violationDescription":"Sec. 2129. (1) All food establishments shall employ a minimum of 1 managerial employee as a food safety manager, who must be an individual who is currently certified under a personnel certification program accredited by the American National Standards Institute, utilizing the Conference for Food Protection standards:\r\n(2) Beginning January 14, 2017 and every 5 years thereafter, a certified  food safety manager who supervises the operations of a food service establishment shall have completed a food safety training program\r\ncontaining an allergen awareness  component that has been approved by  the department. A food service establishment shall retain records on the  site of the food service establishment documenting compliance of its  certified food safety managers with this subsection. ","violationType":"Core","itemDescription":"Person-in-charge","subItem":"","problemDescription":null,"subProblem":"","location":"ESTABLISHMENT","subLocation":"","corrected":"Not required","daysToCorrect":"30.0","correctedDate":null,"correctionDescription":null}]}]}],"maxInspectionDate":[{"inspectionDate":"2019-03-31T00:00:00"}]}},"pageContext":{"eid":"261"}}