{"data":{"site":{"pathPrefix":"/restaurant-inspections"},"postgres":{"establishment":[{"establishmentid":"4180","name":"Mootown Ice Cream Shoppe","address":"2461 Russell St","zipcode":"48207","owner":"Megan Lewis","licenseNumber":"220252","licenseType":"Fixed Establishment","establishmentType":"Food Service Establishment","establishmentStatus":"Open","riskCategory":"Medium","reviewFrequencyDays":"365.0","coords":"-83.03992,42.34542","geojson":{"id":"4180","type":"Feature","geometry":{"type":"Point","coordinates":[-83.0399202849999,42.345419013]},"properties":{"name":"Mootown Ice Cream Shoppe","owner":"Megan Lewis","address":"2461 Russell St","zipcode":"48207","license_type":"Fixed Establishment","risk_category":"Medium","license_number":"220252","establishmentid":"4180","establishment_type":"Food Service Establishment","establishment_status":"Open","review_frequency_days":"365.0","most_recent_license_date":null}},"nearbyList":[{"establishmentid":"1662","name":"Supino Pizzeria","address":"2457 Russell St","zipcode":"48207"},{"establishmentid":"1384","name":"Russell Street Deli","address":"2465 Russell St","zipcode":"48207"},{"establishmentid":"647","name":"Zeff's Coney Island","address":"2469 Russell St","zipcode":"48207"},{"establishmentid":"5159","name":"La Rondinella","address":"2453 Russell St","zipcode":"48207"},{"establishmentid":"5212","name":"Beyond Juicery & Eatery","address":"2501 Russell St","zipcode":"48207"},{"establishmentid":"51623037","name":"DeVries & Co. 1887","address":"2468 Market St","zipcode":"48207"},{"establishmentid":"485","name":"Farmer's Restaurant","address":"2542 Market St","zipcode":"48207"},{"establishmentid":"501","name":"Vivio's Market Center Club","address":"2460 Market St","zipcode":"48207"},{"establishmentid":"51623036","name":"Pietrzyk Pierogi","address":"1429 Gratiot Ave ","zipcode":"48207"},{"establishmentid":"51622482","name":"Eastern Market Brewing Co.","address":"2515 Riopelle St","zipcode":"48207"}],"inspectionsByEstablishmentidList":[{"inspectionid":"43423","inspectionDate":"2018-08-22T00:00:00","inspectionType":"Routine Inspection","inCompliance":"Yes","violationsByInspectionidList":[{"violationCode":"4-601.11","violationDescription":"(A) EQUIPMENT FOOD-CONTACT SURFACES and UTENSILS shall be clean to sight and touch. (Pf)\r\n(B) The FOOD-CONTACT SURFACES of cooking EQUIPMENT and pans shall be kept free of encrusted grease deposits and other soil accumulations. \r\n(C) NonFOOD-CONTACT SURFACES of EQUIPMENT shall be kept free of an accumulation of dust, dirt, FOOD residue, and other debris. \r\n","violationType":"Foundation","itemDescription":"Food-contact surface(s)","subItem":"","problemDescription":"Soiled","subProblem":"","location":"PREP AREA(S)","subLocation":"Blender","corrected":"Yes","daysToCorrect":"10.0","correctedDate":"2018-08-22T00:00:00","correctionDescription":"Clean."},{"violationCode":"6-501.11","violationDescription":"PHYSICAL FACILITIES shall be maintained in good repair.\r\n","violationType":"Core","itemDescription":"Physical facilities","subItem":"Floor(s)","problemDescription":"In poor repair","subProblem":"Broken","location":"RESTROOM (UNISEX)","subLocation":"Floor","corrected":"Not required","daysToCorrect":"30.0","correctedDate":null,"correctionDescription":null}]},{"inspectionid":"39832","inspectionDate":"2017-08-15T00:00:00","inspectionType":"Routine Inspection","inCompliance":"Yes","violationsByInspectionidList":[{"violationCode":"3-501.16","violationDescription":"Except during preparation, cooking, or cooling, or when time is used as the public health control POTENTIALLY HAZARDOUS FOOD (TIME/TEMPERATURE CONTROL FOR SAFETY FOOD) shall be maintained:\r\n(A)  135ºF or above, except that roasts properly cooked and cooled may be held              at a temperature of 130ºF; or (P)\r\n(B)   At 41ºF or less (P)\r\n","violationType":"Priority","itemDescription":"Cold food item(s)","subItem":"","problemDescription":"Stored above 41 degrees F","subProblem":"","location":"PREP AREA(S)","subLocation":"Cooler (dessert )","corrected":"Yes","daysToCorrect":"10.0","correctedDate":"2017-08-15T00:00:00","correctionDescription":"Discard"},{"violationCode":"7-102.11","violationDescription":"Working containers used for storing POISONOUS OR TOXIC MATERIALS such as cleaners and SANITIZERS taken from bulk supplies shall be clearly and individually identified with the common name of the material. (Pf)\r\n","violationType":"Foundation","itemDescription":"Working containers-toxics","subItem":"","problemDescription":"Not labeled as to content","subProblem":"","location":"3 COMPARTMENT SINK AREA","subLocation":"Chemical container","corrected":"Yes","daysToCorrect":"10.0","correctedDate":"2017-08-15T00:00:00","correctionDescription":"Label containers with common name."}]},{"inspectionid":"36421","inspectionDate":"2016-08-25T00:00:00","inspectionType":"Routine Inspection","inCompliance":"Yes","violationsByInspectionidList":[{"violationCode":"7-204.11","violationDescription":"Chemical SANITIZERS and other chemical antimicrobials applied to FOOD-CONTACT SURFACES shall meet the requirements specified in this code. (P)\r\n","violationType":"Priority","itemDescription":"Sanitizer(s)","subItem":"","problemDescription":"Do not comply with law","subProblem":"","location":"FACILITY","subLocation":"","corrected":"Yes","daysToCorrect":"10.0","correctedDate":"2016-08-25T00:00:00","correctionDescription":"Provide labels that comply with law."}]}]}],"maxInspectionDate":[{"inspectionDate":"2019-10-31T00:00:00"}]}},"pageContext":{"eid":"4180"}}