{"componentChunkName":"component---src-templates-establishment-page-js","path":"/establishment/51623038","result":{"data":{"site":{"pathPrefix":"/restaurant-inspections"},"postgres":{"establishment":[{"establishmentid":"51623038","name":"See You Tomorrow","address":"7740 Woodward Ave.","zipcode":"48202","owner":"Dan Merritt","licenseNumber":"06192019","licenseType":"Fixed Establishment","establishmentType":"Food Service Establishment","establishmentStatus":"Plan Review","riskCategory":null,"reviewFrequencyDays":null,"coords":"-83.07531,42.37390","geojson":{"id":"51623038","type":"Feature","geometry":{"type":"Point","coordinates":[-83.075311353,42.373898068]},"properties":{"name":"See You Tomorrow","owner":"Dan Merritt","address":"7740 Woodward Ave.","zipcode":"48202","license_type":"Fixed Establishment","risk_category":null,"license_number":"06192019","establishmentid":"51623038","establishment_type":"Food Service Establishment","establishment_status":"Plan Review","review_frequency_days":null,"most_recent_license_date":null}},"nearbyList":[{"establishmentid":"51623448","name":"Reef Kitchens #05 (Fixed Trailer)","address":"7451 Woodward Ave. ","zipcode":"48202"},{"establishmentid":"51623610","name":"Reef Kitchens Food Truck #2","address":"7451 Woodward","zipcode":"48202"},{"establishmentid":"51623466","name":"Happy's Pizza ","address":"7451 Woodward Ave","zipcode":"48202"},{"establishmentid":"753","name":"Burger King #1284","address":"8201 Woodward Ave.","zipcode":"48202"},{"establishmentid":"1758","name":"Don's Vending Service","address":"105 BETHUNE E.","zipcode":"48202"},{"establishmentid":"585","name":"E's Deli","address":"105 Bethune E.","zipcode":"48202"},{"establishmentid":"2852","name":"Don's Vending Service","address":"105 Bethune E.","zipcode":"48202"},{"establishmentid":"3468","name":"Happy's Pizza #16","address":"7450 Woodward Ave.","zipcode":"48202"},{"establishmentid":"51623843","name":"Tropical Smoothie Cafe","address":"7450 Woodward","zipcode":"48234"},{"establishmentid":"1717","name":"The Turkey Grill","address":"8290 Woodward Ave.","zipcode":"48202"}],"inspectionsByEstablishmentidList":[{"inspectionid":"60135","inspectionDate":"2022-08-11T00:00:00","inspectionType":"Preopening/New","inCompliance":"Yes","violationsByInspectionidList":[{"violationCode":"4-402.11","violationDescription":"EQUIPMENT that is fixed because it is not EASILY MOVABLE shall be installed so that it is spaced to allow access for cleaning along the sides, behind, and above the EQUIPMENT or sealed as required,  COUNTER-MOUNTED EQUIPMENT that is not EASILY MOVABLE shall be installed to allow cleaning of the EQUIPMENT and areas underneath and around the EQUIPMENT .\n","violationType":"Core","itemDescription":"Fixed equipment","subItem":null,"problemDescription":"Not sealed to adjoining","subProblem":null,"location":"HOOD","subLocation":null,"corrected":"False","daysToCorrect":"30","correctedDate":null,"correctionDescription":null},{"violationCode":"4-501.11","violationDescription":"EQUIPMENT shall be maintained in a state of repair and condition that meets the requirements of the code.\n","violationType":"Core","itemDescription":"Equipment","subItem":null,"problemDescription":"In poor repair","subProblem":null,"location":"BACK AREA","subLocation":null,"corrected":"False","daysToCorrect":"30","correctedDate":null,"correctionDescription":null},{"violationCode":"6-301.14","violationDescription":"A sign or poster that notifies FOOD EMPLOYEES to wash their hands shall be provided at all HANDWASHING SINKS used by FOOD EMPLOYEES and shall be clearly visible to FOOD EMPLOYEES.\n","violationType":"Core","itemDescription":"Handwashing signage","subItem":null,"problemDescription":"Not provided","subProblem":null,"location":"HANDSINK(S)","subLocation":null,"corrected":"False","daysToCorrect":"30","correctedDate":null,"correctionDescription":null}]}]}],"maxInspectionDate":[{"inspectionDate":"2022-08-31T00:00:00"}]}},"pageContext":{"eid":"51623038"}},"staticQueryHashes":["3649515864","63159454"]}