{"data":{"site":{"pathPrefix":"/restaurant-inspections"},"postgres":{"establishment":[{"establishmentid":"361","name":"Brandy's on 7","address":"6141 E Seven Mile Rd","zipcode":"48234","owner":"Margaret Miron","licenseNumber":"078642","licenseType":"Fixed Establishment","establishmentType":"Food Service Establishment","establishmentStatus":"Open","riskCategory":null,"reviewFrequencyDays":"365.0","coords":"-83.04112,42.43368","geojson":{"id":"361","type":"Feature","geometry":{"type":"Point","coordinates":[-83.0411173209999,42.4336796540001]},"properties":{"name":"Brandy's on 7","owner":"Margaret Miron","address":"6141 E Seven Mile Rd","zipcode":"48234","license_type":"Fixed Establishment","risk_category":null,"license_number":"078642","establishmentid":"361","establishment_type":"Food Service Establishment","establishment_status":"Open","review_frequency_days":"365.0","most_recent_license_date":"4/26/2016"}},"nearbyList":[{"establishmentid":"1213","name":"Chili Boys (Lou's Coney Island)","address":"19100 Mound Rd","zipcode":"48234"},{"establishmentid":"51622978","name":"T & M Chicken and Seafood","address":"5844 E Seven Mile Rd","zipcode":"48234"},{"establishmentid":"629","name":"V.F.W. Post #2233 James Europe","address":"18651 Mound Rd","zipcode":"48234"},{"establishmentid":"560","name":"Tippin Inn, Inc.","address":"18430-34 Mt Elliott","zipcode":"48234"},{"establishmentid":"51622989","name":"Tippin Inn","address":"18430-34 Mt Elliott","zipcode":null},{"establishmentid":"605","name":"Two Way Inn","address":"17897 Mt Elliott St","zipcode":"48212"},{"establishmentid":"492","name":"Escape Lounge","address":"19404 Sherwood St","zipcode":"48234"},{"establishmentid":"5043","name":"Grandys Coney Island","address":"4004 E Outer Dr","zipcode":"48234"},{"establishmentid":"3086","name":"B & B's Diner","address":"5223 E Seven Mile Rd","zipcode":"48234"},{"establishmentid":"5422","name":"Texas Fish and Chicken","address":"5207 E 7 Mile Rd","zipcode":"48234"}],"inspectionsByEstablishmentidList":[{"inspectionid":"44000","inspectionDate":"2018-10-30T00:00:00","inspectionType":"Routine Inspection","inCompliance":"Yes","violationsByInspectionidList":[{"violationCode":"4-602.13","violationDescription":"NonFOOD-CONTACT SURFACES of EQUIPMENT shall be cleaned at a frequency necessary to preclude accumulation of soil residues.\r\n","violationType":"Core","itemDescription":"Nonfood contact surface(s)","subItem":"","problemDescription":"With accumulation of debris","subProblem":"","location":"GRILL AREA","subLocation":"","corrected":"Not required","daysToCorrect":"30.0","correctedDate":null,"correctionDescription":"Keep clean."}]},{"inspectionid":"39649","inspectionDate":"2017-08-21T00:00:00","inspectionType":"Routine Inspection","inCompliance":"Yes","violationsByInspectionidList":[{"violationCode":"MFL289.2129","violationDescription":"Sec. 2129. (1) All food establishments shall employ a minimum of 1 managerial employee as a food safety manager, who must be an individual who is currently certified under a personnel certification program accredited by the American National Standards Institute, utilizing the Conference for Food Protection standards:\r\n(2) Beginning January 14, 2017 and every 5 years thereafter, a certified  food safety manager who supervises the operations of a food service establishment shall have completed a food safety training program\r\ncontaining an allergen awareness  component that has been approved by  the department. A food service establishment shall retain records on the  site of the food service establishment documenting compliance of its  certified food safety managers with this subsection. ","violationType":"Core","itemDescription":"Person-in-charge","subItem":"","problemDescription":"Missing","subProblem":"","location":"PERSON IN CHARGE","subLocation":"","corrected":"Not required","daysToCorrect":"30.0","correctedDate":null,"correctionDescription":"Provide."},{"violationCode":"4-204.112","violationDescription":"(A)  In a mechanically refrigerated or hot FOOD storage unit, the sensor of a TEMPERATURE MEASURING DEVICE shall be located to measure the air temperature in the warmest part of a mechanically refrigerated unit and in the coolest part of a hot FOOD storage unit.\r\n(B)  Cold or hot holding EQUIPMENT used for POTENTIALLY HAZARDOUS FOOD shall be designed to include and shall be equipped with at least one integral or permanently affixed TEMPERATURE MEASURING DEVICE that is located to allow easy viewing of the device's temperature display (EXCEPT, heat lamps, cold plates, steam tables, or other equipment where it is not practical).\r\n(C)  TEMPERATURE MEASURING DEVICES shall be designed to be easily readable.\r\n(D)  FOOD TEMPERATURE MEASURING DEVICES and water TEMPERATURE MEASURING DEVICES on WAREWASHING machines shall have a numerical scale, printed record, or digital readout in increments no greater than 1C or 2F in the intended range of use. (Pf)\r\n\r\n","violationType":"Core","itemDescription":"Thermometer(s)","subItem":"","problemDescription":"Broken","subProblem":"","location":"COOLER","subLocation":"","corrected":"Not required","daysToCorrect":"10.0","correctedDate":null,"correctionDescription":"Repair/replace."},{"violationCode":"6-501.11","violationDescription":"PHYSICAL FACILITIES shall be maintained in good repair.\r\n","violationType":"Core","itemDescription":"Physical facilities","subItem":"","problemDescription":"In poor repair","subProblem":"","location":"FLOOR","subLocation":"","corrected":"Not required","daysToCorrect":"30.0","correctedDate":null,"correctionDescription":"Repair"}]}]}],"maxInspectionDate":[{"inspectionDate":"2019-10-31T00:00:00"}]}},"pageContext":{"eid":"361"}}