{"data":{"site":{"pathPrefix":"/restaurant-inspections"},"postgres":{"establishment":[{"establishmentid":"2763","name":"William J. Beckham Elementary","address":"9860 Park Drive","zipcode":"48213","owner":"Detoit Board of Education","licenseNumber":"051210","licenseType":"Fixed Establishment","establishmentType":"Public School","establishmentStatus":"Open","riskCategory":"Medium","reviewFrequencyDays":"210.0","coords":"-82.97939,42.40820","geojson":{"id":"2763","type":"Feature","geometry":{"type":"Point","coordinates":[-82.9793870829999,42.408203771]},"properties":{"name":"William J. Beckham Elementary","owner":"Detoit Board of Education","address":"9860 Park Drive","zipcode":"48213","license_type":"Fixed Establishment","risk_category":"Medium","license_number":"051210","establishmentid":"2763","establishment_type":"Public School","establishment_status":"Open","review_frequency_days":"210.0","most_recent_license_date":"4/15/2019"}},"nearbyList":[{"establishmentid":"4961","name":"New Harper Seafood & Chicken","address":"12715 Harper Ave","zipcode":"48213"},{"establishmentid":"664","name":"Chandler Park Golf Course","address":"12801 Chandler Park Dr","zipcode":"48213"},{"establishmentid":"1215","name":"Wendy's Old Fashioned Hamburgers","address":"12550 Gratiot Ave","zipcode":"48205"},{"establishmentid":"1944","name":"Harpo's USA Concerts","address":"14238 Harper Ave","zipcode":"48213"},{"establishmentid":"1385","name":"Little Caesar's Pizza #81","address":"12039 Gratiot Ave","zipcode":"48205"},{"establishmentid":"51622627","name":"Antonio's Pizzeria & Grill","address":"12740 Gratiot Ave","zipcode":"48205"},{"establishmentid":"2244","name":"Family Aquatic Center at Chandler Park","address":"12600 Chandler Park Dr","zipcode":"48213"},{"establishmentid":"1376","name":"Kentucky Fried Chicken H730220","address":"9041 Chalmers St","zipcode":"48213"},{"establishmentid":"1292","name":"Little Caesar's Pizza #18","address":"14351 Harper Ave","zipcode":"48224"},{"establishmentid":"1311","name":"Long John Silvers #3464","address":"11288 Gratiot Ave","zipcode":"48213"}],"inspectionsByEstablishmentidList":[{"inspectionid":"44732","inspectionDate":"2018-12-13T00:00:00","inspectionType":"Routine Inspection","inCompliance":"Yes","violationsByInspectionidList":[{"violationCode":"5-205.15","violationDescription":"A PLUMBING SYSTEM shall be:\r\n(A) Repaired according to LAW; (P) and\r\n(B) Maintained in good repair.\r\n","violationType":"Core","itemDescription":"Plumbing system","subItem":"","problemDescription":"Not maintained","subProblem":"","location":"3 COMPARTMENT SINK AREA","subLocation":"","corrected":"Not required","daysToCorrect":"10.0","correctedDate":null,"correctionDescription":"Maintain in good repair"},{"violationCode":"6-501.18","violationDescription":"PLUMBING FIXTURES such as HANDWASHING SINKS, toilets, and urinals shall be cleaned as often as necessary to keep them clean. \r\n","violationType":"Core","itemDescription":"Handwashing facility","subItem":"","problemDescription":"Not clean","subProblem":"","location":"HANDSINK(S)","subLocation":"","corrected":"Not required","daysToCorrect":"30.0","correctedDate":null,"correctionDescription":"Clean"},{"violationCode":"4-501.11","violationDescription":"EQUIPMENT shall be maintained in a state of repair and condition that meets the requirements of the code.\r\n","violationType":"Core","itemDescription":"Equipment","subItem":"","problemDescription":"In poor repair","subProblem":"","location":"HOT HOLDING CABINET","subLocation":"","corrected":"Not required","daysToCorrect":"30.0","correctedDate":null,"correctionDescription":"Repair"}]},{"inspectionid":"42350","inspectionDate":"2018-05-24T00:00:00","inspectionType":"Routine Inspection","inCompliance":"Yes","violationsByInspectionidList":[{"violationCode":"6-303.11","violationDescription":"Light of the proper intensity shall be provided as specified.\r\n","violationType":"Core","itemDescription":"Lighting intensity","subItem":"","problemDescription":"Less than","subProblem":"","location":"COOLER","subLocation":"","corrected":"Not required","daysToCorrect":"30.0","correctedDate":null,"correctionDescription":"Replace."}]},{"inspectionid":"40804","inspectionDate":"2017-11-14T00:00:00","inspectionType":"Routine Inspection","inCompliance":"Yes","violationsByInspectionidList":[]},{"inspectionid":"39674","inspectionDate":"2017-04-11T00:00:00","inspectionType":"Routine Inspection","inCompliance":"Yes","violationsByInspectionidList":[]},{"inspectionid":"36720","inspectionDate":"2016-09-07T00:00:00","inspectionType":"Routine Inspection","inCompliance":"Yes","violationsByInspectionidList":[]}]}],"maxInspectionDate":[{"inspectionDate":"2019-04-30T00:00:00"}]}},"pageContext":{"eid":"2763"}}