{"data":{"site":{"pathPrefix":"/restaurant-inspections"},"postgres":{"establishment":[{"establishmentid":"51622878","name":"Element Detroit at the Metropolitan 1A","address":"33 John R Ave","zipcode":"48226","owner":"Metropolitan Master Tenant LLC","licenseNumber":"ps112818","licenseType":"Fixed Establishment","establishmentType":"Food Service Establishment","establishmentStatus":"Open","riskCategory":"High","reviewFrequencyDays":"180.0","coords":"-83.04886,42.33545","geojson":{"id":"51622878","type":"Feature","geometry":{"type":"Point","coordinates":[-83.048859699,42.3354534910001]},"properties":{"name":"Element Detroit at the Metropolitan 1A","owner":"Metropolitan Master Tenant LLC","address":"33 John R Ave","zipcode":"48226","license_type":"Fixed Establishment","risk_category":"High","license_number":"ps112818","establishmentid":"51622878","establishment_type":"Food Service Establishment","establishment_status":"Open","review_frequency_days":"180.0","most_recent_license_date":"12/13/2018"}},"nearbyList":[{"establishmentid":"51622595","name":"The Wurlitzer MT DBA Candy Bar","address":"1509 Broadway St","zipcode":"48226"},{"establishmentid":"51622592","name":"1509 Populace LLC","address":"1509 Broadway St","zipcode":"48226"},{"establishmentid":"51622594","name":"Albena- Taste Everything LLC","address":"1509 Broadway St","zipcode":"48226"},{"establishmentid":"4373","name":"Small Plates LLC","address":"1521 Broadway St","zipcode":"48226"},{"establishmentid":"4843","name":"Wright & Co.","address":"1500 Woodward Ave","zipcode":"48226"},{"establishmentid":"2614","name":"Detroit Beer Co.","address":"1529 Broadway St","zipcode":"48226"},{"establishmentid":"4957","name":"Cornerstone Barrel House","address":"1456 Woodward Ave","zipcode":"48226"},{"establishmentid":"4364","name":"Bleu Detroit","address":"1540 Woodward Ave","zipcode":"48226"},{"establishmentid":"1680","name":"Michigan Opera Theater","address":"1526 Broadway St","zipcode":"48226"},{"establishmentid":"4775","name":"Chickpea in the D","address":"2 John R St","zipcode":"48226"}],"inspectionsByEstablishmentidList":[{"inspectionid":"45660","inspectionDate":"2019-03-21T00:00:00","inspectionType":"Routine Inspection","inCompliance":"Yes","violationsByInspectionidList":[{"violationCode":"3-101.11","violationDescription":"FOOD shall be safe, unADULTERATED and honestly presented. (P)\r\n","violationType":"Priority","itemDescription":"Food","subItem":"","problemDescription":"Dishonestly presented","subProblem":"","location":"UPPER KITCHEN","subLocation":"In the Reach-in cooler","corrected":"Yes","daysToCorrect":"10.0","correctedDate":"2019-03-21T00:00:00","correctionDescription":null},{"violationCode":"4-302.14","violationDescription":"A test kit or other device that accurately measures the concentration in mg/L of SANITIZING solutions shall be provided. (Pf)\r\n","violationType":"Foundation","itemDescription":"Sanitizer test kit","subItem":"quaternary ammonia","problemDescription":"Damaged","subProblem":"","location":"DISHWASHING AREA","subLocation":"At the Sanitizer","corrected":"Yes","daysToCorrect":"10.0","correctedDate":"2019-03-25T00:00:00","correctionDescription":null}]},{"inspectionid":"44494","inspectionDate":"2018-12-13T00:00:00","inspectionType":"Preopening/New","inCompliance":"Yes","violationsByInspectionidList":[{"violationCode":"4-402.11","violationDescription":"EQUIPMENT that is fixed because it is not EASILY MOVABLE shall be installed so that it is spaced to allow access for cleaning along the sides, behind, and above the EQUIPMENT or sealed as required,  COUNTER-MOUNTED EQUIPMENT that is not EASILY MOVABLE shall be installed to allow cleaning of the EQUIPMENT and areas underneath and around the EQUIPMENT .\r\n","violationType":"Core","itemDescription":"Fixed equipment","subItem":"","problemDescription":"Not sealed to adjoining","subProblem":"Wall(s)","location":"SERVICE AREA","subLocation":"","corrected":"Not required","daysToCorrect":"30.0","correctedDate":null,"correctionDescription":"Seal to wall/equipment to facilitate cleaning."}]}]}],"maxInspectionDate":[{"inspectionDate":"2019-03-31T00:00:00"}]}},"pageContext":{"eid":"51622878"}}