{"data":{"site":{"pathPrefix":"/restaurant-inspections"},"postgres":{"establishment":[{"establishmentid":"5223","name":"Primo's Tacos","address":"7643 Dix Ave","zipcode":"48216","owner":"Pascual Guzman ","licenseNumber":"038505","licenseType":"Mobile Food Establishment","establishmentType":"LHD - Mobile Food Establishmen","establishmentStatus":"Seasonal","riskCategory":"Medium","reviewFrequencyDays":"210","coords":"-83.12662,42.31692","geojson":{"id":"5223","type":"Feature","geometry":{"type":"Point","coordinates":[-83.126623429,42.31691885]},"properties":{"name":"Primo's Tacos","owner":"Pascual Guzman ","address":"7643 Dix Ave","zipcode":"48216","license_type":"Mobile Food Establishment","risk_category":"Medium","license_number":"038505","establishmentid":"5223","establishment_type":"LHD - Mobile Food Establishmen","establishment_status":"Seasonal","review_frequency_days":"210","most_recent_license_date":"5/2/2019"}},"nearbyList":[{"establishmentid":"1015","name":"Casey's Bar L.L.C.","address":"7677 Dix Ave","zipcode":"48209"},{"establishmentid":"514","name":"Taqueria Mi Pueblo","address":"7278 Dix Ave","zipcode":"48209"},{"establishmentid":"3849","name":"El Kiosko","address":"7271 Dix Ave","zipcode":"48209"},{"establishmentid":"51622476","name":"Mi Pueblo Express","address":"7271 Dix Ave","zipcode":"48209"},{"establishmentid":"995","name":"Harms School Elementary","address":"2400 Central Ave","zipcode":"48209"},{"establishmentid":"3858","name":"Pollos Los Gallos","address":"7135 Dix Ave","zipcode":"48209"},{"establishmentid":"1342","name":"Restaurant Nuestra Familia","address":"7620 W Vernor","zipcode":"48209"},{"establishmentid":"279","name":"Pauls Pizzeria","address":"7635 W Vernor","zipcode":"48209"},{"establishmentid":"1730","name":"Great Panda Garden Chinese Restaurant","address":"7930 W Vernor","zipcode":"48209"},{"establishmentid":"201","name":"Taqueria El Nacimiento","address":"7400 W Vernor","zipcode":"48209"}],"inspectionsByEstablishmentidList":[{"inspectionid":"46054","inspectionDate":"2019-05-02T00:00:00","inspectionType":"Routine Inspection","inCompliance":"No","violationsByInspectionidList":[{"violationCode":"3-301.11","violationDescription":"(A) To prevent food contamination FOOD EMPLOYEES shall properly wash their      hands.\r\n(B) FOOD EMPLOYEES may not contact exposed, READY-TO-EAT FOOD with      their bare hands and shall use suitable UTENSILS such as deli tissue,       spatulas, tongs, single-use gloves, or dispensing EQUIPMENT. (P)\r\n(C) FOOD EMPLOYEES shall minimize bare hand and arm contact with exposed     FOOD that is not in a READY-TO-EAT form. (Pf)\r\n\r\n","violationType":"Priority","itemDescription":"Ready-to-eat food(s)","subItem":"","problemDescription":"Handled with bare hands","subProblem":"","location":"FRONT LINE","subLocation":"Bare hand contact","corrected":"No","daysToCorrect":"10","correctedDate":null,"correctionDescription":"Suitable utensils or single-use gloves are to be utilized."},{"violationCode":"5-205.15","violationDescription":"A PLUMBING SYSTEM shall be:\r\n(A) Repaired according to LAW; (P) and\r\n(B) Maintained in good repair.\r\n","violationType":"Priority","itemDescription":"Plumbing system","subItem":"drain lines","problemDescription":"Not maintained","subProblem":"","location":"HANDSINK(S)","subLocation":"Drain line","corrected":"No","daysToCorrect":"10","correctedDate":null,"correctionDescription":"Maintain in good repair"},{"violationCode":"3-501.16","violationDescription":"Except during preparation, cooking, or cooling, or when time is used as the public health control POTENTIALLY HAZARDOUS FOOD (TIME/TEMPERATURE CONTROL FOR SAFETY FOOD) shall be maintained:\r\n(A)  135ºF or above, except that roasts properly cooked and cooled may be held              at a temperature of 130ºF; or (P)\r\n(B)   At 41ºF or less (P)\r\n","violationType":"Priority","itemDescription":"Hot food item(s)","subItem":"","problemDescription":"Stored below 135 degrees F","subProblem":"","location":"HOT HOLDING AREA","subLocation":"Hot holding temperatures","corrected":"Yes","daysToCorrect":"10","correctedDate":"2019-05-02T00:00:00","correctionDescription":"Store above 135 degrees F."},{"violationCode":"4-501.11","violationDescription":"EQUIPMENT shall be maintained in a state of repair and condition that meets the requirements of the code.\r\n","violationType":"Core","itemDescription":"Equipment","subItem":"","problemDescription":"In poor repair","subProblem":"","location":"EQUIPMENT","subLocation":"Cold holding equipment","corrected":"Not required","daysToCorrect":"30","correctedDate":null,"correctionDescription":"Repair"}]},{"inspectionid":"38635","inspectionDate":"2017-03-23T00:00:00","inspectionType":"Routine Inspection","inCompliance":"No","violationsByInspectionidList":[]}]}],"maxInspectionDate":[{"inspectionDate":"2020-05-29T00:00:00"}]}},"pageContext":{"eid":"5223"}}