{"componentChunkName":"component---src-templates-establishment-page-js","path":"/establishment/51622511","result":{"data":{"site":{"pathPrefix":"/restaurant-inspections"},"postgres":{"establishment":[{"establishmentid":"51622511","name":"Soulful Grub","address":"9180  Fort St. W.","zipcode":"48209","owner":"Darnell Leonard","licenseNumber":"238166","licenseType":"Special Transitory Food Unit","establishmentType":"LHD - Special Transitory Food","establishmentStatus":"Permanently Closed","riskCategory":null,"reviewFrequencyDays":"335","coords":"-83.12940,42.29667","geojson":{"id":"51622511","type":"Feature","geometry":{"type":"Point","coordinates":[-83.129395017,42.296673767]},"properties":{"name":"Soulful Grub","owner":"Darnell Leonard","address":"9180  Fort St. W.","zipcode":"48209","license_type":"Special Transitory Food Unit","risk_category":null,"license_number":"238166","establishmentid":"51622511","establishment_type":"LHD - Special Transitory Food","establishment_status":"Permanently Closed","review_frequency_days":"335","most_recent_license_date":"4/19/2022"}},"nearbyList":[{"establishmentid":"1606","name":"Prelja's Ham Palace","address":"9405 Fort St. W.","zipcode":"48209"},{"establishmentid":"927","name":"Higgins Elementary","address":"9200 Olivet","zipcode":"48209"},{"establishmentid":"370","name":"Los Compadres","address":"1132 Lawndale","zipcode":"48209"},{"establishmentid":"4234","name":"Mangonadas Del Barrio","address":"1210-14 Lawndale","zipcode":"48209"},{"establishmentid":"51622764","name":"Tres Leches 'n Snacks","address":"1210 Lawndale St.","zipcode":"48209"},{"establishmentid":"3613","name":"Tacos El Toro #1","address":"8191 Chamberlain","zipcode":"48209"},{"establishmentid":"4333","name":"Tacos El Toro #4","address":"8191  Chamberlain St.","zipcode":null},{"establishmentid":"4241","name":"Tacos El Toro #3","address":"8191 Chamberlain","zipcode":"48209"},{"establishmentid":"811","name":"Reflections Bar & Grill","address":"10011 Fort St. W.","zipcode":"48209"},{"establishmentid":"51623625","name":"LA Palapa Del Parian ","address":"1631 Lawndale ","zipcode":"48209"}],"inspectionsByEstablishmentidList":[{"inspectionid":"40896","inspectionDate":"2017-11-20T00:00:00","inspectionType":"Preopening/New","inCompliance":"Yes","violationsByInspectionidList":[{"violationCode":"6-202.11","violationDescription":"Except as otherwise approved, light bulbs shall be shielded, coated, or otherwise shatter-resistant in areas where there is exposed FOOD; clean EQUIPMENT, UTENSILS, and LINENS; or unwrapped SINGLE-SERVICE and SINGLE-USE ARTICLES.\n","violationType":"Core","itemDescription":"Light shielding","subItem":null,"problemDescription":"Missing","subProblem":null,"location":"MOBILE UNIT","subLocation":null,"corrected":"True","daysToCorrect":"30","correctedDate":"2017-12-07T00:00:00","correctionDescription":"Provide."},{"violationCode":"4-501.11","violationDescription":"EQUIPMENT shall be maintained in a state of repair and condition that meets the requirements of the code.\n","violationType":"Core","itemDescription":"Equipment","subItem":null,"problemDescription":"In poor repair","subProblem":null,"location":"MOBILE UNIT","subLocation":null,"corrected":"True","daysToCorrect":"30","correctedDate":"2017-12-07T00:00:00","correctionDescription":"Repair"}]}]}],"maxInspectionDate":[{"inspectionDate":"2022-07-25T00:00:00"}]}},"pageContext":{"eid":"51622511"}},"staticQueryHashes":["3649515864","63159454"]}