{"data":{"site":{"pathPrefix":"/restaurant-inspections"},"postgres":{"establishment":[{"establishmentid":"51622982","name":"Del Mar","address":"501 Monroe St","zipcode":"48226","owner":"Christopher Johnson","licenseNumber":"238086","licenseType":"Fixed Establishment","establishmentType":"Food Service Establishment","establishmentStatus":"Open","riskCategory":"High","reviewFrequencyDays":"180","coords":"-83.04245,42.33517","geojson":{"id":"51622982","type":"Feature","geometry":{"type":"Point","coordinates":[-83.042449847,42.335169527]},"properties":{"name":"Del Mar","owner":"Christopher Johnson","address":"501 Monroe St","zipcode":"48226","license_type":"Fixed Establishment","risk_category":"High","license_number":"238086","establishmentid":"51622982","establishment_type":"Food Service Establishment","establishment_status":"Open","review_frequency_days":"180","most_recent_license_date":"4/25/2019"}},"nearbyList":[{"establishmentid":"51622976","name":"DelMar Kitchen & Bar","address":"501 Monroe","zipcode":"48226"},{"establishmentid":"3179","name":"Santorini","address":"501 Monroe St","zipcode":"48226"},{"establishmentid":"388","name":"Pappy's Bar and Grill","address":"517 Monroe St","zipcode":"48226"},{"establishmentid":"389","name":"Golden Fleece Restaurant Inc.","address":"525 Monroe St","zipcode":"48226"},{"establishmentid":"51622604","name":"Eat N Out Pizza & Gelato","address":"531 Monroe St","zipcode":"48226"},{"establishmentid":"4487","name":"Plaka Level 2","address":"535 Monroe St","zipcode":"48226"},{"establishmentid":"1202","name":"The Greek","address":"535 Monroe St","zipcode":"48226"},{"establishmentid":"51622559","name":"Market District Grill","address":"514 Monroe St","zipcode":"48226"},{"establishmentid":"5181","name":"Coldstone Creamery","address":"510 Monroe St","zipcode":"48226"},{"establishmentid":"4011","name":"Five Guy's Burgers & Fries","address":"508 Monroe St","zipcode":"48226"}],"inspectionsByEstablishmentidList":[{"inspectionid":"48186","inspectionDate":"2019-06-13T00:00:00","inspectionType":"Plan Review/Pre-Open","inCompliance":"Yes","violationsByInspectionidList":[{"violationCode":"4-204.120","violationDescription":"EQUIPMENT compartments that are subject to accumulation of moisture due to conditions such as condensation, FOOD or BEVERAGE drip, or water from melting ice shall be sloped to an outlet that allows complete draining.\r\n","violationType":"Core","itemDescription":"Equipment compartment(s)","subItem":"beverage machine tray(s)","problemDescription":"Not sloped to drain","subProblem":"","location":"BAR","subLocation":"","corrected":"Not required","daysToCorrect":"30","correctedDate":null,"correctionDescription":null},{"violationCode":"6-201.12","violationDescription":"(A) Utility service lines and pipes may not be unnecessarily exposed.\r\n(B) Exposed utility service lines and pipes shall be installed so they do not obstruct or prevent cleaning of the floors, walls, or ceilings.\r\n(C) Exposed horizontal utility service lines and pipes may not be installed on the floor.\r\n","violationType":"Core","itemDescription":"Utility service line(s)","subItem":"-exposed","problemDescription":"Improperly installed","subProblem":"On floor","location":"BAR","subLocation":"","corrected":"Not required","daysToCorrect":"30","correctedDate":null,"correctionDescription":null}]}]}],"maxInspectionDate":[{"inspectionDate":"2020-05-29T00:00:00"}]}},"pageContext":{"eid":"51622982"}}