{"componentChunkName":"component---src-templates-establishment-page-js","path":"/establishment/51623507","result":{"data":{"site":{"pathPrefix":"/restaurant-inspections"},"postgres":{"establishment":[{"establishmentid":"51623507","name":"MJ's North End Ice Cream Parlor","address":"8801 Oakland","zipcode":"48211","owner":"4 Justice LLC","licenseNumber":"255900","licenseType":"Fixed Establishment","establishmentType":"Food Service Establishment","establishmentStatus":"Seasonal","riskCategory":"Medium","reviewFrequencyDays":"360","coords":"-83.07144,42.38377","geojson":{"id":"51623507","type":"Feature","geometry":{"type":"Point","coordinates":[-83.071442403,42.383767451]},"properties":{"name":"MJ's North End Ice Cream Parlor","owner":"4 Justice LLC","address":"8801 Oakland","zipcode":"48211","license_type":"Fixed Establishment","risk_category":"Medium","license_number":"255900","establishmentid":"51623507","establishment_type":"Food Service Establishment","establishment_status":"Seasonal","review_frequency_days":"360","most_recent_license_date":"5/20/2022"}},"nearbyList":[{"establishmentid":"5204","name":"Miss Virginia's Ice Cream Parlor","address":"8801 Oakland Ave.","zipcode":"48211"},{"establishmentid":"4015","name":"Greater New Mount Moriah Banquet","address":"586 Owens St.","zipcode":"48202"},{"establishmentid":"696","name":"Grandy's Coney Island","address":"1200 Holbrook Rd.","zipcode":"48211"},{"establishmentid":"3277","name":"VIP Hot Dogs II","address":"524  E. Philadelphia","zipcode":"48202"},{"establishmentid":"4026","name":"VIP Hot Dogs","address":"524 E. Philadelphia","zipcode":"48202"},{"establishmentid":"2432","name":"VIP Hot Dogs II","address":"524 E. Philadelphia","zipcode":"48202"},{"establishmentid":"323","name":"VIP Hot Dogs #1","address":"327 Philadelphia E.","zipcode":"48202"},{"establishmentid":"2404","name":"The Schvitz ","address":"8295 Oakland Ave.","zipcode":"48211"},{"establishmentid":"1497","name":"Russell Street Baptist Church","address":"8700 Chrysler Hwy.","zipcode":"48211"},{"establishmentid":"2765","name":"American Axle Manufacturing","address":"1605 Holbrook ave.","zipcode":"48211"}],"inspectionsByEstablishmentidList":[{"inspectionid":"59500","inspectionDate":"2022-06-03T00:00:00","inspectionType":"Routine Inspection","inCompliance":"No","violationsByInspectionidList":[{"violationCode":"6-101.11","violationDescription":"Materials for indoor floor, wall, and ceiling surfaces under conditions of normal use shall be:\n(1) SMOOTH, durable, and EASILY CLEANABLE for areas where FOOD ESTABLISHMENT operations are conducted;\n(2) Closely woven and EASILY CLEANABLE carpet for carpeted areas; and\n(3) Nonabsorbent for areas subject to moisture such as FOOD preparation areas, walk-in refrigerators, WAREWASHING areas, toilet rooms, mobile FOOD ESTABLISHMENT SERVICING AREAS, and areas subject to flushing or spray cleaning methods.\n","violationType":"Core","itemDescription":null,"subItem":null,"problemDescription":null,"subProblem":null,"location":"RESTAURANT","subLocation":null,"corrected":"False","daysToCorrect":"30","correctedDate":null,"correctionDescription":null},{"violationCode":"5-402.11","violationDescription":"Except as otherwise allowed, a direct connection may not exist between the SEWAGE system and a drain originating from EQUIPMENT in which FOOD, portable EQUIPMENT, or UTENSILS are placed. (P)\n","violationType":"Core","itemDescription":"Drainage system","subItem":"drain lines","problemDescription":null,"subProblem":null,"location":"RESTAURANT","subLocation":"Dipper well","corrected":"False","daysToCorrect":"10","correctedDate":null,"correctionDescription":null}]}]}],"maxInspectionDate":[{"inspectionDate":"2022-07-25T00:00:00"}]}},"pageContext":{"eid":"51623507"}},"staticQueryHashes":["3649515864","63159454"]}