{"data":{"site":{"pathPrefix":"/restaurant-inspections"},"postgres":{"establishment":[{"establishmentid":"1037","name":"Detroit Lions Academy","address":"10101 E Canfield","zipcode":"48214","owner":"BRD OF EDUCATION DETROIT CITY","licenseNumber":"035093","licenseType":"Fixed Establishment","establishmentType":"Public School","establishmentStatus":"Open","riskCategory":null,"reviewFrequencyDays":"210.0","coords":"-82.99362,42.37884","geojson":{"id":"1037","type":"Feature","geometry":{"type":"Point","coordinates":[-82.9936220279999,42.378838914]},"properties":{"name":"Detroit Lions Academy","owner":"BRD OF EDUCATION DETROIT CITY","address":"10101 E Canfield","zipcode":"48214","license_type":"Fixed Establishment","risk_category":null,"license_number":"035093","establishmentid":"1037","establishment_type":"Public School","establishment_status":"Open","review_frequency_days":"210.0","most_recent_license_date":"4/15/2019"}},"nearbyList":[{"establishmentid":"3821","name":"Shabazz East Restaurant","address":"4712-16 Cadillac Blvd","zipcode":"48214"},{"establishmentid":"4999","name":"Big A's Concessions","address":"5119 Cadillac St","zipcode":"48213"},{"establishmentid":"3324","name":"Timbuktu Academy","address":"10800 E Canfield Rd","zipcode":"48214"},{"establishmentid":"1392","name":"Williams and Sons Ice Cream","address":"10700 Mack Ave","zipcode":"48214"},{"establishmentid":"1737","name":"Genesis House III (EAST)","address":"3840 Fairview St","zipcode":"48214"},{"establishmentid":"1158","name":"Franklin Gourmet Dairy Bar","address":"8405 Mack Ave","zipcode":"48214"},{"establishmentid":"5429","name":"Palace Pizza","address":"11207 Mack","zipcode":"48214"},{"establishmentid":"1006","name":"John Nichols Elementary","address":"3000 Burns Ave","zipcode":"48214"},{"establishmentid":"1244","name":"Bethel Baptist Church East","address":"5715 Holcomb St","zipcode":"48213"},{"establishmentid":"834","name":"Hutchinson Learning Academy","address":"2600 Garland St","zipcode":"48214"}],"inspectionsByEstablishmentidList":[{"inspectionid":"43824","inspectionDate":"2018-10-16T00:00:00","inspectionType":"Routine Inspection","inCompliance":"Yes","violationsByInspectionidList":[{"violationCode":"4-501.11","violationDescription":"EQUIPMENT shall be maintained in a state of repair and condition that meets the requirements of the code.\r\n","violationType":"Core","itemDescription":"Equipment","subItem":"","problemDescription":"In poor repair","subProblem":"","location":"MIDDLE STORAGE AREA","subLocation":"At the Cooler (2 door)","corrected":"Not required","daysToCorrect":"30.0","correctedDate":null,"correctionDescription":null}]},{"inspectionid":"42012","inspectionDate":"2018-04-25T00:00:00","inspectionType":"Routine Inspection","inCompliance":"Yes","violationsByInspectionidList":[{"violationCode":"5-205.15","violationDescription":"A PLUMBING SYSTEM shall be:\r\n(A) Repaired according to LAW; (P) and\r\n(B) Maintained in good repair.\r\n","violationType":"Core","itemDescription":"Plumbing system","subItem":"water line(s)","problemDescription":"Not maintained","subProblem":"","location":"DISHWASHING AREA","subLocation":"At the Three compartment sink","corrected":"Not required","daysToCorrect":"10.0","correctedDate":null,"correctionDescription":"Maintain in good repair"}]},{"inspectionid":"39952","inspectionDate":"2017-09-14T00:00:00","inspectionType":"Routine Inspection","inCompliance":"Yes","violationsByInspectionidList":[{"violationCode":"4-501.11","violationDescription":"EQUIPMENT shall be maintained in a state of repair and condition that meets the requirements of the code.\r\n","violationType":"Core","itemDescription":"Equipment","subItem":"","problemDescription":"In poor repair","subProblem":"Broken","location":"STORAGE AREA(S)","subLocation":"Inside the Cooler (2 door)","corrected":"Not required","daysToCorrect":"30.0","correctedDate":null,"correctionDescription":"Repair/replace."}]},{"inspectionid":"37267","inspectionDate":"2016-11-30T00:00:00","inspectionType":"Routine Inspection","inCompliance":"Yes","violationsByInspectionidList":[]}]}],"maxInspectionDate":[{"inspectionDate":"2019-03-31T00:00:00"}]}},"pageContext":{"eid":"1037"}}