{"data":{"site":{"pathPrefix":"/restaurant-inspections"},"postgres":{"establishment":[{"establishmentid":"4914","name":"Loyola High School Detroit","address":"15325 Pinehurst","zipcode":"48238","owner":"(DPS) Archdiocese of Detroit  ","licenseNumber":"079439","licenseType":"Fixed Establishment","establishmentType":"Non-Public School","establishmentStatus":"Open","riskCategory":"Medium","reviewFrequencyDays":"210.0","coords":"-83.16633,42.40278","geojson":{"id":"4914","type":"Feature","geometry":{"type":"Point","coordinates":[-83.1663273779999,42.402784577]},"properties":{"name":"Loyola High School Detroit","owner":"(DPS) Archdiocese of Detroit  ","address":"15325 Pinehurst","zipcode":"48238","license_type":"Fixed Establishment","risk_category":"Medium","license_number":"079439","establishmentid":"4914","establishment_type":"Non-Public School","establishment_status":"Open","review_frequency_days":"210.0","most_recent_license_date":"4/30/2018"}},"nearbyList":[{"establishmentid":"1366","name":"Little Caesar's Pizza #64","address":"12712 Fenkell Ave","zipcode":"48227"},{"establishmentid":"766","name":"Akbar's Coffee Shop","address":"12943 Fenkell Ave","zipcode":"48227"},{"establishmentid":"51622478","name":"Pizza Kebab","address":"15221 Wyoming Ave","zipcode":"48238"},{"establishmentid":"2151","name":"White Castle #43","address":"15365 Wyoming Ave","zipcode":"48238"},{"establishmentid":"1289","name":"McDonald's #3146","address":"15321 Wyoming Ave","zipcode":"48238"},{"establishmentid":"51622637","name":"Jam Jomar XXV III (McDonalds)","address":"15321 Wyoming #3146","zipcode":"48238"},{"establishmentid":"1282","name":"Tim Horton's","address":"15340 Wyoming Ave","zipcode":"48238"},{"establishmentid":"4913","name":"Wyoming Fresh Fish","address":"15151 Wyoming Ave","zipcode":"48238"},{"establishmentid":"4067","name":"China Garden","address":"15228 Wyoming Ave","zipcode":"48238"},{"establishmentid":"2405","name":"Mark's A. Eagles #4 Coney Island","address":"12701 Puritan Ave","zipcode":"48227"},{"establishmentid":"3444","name":"Adams-Butzel Recreation Center","address":"10500 Lyndon Ave","zipcode":"48238"},{"establishmentid":"1406","name":"Christland Missionary Baptist Church","address":"12901 Puritan Ave","zipcode":"48227"},{"establishmentid":"5391","name":"Desmond's Elegant Affairs","address":"12924 Puritan Ave","zipcode":"48227"},{"establishmentid":"4665","name":"Faustina's Creole and Soulfood","address":"16155 Wyoming Ave","zipcode":"48221"},{"establishmentid":"2744","name":"Super 3 Coney Island","address":"14508 Wyoming Ave","zipcode":"48238"},{"establishmentid":"4164","name":"Disabled Am. Vets K-R Metro Chp. No.1","address":"13221 Puritan Ave","zipcode":"48227"},{"establishmentid":"1868","name":"WE Care Senior Meal Program","address":"8720 Puritan ","zipcode":"48238"},{"establishmentid":"4920","name":"Right Production Catering","address":"16676 James Couzens ","zipcode":"48228"},{"establishmentid":"4877","name":"AC's Hot Dog Express #1","address":"14153 Manor St","zipcode":"48238"},{"establishmentid":"1214","name":"Church's Fried Chicken #964","address":"13531 Fenkell Ave","zipcode":"48227"}],"inspectionsByEstablishmentidList":[{"inspectionid":"44359","inspectionDate":"2018-12-04T00:00:00","inspectionType":"Routine Inspection","inCompliance":"Yes","violationsByInspectionidList":[{"violationCode":"3-501.17","violationDescription":"(A)  READY-TO-EAT, POTENTIALLY HAZARDOUS FOOD (TIME/TEMPERATURE CONTROL FOR SAFETY FOOD)  prepared and held refrigerated for more than 24 hours in a FOOD ESTABLISHMENT  shall be clearly marked at the time of preparation to indicate the date or day by which the FOOD shall be consumed. (Pf)\r\n(B)  A container of refrigerated, commercially prepared READY-TO-EAT POTENTIALLY HAZARDOUS FOOD (TIME/TEMPERATURE CONTROL FOR SAFETY FOOD)  shall be clearly marked, at the time the original container is opened in a FOOD ESTABLISHMENT, to indicate the date or day by which the FOOD shall be consumed. (Pf)\r\n\r\nA date marking system that does not exceed 7 days, including date of preparation, or opening is to be used. (Pf)\r\n","violationType":"Foundation","itemDescription":"In house prepared ready-to-eat potentially hazardous  food(s)","subItem":"","problemDescription":"Without date of consumption marking","subProblem":"","location":"KITCHEN","subLocation":"At the Refrigerator","corrected":"Yes","daysToCorrect":"10.0","correctedDate":"2018-12-04T00:00:00","correctionDescription":"Discard"},{"violationCode":"6-301.14","violationDescription":"A sign or poster that notifies FOOD EMPLOYEES to wash their hands shall be provided at all HANDWASHING SINKS used by FOOD EMPLOYEES and shall be clearly visible to FOOD EMPLOYEES.\r\n","violationType":"Core","itemDescription":"Handwashing signage","subItem":"","problemDescription":"Not provided","subProblem":"","location":"KITCHEN","subLocation":"At the Handsink","corrected":"Not required","daysToCorrect":"30.0","correctedDate":null,"correctionDescription":"Provide as required"}]},{"inspectionid":"43411","inspectionDate":"2018-09-17T00:00:00","inspectionType":"Plan Review/Final/Ap","inCompliance":"Yes","violationsByInspectionidList":[]},{"inspectionid":"42704","inspectionDate":"2018-06-21T00:00:00","inspectionType":"Routine Inspection","inCompliance":"Yes","violationsByInspectionidList":[{"violationCode":"2-301.15","violationDescription":"FOOD EMPLOYEES shall clean their hands in a HANDWASHING SINK or APPROVED automatic handwashing facility and may not clean their hands in a sink used for FOOD preparation or WAREWASHING, or in a service sink or a curbed cleaning facility used for the disposal of mop water and similar liquid waste. (Pf)\r\n","violationType":"Foundation","itemDescription":"Employee washed/rinsed hands","subItem":"","problemDescription":null,"subProblem":"","location":"LUNCH ROOM","subLocation":"","corrected":"Yes","daysToCorrect":"10.0","correctedDate":"2018-06-21T00:00:00","correctionDescription":"Hands shall be washed in handsink(s) only."}]},{"inspectionid":"40817","inspectionDate":"2017-11-16T00:00:00","inspectionType":"Routine Inspection","inCompliance":"Yes","violationsByInspectionidList":[]},{"inspectionid":"39060","inspectionDate":"2017-06-20T00:00:00","inspectionType":"Routine Inspection","inCompliance":"Yes","violationsByInspectionidList":[]},{"inspectionid":"36918","inspectionDate":"2016-10-27T00:00:00","inspectionType":"Routine Inspection","inCompliance":"Yes","violationsByInspectionidList":[]}]}]}},"pageContext":{"eid":"4914"}}