{"data":{"site":{"pathPrefix":"/restaurant-inspections"},"postgres":{"establishment":[{"establishmentid":"51622952","name":"Escuela Avencemos/Acad ofAmerica's High ","address":"2635 Howard","zipcode":"48216","owner":"DPS","licenseNumber":"238009","licenseType":"Fixed Establishment","establishmentType":"Public School","establishmentStatus":"Open","riskCategory":null,"reviewFrequencyDays":"180.0","coords":"-83.07626,42.32089","geojson":{"id":"51622952","type":"Feature","geometry":{"type":"Point","coordinates":[-83.076255426,42.3208863470001]},"properties":{"name":"Escuela Avencemos/Acad ofAmerica's High ","owner":"DPS","address":"2635 Howard","zipcode":"48216","license_type":"Fixed Establishment","risk_category":null,"license_number":"238009","establishmentid":"51622952","establishment_type":"Public School","establishment_status":"Open","review_frequency_days":"180.0","most_recent_license_date":null}},"nearbyList":[{"establishmentid":"51623097","name":"Escuela Avencemos","address":"2635 Howard St","zipcode":"48216"},{"establishmentid":"2021","name":"Fort St. Eats d/b/a Johnny Noodle King","address":"2601 W Fort St","zipcode":"48216"},{"establishmentid":"5013","name":"Fist of Curry","address":"2547 Bagley Ave","zipcode":"48216"},{"establishmentid":"51622959","name":"Peso Bar","address":"2547 Bagley Street","zipcode":"48216"},{"establishmentid":"1090","name":"Green Dot Stables","address":"2200 W Lafayette Ave","zipcode":"48216"},{"establishmentid":"525","name":"Mexican Village Of Detroit","address":"2600 Bagley Street","zipcode":"48216"},{"establishmentid":"2656","name":"Valley Foods","address":"1980 Bagley","zipcode":"48216"},{"establishmentid":"4518","name":"Urban Bean Company","address":"200 Grand River","zipcode":"48226"},{"establishmentid":"642","name":"Xochimilco Restaurant ","address":"3401-09  Bagley Street","zipcode":"48216"},{"establishmentid":"1386","name":"Los Galanes","address":"3354 Bagley Ave","zipcode":"48216"}],"inspectionsByEstablishmentidList":[{"inspectionid":"45886","inspectionDate":"2019-04-12T00:00:00","inspectionType":"Routine Inspection","inCompliance":"Yes","violationsByInspectionidList":[{"violationCode":"4-302.14","violationDescription":"A test kit or other device that accurately measures the concentration in mg/L of SANITIZING solutions shall be provided. (Pf)\r\n","violationType":"Foundation","itemDescription":"Sanitizer test kit","subItem":"quaternary ammonia","problemDescription":"Not provided","subProblem":"","location":"DISH ROOM","subLocation":"Test strips","corrected":"Yes","daysToCorrect":"10.0","correctedDate":"2019-04-24T00:00:00","correctionDescription":"Provide."},{"violationCode":"6-501.12","violationDescription":"(A) PHYSICAL FACILITIES shall be cleaned as often as necessary to keep them clean.\r\n(B) Except spill cleanup, cleaning shall be done during periods when the least amount of FOOD is exposed such as after closing. ","violationType":"Core","itemDescription":"Physical facilities/structures","subItem":"","problemDescription":"With accumulation of debris","subProblem":"","location":"CAFETERIA","subLocation":"Vent cover","corrected":"Yes","daysToCorrect":"30.0","correctedDate":"2019-04-24T00:00:00","correctionDescription":"Keep clean."}]}]}],"maxInspectionDate":[{"inspectionDate":"2019-10-31T00:00:00"}]}},"pageContext":{"eid":"51622952"}}