{"data":{"site":{"pathPrefix":"/restaurant-inspections"},"postgres":{"establishment":[{"establishmentid":"5312","name":"Wonka Soft Serve","address":"11609 Lumpkin St","zipcode":"48212","owner":"Kanaj Almasmari","licenseNumber":"202867","licenseType":"Mobile Food Establishment","establishmentType":"LHD - Mobile Food Establishmen","establishmentStatus":"Seasonal","riskCategory":"Medium","reviewFrequencyDays":"395","coords":"-83.06753,42.40009","geojson":{"id":"5312","type":"Feature","geometry":{"type":"Point","coordinates":[-83.067531228,42.400089184]},"properties":{"name":"Wonka Soft Serve","owner":"Kanaj Almasmari","address":"11609 Lumpkin St","zipcode":"48212","license_type":"Mobile Food Establishment","risk_category":"Medium","license_number":"202867","establishmentid":"5312","establishment_type":"LHD - Mobile Food Establishmen","establishment_status":"Seasonal","review_frequency_days":"395","most_recent_license_date":"5/15/2019"}},"nearbyList":[{"establishmentid":"51623011","name":"Detroit Ice Cream","address":"11613 Lumpkin St","zipcode":"48212"},{"establishmentid":"4016","name":"Mr. Soft Serve","address":"11613 Lumpkin Street","zipcode":"48212"},{"establishmentid":"5314","name":"Fresh Soft Serve","address":"11516 Saint Aubin St","zipcode":"48212"},{"establishmentid":"51622757","name":"Supa Flavor ","address":"11514 St Aubin St","zipcode":"48212"},{"establishmentid":"5390","name":"Premier Ice Cream","address":"2217 Evaline St","zipcode":"48212"},{"establishmentid":"4402","name":"Bridge Academy West","address":"3105 Carpenter St","zipcode":"48212"},{"establishmentid":"4453","name":"Beignet's, LLC","address":"2424 Florian St","zipcode":"48212"},{"establishmentid":"51622689","name":"American Axle Plant #6","address":"2020 Holbrook Ave","zipcode":"48212"},{"establishmentid":"914","name":"Davison Elementary Annex","address":"13210 Maine St","zipcode":"48238"},{"establishmentid":"1317","name":"Loving Elementary","address":"1000 Lynn Ave","zipcode":"48202"}],"inspectionsByEstablishmentidList":[{"inspectionid":"47708","inspectionDate":"2019-05-15T00:00:00","inspectionType":"Mobile Inspection","inCompliance":"Yes","violationsByInspectionidList":[{"violationCode":"4-501.11","violationDescription":"EQUIPMENT shall be maintained in a state of repair and condition that meets the requirements of the code.\r\n","violationType":"Core","itemDescription":"Equipment","subItem":"","problemDescription":"In poor repair","subProblem":"","location":"MOBILE UNIT","subLocation":"At the Windows","corrected":"Not required","daysToCorrect":"30","correctedDate":null,"correctionDescription":null},{"violationCode":"4-602.13","violationDescription":"NonFOOD-CONTACT SURFACES of EQUIPMENT shall be cleaned at a frequency necessary to preclude accumulation of soil residues.\r\n","violationType":"Core","itemDescription":"Nonfood contact surface(s)","subItem":"","problemDescription":"Soiled","subProblem":"","location":"MOBILE UNIT","subLocation":"Inside the Drip Tray","corrected":"Not required","daysToCorrect":"30","correctedDate":null,"correctionDescription":null}]},{"inspectionid":"42919","inspectionDate":"2018-05-09T00:00:00","inspectionType":"Routine Inspection","inCompliance":"Yes","violationsByInspectionidList":[{"violationCode":"6-301.20","violationDescription":"A HANDWASHING SINK or group of adjacent HANDWASHING SINKS that is provided with disposable towels shall be provided with a waste receptacle.\r\n","violationType":"Core","itemDescription":"Waste receptacle(s)","subItem":"","problemDescription":"Not provided","subProblem":"","location":"MOBILE UNIT","subLocation":"","corrected":"Not required","daysToCorrect":"30","correctedDate":null,"correctionDescription":"Provide."}]},{"inspectionid":"38721","inspectionDate":"2017-05-16T00:00:00","inspectionType":"Mobile Inspection","inCompliance":"Yes","violationsByInspectionidList":[{"violationCode":"4-501.11","violationDescription":"EQUIPMENT shall be maintained in a state of repair and condition that meets the requirements of the code.\r\n","violationType":"Core","itemDescription":"Equipment components","subItem":"","problemDescription":"Broken","subProblem":"","location":"TRUCK","subLocation":"Inside the Soft serve machine","corrected":"Not required","daysToCorrect":"30","correctedDate":null,"correctionDescription":"Repair/replace."}]}]}],"maxInspectionDate":[{"inspectionDate":"2020-10-30T00:00:00"}]}},"pageContext":{"eid":"5312"}}