{"data":{"site":{"pathPrefix":"/restaurant-inspections"},"postgres":{"establishment":[{"establishmentid":"51622686","name":"Detroit Police Athletic League","address":"1680 Michigan Ave","zipcode":"48216","owner":"Detroit Police Athletic League","licenseNumber":"226539","licenseType":"Fixed Establishment","establishmentType":"Food Service Establishment","establishmentStatus":"Open","riskCategory":"Medium","reviewFrequencyDays":"365.0","coords":"-83.18901,42.22784","geojson":{"id":"51622686","type":"Feature","geometry":{"type":"Point","coordinates":[-83.1890129079999,42.227841718]},"properties":{"name":"Detroit Police Athletic League","owner":"Detroit Police Athletic League","address":"1680 Michigan Ave","zipcode":"48216","license_type":"Fixed Establishment","risk_category":"Medium","license_number":"226539","establishmentid":"51622686","establishment_type":"Food Service Establishment","establishment_status":"Open","review_frequency_days":"365.0","most_recent_license_date":"4/13/2018"}},"nearbyList":[{"establishmentid":"5378","name":"Bobcat Bonnies","address":"1800 Michigan Ave","zipcode":"48216"},{"establishmentid":"1371","name":"The Works Bar & Grill","address":"1846 Michigan Ave","zipcode":"48216"},{"establishmentid":"2154","name":"White Castle #19","address":"1930-50  Michigan Ave","zipcode":"48216"},{"establishmentid":"51622746","name":"Tacos El Rodeo","address":"1949 Michigan Ave","zipcode":"48216"},{"establishmentid":"539","name":"Motor City Wine Bar","address":"1949 Michigan Ave","zipcode":"48216"},{"establishmentid":"592","name":"Gaelic League Irish American Club","address":"2066-68 Michigan Ave","zipcode":"48216"},{"establishmentid":"4904","name":"Gold Cash Gold","address":"2100 Michigan Ave","zipcode":"48216"},{"establishmentid":"4306","name":"Astro Coffee","address":"2124 Michigan Ave","zipcode":"48216"},{"establishmentid":"3590","name":"Happy's Pizza #22","address":"3517 S Fort St","zipcode":"48217"},{"establishmentid":"4660","name":"El Parian #2","address":"1064 London","zipcode":"48149"}],"inspectionsByEstablishmentidList":[{"inspectionid":"45646","inspectionDate":"2019-03-22T00:00:00","inspectionType":"Routine Inspection","inCompliance":"Yes","violationsByInspectionidList":[{"violationCode":"7-102.11","violationDescription":"Working containers used for storing POISONOUS OR TOXIC MATERIALS such as cleaners and SANITIZERS taken from bulk supplies shall be clearly and individually identified with the common name of the material. (Pf)\r\n","violationType":"Foundation","itemDescription":"Working containers-toxics","subItem":"sanitizer","problemDescription":"Not labeled as to content","subProblem":"","location":"OUTSIDE","subLocation":"At the Sanitizer bucket","corrected":"Yes","daysToCorrect":"10.0","correctedDate":"2019-03-22T00:00:00","correctionDescription":null}]},{"inspectionid":"41883","inspectionDate":"2018-04-10T00:00:00","inspectionType":"Preopening/New","inCompliance":"Yes","violationsByInspectionidList":[{"violationCode":"6-301.14","violationDescription":"A sign or poster that notifies FOOD EMPLOYEES to wash their hands shall be provided at all HANDWASHING SINKS used by FOOD EMPLOYEES and shall be clearly visible to FOOD EMPLOYEES.\r\n","violationType":"Core","itemDescription":"Handwashing signage","subItem":"","problemDescription":"Not provided","subProblem":"","location":"HANDSINK(S)","subLocation":"SIGNAGE","corrected":"Not required","daysToCorrect":"30.0","correctedDate":null,"correctionDescription":"Provide as required"}]}]}],"maxInspectionDate":[{"inspectionDate":"2019-03-31T00:00:00"}]}},"pageContext":{"eid":"51622686"}}