{"data":{"site":{"pathPrefix":"/restaurant-inspections"},"postgres":{"establishment":[{"establishmentid":"1933","name":"Warrendale Academy","address":"19400 Sawyer St","zipcode":"48228","owner":"National Heritage Academies","licenseNumber":"038005","licenseType":"Fixed Establishment","establishmentType":"Non-Public School","establishmentStatus":"Open","riskCategory":null,"reviewFrequencyDays":"210","coords":"-83.23070,42.34692","geojson":{"id":"1933","type":"Feature","geometry":{"type":"Point","coordinates":[-83.230700706,42.346918893]},"properties":{"name":"Warrendale Academy","owner":"National Heritage Academies","address":"19400 Sawyer St","zipcode":"48228","license_type":"Fixed Establishment","risk_category":null,"license_number":"038005","establishmentid":"1933","establishment_type":"Non-Public School","establishment_status":"Open","review_frequency_days":"210","most_recent_license_date":"4/30/2019"}},"nearbyList":[{"establishmentid":"256","name":"Hurry Inn ","address":"19430-32 W Warren Ave","zipcode":"48228"},{"establishmentid":"1510","name":"New Taystee's Pizza","address":"19240 W Warren Ave","zipcode":"48228"},{"establishmentid":"51623190","name":"Manhattan Fish and Chicken","address":"19240 W Warren Ave","zipcode":"48228"},{"establishmentid":"51622861","name":"Little Pizza","address":"19240 W Warren Ave","zipcode":"48228"},{"establishmentid":"51623113","name":"Captain Jack Fish & Chicken","address":"19240 W Warren Ave","zipcode":"48228"},{"establishmentid":"1381","name":"Mr. Steve's Pizza","address":"18940 W Warren Ave","zipcode":"48228"},{"establishmentid":"442","name":"Adam's Apple","address":"18931 W Warren Ave","zipcode":"48228"},{"establishmentid":"5233","name":"Evergreen Fish Express LLC","address":"6540 Evergreen Rd","zipcode":"48228"},{"establishmentid":"665","name":"Chick's Bar","address":"18550 W Warren Ave","zipcode":"48228"},{"establishmentid":"1130","name":"Mike's Coney Island","address":"19241 Joy Rd","zipcode":"48228"}],"inspectionsByEstablishmentidList":[{"inspectionid":"49351","inspectionDate":"2019-10-01T00:00:00","inspectionType":"Routine Inspection","inCompliance":"Yes","violationsByInspectionidList":[{"violationCode":"4-903.11","violationDescription":"Cleaned EQUIPMENT and UTENSILS, laundered LINENS, and SINGLE-SERVICE and SINGLE-USE ARTICLES shall be stored in an approved manner and location.\r\n","violationType":"Core","itemDescription":"Clean equipment/utensil(s)","subItem":"","problemDescription":"Not stored in self-draining position","subProblem":"","location":"DISHWASHING AREA","subLocation":"","corrected":"Not required","daysToCorrect":"30","correctedDate":null,"correctionDescription":null}]},{"inspectionid":"46082","inspectionDate":"2019-05-07T00:00:00","inspectionType":"Routine Inspection","inCompliance":"Yes","violationsByInspectionidList":[{"violationCode":"5-202.12","violationDescription":"(A) A handwashing sink shall be equipped to provide water at a temperature of at least 38°C (100°F) through a mixing valve or combination faucet. (Pf)  \r\n(B) A steam mixing valve may not be used at a handwashing sink.  \r\n(C) A self-closing, slow-closing, or metering faucet shall provide a flow of water for at least 15 seconds without the need to reactivate the faucet.   \r\n(D) An automatic handwashing facility shall be installed in accordance with manufacturer's instructions.\r\n","violationType":"Priority","itemDescription":"Handwashing facility","subItem":"","problemDescription":"Lack of hot water","subProblem":"","location":"KITCHEN","subLocation":"","corrected":"Yes","daysToCorrect":"10","correctedDate":"2019-06-04T00:00:00","correctionDescription":null}]},{"inspectionid":"38033","inspectionDate":"2017-02-14T00:00:00","inspectionType":"Routine Inspection","inCompliance":"Yes","violationsByInspectionidList":[{"violationCode":"MFL289.2129","violationDescription":"Sec. 2129. (1) All food establishments shall employ a minimum of 1 managerial employee as a food safety manager, who must be an individual who is currently certified under a personnel certification program accredited by the American National Standards Institute, utilizing the Conference for Food Protection standards:\r\n(2) Beginning January 14, 2017 and every 5 years thereafter, a certified  food safety manager who supervises the operations of a food service establishment shall have completed a food safety training program\r\ncontaining an allergen awareness  component that has been approved by  the department. A food service establishment shall retain records on the  site of the food service establishment documenting compliance of its  certified food safety managers with this subsection. ","violationType":"Core","itemDescription":"Person-in-charge","subItem":"","problemDescription":null,"subProblem":"","location":"ESTABLISHMENT","subLocation":"","corrected":"Not required","daysToCorrect":"30","correctedDate":null,"correctionDescription":null}]}]}],"maxInspectionDate":[{"inspectionDate":"2020-05-29T00:00:00"}]}},"pageContext":{"eid":"1933"}}