{"data":{"postgres":{"establishment":[{"establishmentid":"3183","name":"Detroit Edison Public School Academy","address":"1903 Wilkins","zipcode":"48207","owner":"Detroit Edison Public School","licenseNumber":"057381","licenseType":"Fixed Establishment","establishmentType":"Public School","establishmentStatus":"Open","riskCategory":null,"reviewFrequencyDays":"210.0","coords":"-83.03761,42.35168","geojson":{"id":"3183","type":"Feature","geometry":{"type":"Point","coordinates":[-83.037605067,42.351676324]},"properties":{"name":"Detroit Edison Public School Academy","owner":"Detroit Edison Public School","address":"1903 Wilkins","zipcode":"48207","license_type":"Fixed Establishment","risk_category":null,"license_number":"057381","establishmentid":"3183","establishment_type":"Public School","establishment_status":"Open","review_frequency_days":"210.0","most_recent_license_date":"5/3/2018"}},"nearbyList":[{"establishmentid":"4656","name":"Detroit Edison Public School Academy","address":"3403 St Aubin","zipcode":"48207"},{"establishmentid":"1178","name":"Cutters Bar And Grill","address":"2638 Orleans","zipcode":"48207"},{"establishmentid":"538","name":"Louisiana Creole Gumbo","address":"2051 Gratiot Ave","zipcode":"48207"},{"establishmentid":"51622488","name":"Louisiana Creole Gumbo/Mobile #1","address":"2051 Gratiot","zipcode":"48207"},{"establishmentid":"1005","name":"Burger King","address":"2155 Gratiot Ave","zipcode":"48207"},{"establishmentid":"457","name":"Roma Cafe Inc","address":"3401 Riopelle St","zipcode":"48207"},{"establishmentid":"51622579","name":"Amore Da Roma","address":"3401 Riopelle St","zipcode":"48207"},{"establishmentid":"5048","name":"Eastern Market Coproration Shed #5","address":"2934 Russell St","zipcode":"48207"},{"establishmentid":"51622786","name":"Verified Vegan","address":"2934 Russell","zipcode":"48207"},{"establishmentid":"3864","name":"Urban Grounds, LLC","address":"2934 Russell St","zipcode":"48207"},{"establishmentid":"2779","name":"Louie's Ham & Corned Beef","address":"3570 Riopelle St","zipcode":"48207"},{"establishmentid":"51622482","name":"Eastern Market Brewing Co.","address":"2515 Riopelle St","zipcode":"48207"},{"establishmentid":"3895","name":"Butcher's Inn","address":"1489 Winder Ave","zipcode":"48207"},{"establishmentid":"4964","name":"Detroit City Distillery","address":"2462 Riopelle St","zipcode":"48207"},{"establishmentid":"485","name":"Farmer's Restaurant","address":"2542 Market St","zipcode":"48207"},{"establishmentid":"51622477","name":"The Eastern","address":"3434 Russell St Unit 501","zipcode":"48207"},{"establishmentid":"2714","name":"Sala Thai","address":"3400 Russell St","zipcode":"48207"},{"establishmentid":"501","name":"Vivio's Market Center Club","address":"2460 Market St","zipcode":"48207"},{"establishmentid":"462","name":"Mike's Coney Island Inc.","address":"2719 Russell St","zipcode":"48207"},{"establishmentid":"4634","name":"Bert's Market Place--Motown Bar","address":"2735 Russell St","zipcode":"48207"}],"inspectionsByEstablishmentidList":[{"inspectionid":"44369","inspectionDate":"2018-12-05T00:00:00","inspectionType":"Routine Inspection","inCompliance":"Yes","violationsByInspectionidList":[{"violationCode":"7-201.11","violationDescription":"POISONOUS OR TOXIC MATERIAL shall be stored so they can not contaminate FOOD, EQUIPMENT, UTENSILS, LINENS, AND SINGLE-SERVICE AND SINGLE-USE ARTICLES by:   \r\n(A) Separating the POISONOUS OR TOXIC MATERIAL by spacing or partitioning; (P) and   \r\n(B) Locating the POISONOUS OR TOXIC MATERIAL in an area that is not above FOOD, EQUIPMENT, UTENSILS, LINENS, AND SINGLE-SERVICE AND SINGLE-USE ARTICLES.  This paragraph does not apply to EQUIPMENT and UTENSIL cleaners and sanitizers that are stored in WAREWASHING areas for availability and convenience if the materials are stored to prevent contamination of FOOD, EQUIPMENT, UTENSILS, LINENS, AND SINGLE-SERVICE and SINGLE-USE ARTICLES. (P)","violationType":"Priority","itemDescription":"Poisonous/toxic material(s)","subItem":"","problemDescription":"Not separated from","subProblem":"","location":"KITCHEN","subLocation":"On the Rack(s)","corrected":"Yes","daysToCorrect":"10.0","correctedDate":"2018-12-05T00:00:00","correctionDescription":"Relocate."},{"violationCode":"3-201.11","violationDescription":"FOOD shall be obtained from sources that comply with LAW (P); \r\nand properly labeled as required (Pf), \r\nFOOD prepared in a private home may not be used or offered for human consumption in a FOOD ESTABLISHMENT. (P)","violationType":"Priority","itemDescription":"Food source(s)","subItem":"","problemDescription":"Do not comply with law","subProblem":"","location":"KITCHEN","subLocation":"In the Cooler(s)","corrected":"Yes","daysToCorrect":"10.0","correctedDate":"2018-12-05T00:00:00","correctionDescription":"Remove from facility."}]},{"inspectionid":"42238","inspectionDate":"2018-05-17T00:00:00","inspectionType":"Routine Inspection","inCompliance":"Yes","violationsByInspectionidList":[{"violationCode":"7-204.11","violationDescription":"Chemical SANITIZERS and other chemical antimicrobials applied to FOOD-CONTACT SURFACES shall meet the requirements specified in this code. (P)\r\n","violationType":"Priority","itemDescription":"Sanitizer(s)","subItem":"","problemDescription":null,"subProblem":"","location":"KITCHEN","subLocation":"","corrected":"Yes","daysToCorrect":"10.0","correctedDate":"2018-05-17T00:00:00","correctionDescription":null}]},{"inspectionid":"40641","inspectionDate":"2017-11-02T00:00:00","inspectionType":"Routine Inspection","inCompliance":"Yes","violationsByInspectionidList":[{"violationCode":"4-501.11","violationDescription":"EQUIPMENT shall be maintained in a state of repair and condition that meets the requirements of the code.\r\n","violationType":"Core","itemDescription":"Equipment","subItem":"","problemDescription":"In poor repair","subProblem":"","location":"COOLER","subLocation":"At the gasket/rubber lining","corrected":"Not required","daysToCorrect":"30.0","correctedDate":null,"correctionDescription":"Repair"}]},{"inspectionid":"38674","inspectionDate":"2017-05-11T00:00:00","inspectionType":"Routine Inspection","inCompliance":"Yes","violationsByInspectionidList":[{"violationCode":"4-501.11","violationDescription":"EQUIPMENT shall be maintained in a state of repair and condition that meets the requirements of the code.\r\n","violationType":"Core","itemDescription":"Equipment","subItem":"","problemDescription":"In poor repair","subProblem":"","location":"COOLER","subLocation":"At the gasket/rubber lining","corrected":"Not required","daysToCorrect":"30.0","correctedDate":null,"correctionDescription":"Repair/Replace"}]},{"inspectionid":"36721","inspectionDate":"2016-10-11T00:00:00","inspectionType":"Routine Inspection","inCompliance":"Yes","violationsByInspectionidList":[]}]}]}},"pageContext":{"eid":"3183"}}