{"data":{"site":{"pathPrefix":"/restaurant-inspections"},"postgres":{"establishment":[{"establishmentid":"4658","name":"Traffic Jam-Snug/Brewery","address":"4268 Second Ave","zipcode":"48201","owner":"TRAFFIC JAM-SNUG OF MICH. INC","licenseNumber":"078719","licenseType":"Fixed Establishment","establishmentType":"Food Service Establishment","establishmentStatus":"Open","riskCategory":"High","reviewFrequencyDays":"120.0","coords":"-83.06596,42.35026","geojson":{"id":"4658","type":"Feature","geometry":{"type":"Point","coordinates":[-83.065964654,42.3502648850001]},"properties":{"name":"Traffic Jam-Snug/Brewery","owner":"TRAFFIC JAM-SNUG OF MICH. INC","address":"4268 Second Ave","zipcode":"48201","license_type":"Fixed Establishment","risk_category":"High","license_number":"078719","establishmentid":"4658","establishment_type":"Food Service Establishment","establishment_status":"Open","review_frequency_days":"120.0","most_recent_license_date":"5/4/2018"}},"nearbyList":[{"establishmentid":"235","name":"Traffic Jam-Snug","address":"4268 Second Ave","zipcode":"48201"},{"establishmentid":"718","name":"Mario's","address":"4222 Second Ave","zipcode":"48201"},{"establishmentid":"4657","name":"Traffic Jam-Snug/Bakery","address":"511 W Canfield St","zipcode":"48201"},{"establishmentid":"4941","name":"Jolly Pumpkin Pizzeria","address":"441 W Canfield St","zipcode":"48201"},{"establishmentid":"4919","name":"Shinola Coffee Bar","address":"441 W Canfield St","zipcode":"48202"},{"establishmentid":"5126","name":"Will Leather Goods Coffee Shop","address":"4120 Second Ave","zipcode":"48201"},{"establishmentid":"5036","name":"Maya's Indo-Pak Cuisine","address":"4445 Second Ave","zipcode":"48201"},{"establishmentid":"51622811","name":"Avalon International Breads","address":"422 W Willis St","zipcode":"48201"},{"establishmentid":"5180","name":"Cinema Detroit","address":"4126 Third St","zipcode":"48201"},{"establishmentid":"238","name":"Bronx Bar","address":"4476 Second Ave","zipcode":"48201"}],"inspectionsByEstablishmentidList":[{"inspectionid":"43429","inspectionDate":"2018-08-28T00:00:00","inspectionType":"Routine Inspection","inCompliance":"Yes","violationsByInspectionidList":[{"violationCode":"6-301.12","violationDescription":"Each HANDWASHING SINK or group of adjacent HANDWASHING SINKS shall be provided with:\r\n(A) Individual, disposable towels; (Pf)\r\n(B) A continuous towel system that supplies the user with a clean towel;(Pf) or \r\n(C) A heated-air hand drying device.(Pf)\r\n(D) A hand drying device that employs an air-knife system that delivers high velocity pressurized air at ambient temperatures.(Pf)\r\n","violationType":"Foundation","itemDescription":null,"subItem":"","problemDescription":null,"subProblem":"","location":"ICE CREAM STATION","subLocation":"Hallway","corrected":"Yes","daysToCorrect":"10.0","correctedDate":"2018-08-28T00:00:00","correctionDescription":null},{"violationCode":"6-501.11","violationDescription":"PHYSICAL FACILITIES shall be maintained in good repair.\r\n","violationType":"Core","itemDescription":"Physical facilities","subItem":"","problemDescription":"In poor repair","subProblem":"","location":"FACILITY","subLocation":"","corrected":"Not required","daysToCorrect":"30.0","correctedDate":null,"correctionDescription":null},{"violationCode":"6-501.112","violationDescription":"Dead or trapped birds, insects, rodents, and other pests shall be removed from control devices and the PREMISES at a frequency that prevents their accumulation,  decomposition, or the attraction of pests.\r\n","violationType":"Core","itemDescription":"Dead/trapped pest(s)","subItem":"insects","problemDescription":"Not removed from facility","subProblem":"","location":"BREWERY","subLocation":"","corrected":"Yes","daysToCorrect":"30.0","correctedDate":"2018-09-27T00:00:00","correctionDescription":"Remove from facility/premises."}]},{"inspectionid":"41403","inspectionDate":"2018-01-31T00:00:00","inspectionType":"Routine Inspection","inCompliance":"Yes","violationsByInspectionidList":[{"violationCode":"6-501.12","violationDescription":"(A) PHYSICAL FACILITIES shall be cleaned as often as necessary to keep them clean.\r\n(B) Except spill cleanup, cleaning shall be done during periods when the least amount of FOOD is exposed such as after closing. ","violationType":"Core","itemDescription":"Physical facilities/structures","subItem":"","problemDescription":"With accumulation of debris","subProblem":"","location":"DELIVERY AREA","subLocation":"","corrected":"Not required","daysToCorrect":"30.0","correctedDate":null,"correctionDescription":"Keep clean."},{"violationCode":"6-501.11","violationDescription":"PHYSICAL FACILITIES shall be maintained in good repair.\r\n","violationType":"Core","itemDescription":"Physical facilities","subItem":"","problemDescription":"In poor repair","subProblem":"","location":"FACILITY","subLocation":"","corrected":"Not required","daysToCorrect":"30.0","correctedDate":null,"correctionDescription":null}]},{"inspectionid":"39474","inspectionDate":"2017-07-18T00:00:00","inspectionType":"Routine Inspection","inCompliance":"Yes","violationsByInspectionidList":[]},{"inspectionid":"37464","inspectionDate":"2016-12-20T00:00:00","inspectionType":"Routine Inspection","inCompliance":"Yes","violationsByInspectionidList":[{"violationCode":"4-602.13","violationDescription":"NonFOOD-CONTACT SURFACES of EQUIPMENT shall be cleaned at a frequency necessary to preclude accumulation of soil residues.\r\n","violationType":"Core","itemDescription":"Nonfood contact surface(s)","subItem":"","problemDescription":"Soiled","subProblem":"","location":"BREWERY","subLocation":"WALK-IN COOLER","corrected":"Not required","daysToCorrect":"30.0","correctedDate":null,"correctionDescription":"Keep clean."}]}]}]}},"pageContext":{"eid":"4658"}}