{"componentChunkName":"component---src-templates-establishment-page-js","path":"/establishment/51623120","result":{"data":{"site":{"pathPrefix":"/restaurant-inspections"},"postgres":{"establishment":[{"establishmentid":"51623120","name":"Academy of the Americas Elementary","address":"3811 Cicotte St.","zipcode":"48217","owner":"Detroit Board of Education","licenseNumber":"249317","licenseType":"Fixed Establishment","establishmentType":"Public School","establishmentStatus":"Open","riskCategory":null,"reviewFrequencyDays":"180","coords":"-83.12209,42.32810","geojson":{"id":"51623120","type":"Feature","geometry":{"type":"Point","coordinates":[-83.122090052,42.32810163]},"properties":{"name":"Academy of the Americas Elementary","owner":"Detroit Board of Education","address":"3811 Cicotte St.","zipcode":"48217","license_type":"Fixed Establishment","risk_category":null,"license_number":"249317","establishmentid":"51623120","establishment_type":"Public School","establishment_status":"Open","review_frequency_days":"180","most_recent_license_date":"6/1/2020"}},"nearbyList":[{"establishmentid":"968","name":"Escuela Avancemos/Logan Elementary","address":"3811 Cicotte","zipcode":"48217"},{"establishmentid":"4728","name":"Chowtime","address":"3647 Clippert","zipcode":"48210"},{"establishmentid":"802","name":"Tommy T's Pub","address":"3511 Clippert","zipcode":"48210"},{"establishmentid":"4821","name":"Matrix Head Start ","address":"3810  Gilbert","zipcode":"48209"},{"establishmentid":"51622860","name":"Pietrzyk Pierogi","address":"3700 Gilbert St.","zipcode":"48210"},{"establishmentid":"4993","name":"Carribeansoul Cafe & Catering Company","address":"3700 Gilbert","zipcode":"48210"},{"establishmentid":"51622462","name":"Better Woodman","address":"3700 Gilbert","zipcode":"48210"},{"establishmentid":"3526","name":"St. Peter & Paul Orthodox Cathedral","address":"3700  Gilbert St.","zipcode":"48210"},{"establishmentid":"5096","name":"Mia D's Soul Food Cafe & Catering","address":"3700 Gilbert","zipcode":"48210"},{"establishmentid":"51623231","name":"Community Center at 3700 Gilbert","address":"3700 Gilbert","zipcode":"48210"}],"inspectionsByEstablishmentidList":[{"inspectionid":"59442","inspectionDate":"2022-05-27T00:00:00","inspectionType":"Routine Inspection","inCompliance":"No","violationsByInspectionidList":[{"violationCode":"5-205.15","violationDescription":"A PLUMBING SYSTEM shall be:\n(A) Repaired according to LAW; (P) and\n(B) Maintained in good repair.\n","violationType":"Core","itemDescription":"Drainage system","subItem":"drain lines","problemDescription":null,"subProblem":null,"location":"3 COMPARTMENT SINK AREA","subLocation":"Drain line","corrected":"False","daysToCorrect":"10","correctedDate":null,"correctionDescription":null},{"violationCode":"4-501.11","violationDescription":"EQUIPMENT shall be maintained in a state of repair and condition that meets the requirements of the code.\n","violationType":"Core","itemDescription":"Equipment","subItem":null,"problemDescription":"Broken","subProblem":null,"location":"KITCHEN","subLocation":"Oven(s) / (double stacked)","corrected":"False","daysToCorrect":"30","correctedDate":null,"correctionDescription":"Repair/replace."}]},{"inspectionid":"56428","inspectionDate":"2021-10-26T00:00:00","inspectionType":"Routine Inspection","inCompliance":"Yes","violationsByInspectionidList":[]},{"inspectionid":"55183","inspectionDate":"2021-06-23T00:00:00","inspectionType":"Routine Inspection","inCompliance":"Yes","violationsByInspectionidList":[]},{"inspectionid":"53663","inspectionDate":"2020-12-14T00:00:00","inspectionType":"Routine Inspection","inCompliance":"Yes","violationsByInspectionidList":[{"violationCode":"4-501.11","violationDescription":"EQUIPMENT shall be maintained in a state of repair and condition that meets the requirements of the code.\n","violationType":"Core","itemDescription":"Equipment","subItem":null,"problemDescription":"Broken","subProblem":null,"location":"KITCHEN","subLocation":"Paper towel dispenser","corrected":"False","daysToCorrect":"30","correctedDate":null,"correctionDescription":"Repair/replace."}]},{"inspectionid":"51220","inspectionDate":"2020-03-14T00:00:00","inspectionType":"COVID19-phone-low","inCompliance":"Yes","violationsByInspectionidList":[]},{"inspectionid":"49501","inspectionDate":"2019-10-11T00:00:00","inspectionType":"Routine Inspection","inCompliance":"Yes","violationsByInspectionidList":[]}]}],"maxInspectionDate":[{"inspectionDate":"2022-07-25T00:00:00"}]}},"pageContext":{"eid":"51623120"}},"staticQueryHashes":["3649515864","63159454"]}