{"data":{"postgres":{"establishment":[{"establishmentid":"2597","name":"Charles Wright Acad.of Arts and Sciences","address":"19299 Berg Rd","zipcode":"48219","owner":"Detroit Public Schools","licenseNumber":"051206","licenseType":"Fixed Establishment","establishmentType":"Public School","establishmentStatus":"Open","riskCategory":null,"reviewFrequencyDays":"210.0","coords":"-83.26869,42.43230","geojson":{"id":"2597","type":"Feature","geometry":{"type":"Point","coordinates":[-83.2686861779999,42.432296668]},"properties":{"name":"Charles Wright Acad.of Arts and Sciences","owner":"Detroit Public Schools","address":"19299 Berg Rd","zipcode":"48219","license_type":"Fixed Establishment","risk_category":null,"license_number":"051206","establishmentid":"2597","establishment_type":"Public School","establishment_status":"Open","review_frequency_days":"210.0","most_recent_license_date":"4/30/2018"}},"nearbyList":[{"establishmentid":"869","name":"Ludington Magnet Middle School (5-8)","address":"19501 Berg Rd","zipcode":"48219"},{"establishmentid":"1875","name":"Greater Grace Temple","address":"23500 W Seven Mile Rd","zipcode":"48219"},{"establishmentid":"3823","name":"Tasty Dawg","address":"22623 Frisbee St","zipcode":"48219"},{"establishmentid":"353","name":"Aurora Coney Island","address":"23671 W Seven Mile Rd","zipcode":"48219"},{"establishmentid":"4281","name":"Tai Ho","address":"23720 W Seven Mile Rd","zipcode":"48219"},{"establishmentid":"451","name":"Weston Preparatory Academy","address":"22930 Chippewa","zipcode":"48219"},{"establishmentid":"1169","name":"Madison Carver Academy","address":"19900 McIntyre ","zipcode":"48219"},{"establishmentid":"1575","name":"China 1 Chinese Restaurant","address":"19129 Telegraph Rd","zipcode":"48219"},{"establishmentid":"1542","name":"Subway #6309","address":"19127 Telegraph Rd","zipcode":"48219"},{"establishmentid":"4318","name":"Nu Wave Fish & Chicken","address":"19125 Telegraph Rd","zipcode":"48219"},{"establishmentid":"2342","name":"Bookie's Ham & Soul ","address":"23636 Grand River Ave","zipcode":"48219"},{"establishmentid":"3885","name":"Ray's Pizza & Chicken","address":"19005 Telegraph Rd","zipcode":"48219"},{"establishmentid":"5231","name":"Detroit Fresh Fish & Seafood Co. Inc.","address":"19001 Telegraph Rd","zipcode":"48219"},{"establishmentid":"3930","name":"Manhattan Fish & Chicken","address":"22000 W Seven Mile Rd","zipcode":"48219"},{"establishmentid":"4630","name":"Just Martinis Bar and Grill (DBA Demi's)","address":"24201 W Seven Mile Rd","zipcode":"48219"},{"establishmentid":"1504","name":"Omega Coney Island ","address":"22501 W Eight Mile Rd","zipcode":"48219"},{"establishmentid":"51622651","name":"Views Bar and Grill","address":"24200 Grand River","zipcode":"48219"},{"establishmentid":"754","name":"Northland Roller Rink","address":"22311 W Eight Mile Rd","zipcode":"48219"},{"establishmentid":"576","name":"Detroit Service Learning Academy","address":"21605 W Seven Mile Rd","zipcode":"48219"},{"establishmentid":"724","name":"McDonald's #24733","address":"22021 W Eight Mile Rd","zipcode":"48219"}],"inspectionsByEstablishmentidList":[{"inspectionid":"44498","inspectionDate":"2018-10-11T00:00:00","inspectionType":"Routine Inspection","inCompliance":"Yes","violationsByInspectionidList":[]},{"inspectionid":"41880","inspectionDate":"2018-04-12T00:00:00","inspectionType":"Routine Inspection","inCompliance":"Yes","violationsByInspectionidList":[{"violationCode":"3-305.11","violationDescription":"FOOD shall be protected from contamination by storing the FOOD:\r\n(1)     In a clean, dry location;\r\n(2)     Where it is not exposed to splash, dust, or other contamination; and\r\n(3)     At least 15 cm (6 inches) above the floor, unless otherwise approved.\r\n","violationType":"Core","itemDescription":"Food item(s) in storage","subItem":"","problemDescription":"Stored on floor or less than 6 inches above floor","subProblem":"","location":"WALK-IN COOLER","subLocation":"","corrected":"Not required","daysToCorrect":"30.0","correctedDate":null,"correctionDescription":"Store at least 6 inches above the floor."}]},{"inspectionid":"39945","inspectionDate":"2017-09-13T00:00:00","inspectionType":"Routine Inspection","inCompliance":"Yes","violationsByInspectionidList":[{"violationCode":"3-501.16","violationDescription":"Except during preparation, cooking, or cooling, or when time is used as the public health control POTENTIALLY HAZARDOUS FOOD (TIME/TEMPERATURE CONTROL FOR SAFETY FOOD) shall be maintained:\r\n(A)  135ºF or above, except that roasts properly cooked and cooled may be held              at a temperature of 130ºF; or (P)\r\n(B)   At 41ºF or less (P)\r\n","violationType":"Priority","itemDescription":"Cold food item(s)","subItem":"","problemDescription":"Stored above 41 degrees F","subProblem":"","location":"KITCHEN","subLocation":"","corrected":"Yes","daysToCorrect":"10.0","correctedDate":"2017-09-13T00:00:00","correctionDescription":"Discard"},{"violationCode":"6-301.12","violationDescription":"Each HANDWASHING SINK or group of adjacent HANDWASHING SINKS shall be provided with:\r\n(A) Individual, disposable towels; (Pf)\r\n(B) A continuous towel system that supplies the user with a clean towel;(Pf) or \r\n(C) A heated-air hand drying device.(Pf)\r\n(D) A hand drying device that employs an air-knife system that delivers high velocity pressurized air at ambient temperatures.(Pf)\r\n","violationType":"Foundation","itemDescription":"Sanitary hand drying provisions","subItem":"disposable, paper towels","problemDescription":"Not provided","subProblem":"At hand sink","location":"KITCHEN","subLocation":"","corrected":"Yes","daysToCorrect":"10.0","correctedDate":"2017-09-13T00:00:00","correctionDescription":"Provide"}]},{"inspectionid":"38812","inspectionDate":"2017-05-17T00:00:00","inspectionType":"Routine Inspection","inCompliance":"Yes","violationsByInspectionidList":[{"violationCode":"3-501.16","violationDescription":"Except during preparation, cooking, or cooling, or when time is used as the public health control POTENTIALLY HAZARDOUS FOOD (TIME/TEMPERATURE CONTROL FOR SAFETY FOOD) shall be maintained:\r\n(A)  135ºF or above, except that roasts properly cooked and cooled may be held              at a temperature of 130ºF; or (P)\r\n(B)   At 41ºF or less (P)\r\n","violationType":"Priority","itemDescription":"Hot food item(s)","subItem":"","problemDescription":"Stored below 135 degrees F","subProblem":"","location":"KITCHEN","subLocation":"","corrected":"Yes","daysToCorrect":"10.0","correctedDate":"2017-05-17T00:00:00","correctionDescription":"Store above 135 degrees F."},{"violationCode":"4-501.11","violationDescription":"EQUIPMENT shall be maintained in a state of repair and condition that meets the requirements of the code.\r\n","violationType":"Core","itemDescription":"Equipment","subItem":"","problemDescription":"In poor repair","subProblem":"","location":"KITCHEN","subLocation":"","corrected":"Not required","daysToCorrect":"30.0","correctedDate":null,"correctionDescription":"Repair"}]},{"inspectionid":"36697","inspectionDate":"2016-10-10T00:00:00","inspectionType":"Routine Inspection","inCompliance":"Yes","violationsByInspectionidList":[{"violationCode":"4-501.114","violationDescription":"A chemical SANITIZER used in a SANITIZING solution for a manual or\r\nmechanical operation shall meet these limits or as otherwise approved: (P)\r\n\tChlorine        ppm           pH<10             pH<8\r\n\t\t      25              120 F              120 F\r\n\t\t      50              100 F              75 F\r\n\t\t     100              55 F               55 F\r\n                 Iodine           a concentration of between 12.5 and 25 ppm and minimum temp of 75 F and pH of 5 or less or meets manufacturer's specifications. (P)\r\n\r\n                Quats            minimum temperature of 75 F, hardness of 500 ppm or less and meet manufacturers use directions. (P)\r\n","violationType":"Priority","itemDescription":"Chlorine solution concentration","subItem":"","problemDescription":"Below 25 ppm","subProblem":"","location":"3 COMPARTMENT SINK AREA","subLocation":"","corrected":"Yes","daysToCorrect":"10.0","correctedDate":"2016-10-10T00:00:00","correctionDescription":"Provide correct concentration as stated above."}]}]}]}},"pageContext":{"eid":"2597"}}