{"componentChunkName":"component---src-templates-establishment-page-js","path":"/establishment/743","result":{"data":{"site":{"pathPrefix":"/restaurant-inspections"},"postgres":{"establishment":[{"establishmentid":"743","name":"Freer Bar","address":"7355 Michigan Ave.","zipcode":"48210","owner":"Rosemary Diagonov","licenseNumber":"034733","licenseType":"Fixed Establishment","establishmentType":"Food Service Establishment","establishmentStatus":"Open","riskCategory":null,"reviewFrequencyDays":"335","coords":"-83.13433,42.33089","geojson":{"id":"743","type":"Feature","geometry":{"type":"Point","coordinates":[-83.134327161,42.330890201]},"properties":{"name":"Freer Bar","owner":"Rosemary Diagonov","address":"7355 Michigan Ave.","zipcode":"48210","license_type":"Fixed Establishment","risk_category":null,"license_number":"034733","establishmentid":"743","establishment_type":"Food Service Establishment","establishment_status":"Open","review_frequency_days":"335","most_recent_license_date":"6/1/2020"}},"nearbyList":[{"establishmentid":"3249","name":"Don Lui's Carry-Out","address":"7340  Michigan Ave.","zipcode":"48210"},{"establishmentid":"773","name":"R & R Restaurant & Bar","address":"7330-32 Michigan Ave.","zipcode":"48210"},{"establishmentid":"51623850","name":"Cito Sub Station","address":"7300 Michigan Ave.","zipcode":"48210"},{"establishmentid":"3914","name":"Subway #29822","address":"7300 Michigan Ave.","zipcode":"48210"},{"establishmentid":"760","name":"Hard Bodies","address":"7443 Michigan Ave.","zipcode":"48210"},{"establishmentid":"5348","name":"Hard Bodies Bar","address":"7443  Michigan Ave.","zipcode":"48210"},{"establishmentid":"3612","name":"Tacos El Cunado #2","address":"4632 52nd","zipcode":"48210"},{"establishmentid":"2073","name":"Senor Lopez Taqueria Mexican","address":"7146 Michigan Ave.","zipcode":"48210"},{"establishmentid":"51622669","name":"Yacht Club Exclusive","address":"7059 Michigan","zipcode":"48210"},{"establishmentid":"715","name":"Yacht Club Exclusive","address":"7059 Michigan Ave.","zipcode":"48210"}],"inspectionsByEstablishmentidList":[{"inspectionid":"55323","inspectionDate":"2021-07-09T00:00:00","inspectionType":"Closed - Temporary","inCompliance":"Yes","violationsByInspectionidList":[]},{"inspectionid":"48286","inspectionDate":"2019-07-10T00:00:00","inspectionType":"Routine Inspection","inCompliance":"Yes","violationsByInspectionidList":[{"violationCode":"2-301.15","violationDescription":"FOOD EMPLOYEES shall clean their hands in a HANDWASHING SINK or APPROVED automatic handwashing facility and may not clean their hands in a sink used for FOOD preparation or WAREWASHING, or in a service sink or a curbed cleaning facility used for the disposal of mop water and similar liquid waste. (Pf)\n","violationType":"Foundation","itemDescription":"Employee washed/rinsed hands","subItem":null,"problemDescription":"In three compartment sink","subProblem":null,"location":"BAR","subLocation":"Handsink","corrected":"True","daysToCorrect":"10","correctedDate":"2019-07-10T00:00:00","correctionDescription":"Hands shall be washed in handsink(s) only."},{"violationCode":"6-301.11","violationDescription":"Each HANDWASHING SINK or group of 2 adjacent HANDWASHING SINKS shall be provided with a supply of hand cleaning liquid, powder, or bar soap. (Pf)\n","violationType":"Foundation","itemDescription":"Soap","subItem":"at restroom handsink","problemDescription":"Not provided","subProblem":null,"location":"RESTROOM (WOMEN'S)","subLocation":"Handwashing soap","corrected":"True","daysToCorrect":"10","correctedDate":"2019-07-10T00:00:00","correctionDescription":"Provide."},{"violationCode":"6-501.14","violationDescription":"(A) Intake and exhaust air ducts shall be cleaned and filters changed so they are not a source of contamination by dust, dirt, and other materials. \n(B) If vented to the outside, ventilation systems may not create a public health HAZARD or nuisance or unLAWful discharge.\n","violationType":"Core","itemDescription":"Ventilation system","subItem":null,"problemDescription":"Not clean","subProblem":null,"location":"BAR","subLocation":"Vent cover","corrected":"False","daysToCorrect":"30","correctedDate":null,"correctionDescription":"Clean"},{"violationCode":"5-501.17","violationDescription":"A toilet room used by females shall be provided with a covered receptacle for sanitary napkins.\n","violationType":"Core","itemDescription":"Covered waste receptacle(s)","subItem":"in ladies restroom","problemDescription":"Not provided","subProblem":null,"location":"RESTROOM (WOMEN'S)","subLocation":"Covered waste container","corrected":"True","daysToCorrect":"30","correctedDate":"2019-07-10T00:00:00","correctionDescription":"Provide."}]},{"inspectionid":"38432","inspectionDate":"2017-03-15T00:00:00","inspectionType":"Routine Inspection","inCompliance":"Yes","violationsByInspectionidList":[{"violationCode":"5-501.17","violationDescription":"A toilet room used by females shall be provided with a covered receptacle for sanitary napkins.\n","violationType":"Core","itemDescription":null,"subItem":null,"problemDescription":null,"subProblem":null,"location":"KITCHEN","subLocation":null,"corrected":"False","daysToCorrect":"30","correctedDate":null,"correctionDescription":null}]}]}],"maxInspectionDate":[{"inspectionDate":"2022-08-31T00:00:00"}]}},"pageContext":{"eid":"743"}},"staticQueryHashes":["3649515864","63159454"]}