{"componentChunkName":"component---src-templates-establishment-page-js","path":"/establishment/5030","result":{"data":{"site":{"pathPrefix":"/restaurant-inspections"},"postgres":{"establishment":[{"establishmentid":"5030","name":"Good Night Lounge","address":"17621 Warren Ave. W.","zipcode":"48228","owner":"Thomas Clemons","licenseNumber":"080854","licenseType":"Fixed Establishment","establishmentType":"Food Service Establishment","establishmentStatus":null,"riskCategory":"Medium","reviewFrequencyDays":"335","coords":"-83.21408,42.34316","geojson":{"id":"5030","type":"Feature","geometry":{"type":"Point","coordinates":[-83.214080036,42.343156035]},"properties":{"name":"Good Night Lounge","owner":"Thomas Clemons","address":"17621 Warren Ave. W.","zipcode":"48228","license_type":"Fixed Establishment","risk_category":"Medium","license_number":"080854","establishmentid":"5030","establishment_type":"Food Service Establishment","establishment_status":null,"review_frequency_days":"335","most_recent_license_date":"2/5/2022"}},"nearbyList":[{"establishmentid":"2660","name":"Warrendale Bar","address":"17621 Warren Ave. W.","zipcode":"48228"},{"establishmentid":"1442","name":"Three Brother's Restaurant","address":"17620 Warren Ave. W.","zipcode":"48228"},{"establishmentid":"51623371","name":"Al Hayba ","address":"17044 Warren Ave W. ","zipcode":"48228"},{"establishmentid":"51622496","name":"Amazing Grill LLC","address":"17044 Warren W.","zipcode":"48228"},{"establishmentid":"5123","name":"Superior Coney Island & Grill","address":"17032 Warren W.","zipcode":"48228"},{"establishmentid":"2412","name":"Sonny's Pizza","address":"17031 Warren Ave. W.","zipcode":"48228"},{"establishmentid":"4134","name":"Subway #47233","address":"17720 Warren Ave. W.","zipcode":"48228"},{"establishmentid":"2289","name":"Al-Shark Rest","address":"16956 Warren Ave. W.","zipcode":"48228"},{"establishmentid":"1459","name":"Rob's Deli","address":"16956-58 Warren Ave. E.","zipcode":"48224"},{"establishmentid":"891","name":"Cody 9th Grade Academy","address":"7350 Southfield Rd.","zipcode":"48228"}],"inspectionsByEstablishmentidList":[{"inspectionid":"57786","inspectionDate":"2022-03-25T00:00:00","inspectionType":"Routine Inspection","inCompliance":"Yes","violationsByInspectionidList":[]},{"inspectionid":"53903","inspectionDate":"2021-01-20T00:00:00","inspectionType":"Closed - Attempt ins","inCompliance":"Yes","violationsByInspectionidList":[]},{"inspectionid":"50085","inspectionDate":"2019-12-06T00:00:00","inspectionType":"Routine Inspection","inCompliance":"Yes","violationsByInspectionidList":[]},{"inspectionid":"43940","inspectionDate":"2018-10-25T00:00:00","inspectionType":"Routine Inspection","inCompliance":"Yes","violationsByInspectionidList":[{"violationCode":"5-402.13","violationDescription":"SEWAGE shall be conveyed to the point of disposal through an APPROVED sanitary SEWAGE system or other system, including use of SEWAGE transport vehicles, waste retention tanks, pumps, pipes, hoses, and connections that are constructed, maintained, and operated according to LAW.(P)\n","violationType":"Priority","itemDescription":"Sewage","subItem":"","problemDescription":"Not conveyed to point of disposal","subProblem":"","location":"BAR","subLocation":"","corrected":"True","daysToCorrect":"10","correctedDate":"2010-01-25T00:00:00","correctionDescription":"Repair/replace to meet requirements above."}]},{"inspectionid":"40035","inspectionDate":"2017-09-21T00:00:00","inspectionType":"Routine Inspection","inCompliance":"No","violationsByInspectionidList":[{"violationCode":"4-302.14","violationDescription":"A test kit or other device that accurately measures the concentration in mg/L of SANITIZING solutions shall be provided. (Pf)\n","violationType":"Foundation","itemDescription":"Sanitizer test kit","subItem":"","problemDescription":"Not provided","subProblem":"","location":"BAR","subLocation":"","corrected":"False","daysToCorrect":"10","correctedDate":null,"correctionDescription":"Provide."}]},{"inspectionid":"36418","inspectionDate":"2016-09-07T00:00:00","inspectionType":"Routine Inspection","inCompliance":"Yes","violationsByInspectionidList":[{"violationCode":"4-302.14","violationDescription":"A test kit or other device that accurately measures the concentration in mg/L of SANITIZING solutions shall be provided. (Pf)\n","violationType":"Foundation","itemDescription":"Sanitizer test kit","subItem":"","problemDescription":"Not provided","subProblem":"","location":"BAR","subLocation":"Not provided (with) Test strips","corrected":"True","daysToCorrect":"10","correctedDate":"0001-01-01T00:00:00","correctionDescription":"Provide."}]}]}],"maxInspectionDate":[{"inspectionDate":"2023-04-13T00:00:00"}]}},"pageContext":{"eid":"5030"}},"staticQueryHashes":["3649515864","63159454"]}