{"componentChunkName":"component---src-templates-establishment-page-js","path":"/establishment/51623205","result":{"data":{"site":{"pathPrefix":"/restaurant-inspections"},"postgres":{"establishment":[{"establishmentid":"51623205","name":"Mumma Maria Enterprises","address":"8122 Kercheval Ave.","zipcode":"48214","owner":"Carl Giordiano","licenseNumber":"259449","licenseType":"Fixed Establishment","establishmentType":"Food Service Establishment","establishmentStatus":"Open","riskCategory":null,"reviewFrequencyDays":"150","coords":"-82.99793,42.35893","geojson":{"id":"51623205","type":"Feature","geometry":{"type":"Point","coordinates":[-82.997930736,42.358926723]},"properties":{"name":"Mumma Maria Enterprises","owner":"Carl Giordiano","address":"8122 Kercheval Ave.","zipcode":"48214","license_type":"Fixed Establishment","risk_category":null,"license_number":"259449","establishmentid":"51623205","establishment_type":"Food Service Establishment","establishment_status":"Open","review_frequency_days":"150","most_recent_license_date":"2021-04-30"}},"nearbyList":[{"establishmentid":"51622733","name":"Brudders Woodfired Pizza","address":"8122 Kercheval","zipcode":"48214"},{"establishmentid":"51623432","name":"Two Birds","address":"8130 Kercheval","zipcode":"48214"},{"establishmentid":"51622821","name":"Destination 1905","address":"8130 Kercheval","zipcode":"48214"},{"establishmentid":"51622513","name":"La Boheme","address":"8100 Kercheval","zipcode":"48214"},{"establishmentid":"51623218","name":"Coriander LLC (Oakland Co.)","address":"1792 Parker St.","zipcode":"48212"},{"establishmentid":"51622614","name":"Marrow, LLC","address":"8044 Kercheval","zipcode":"48214"},{"establishmentid":"51623702","name":"La Cantina","address":"8016 Kercheval","zipcode":"48214"},{"establishmentid":"51623002","name":"Gabriel Hall","address":"8002 Kercheval","zipcode":"48214"},{"establishmentid":"51623399","name":"Slyde","address":"7960 Kercheval","zipcode":"48214"},{"establishmentid":"681","name":"Dominos Pizza #1084","address":"7968 Kercheval","zipcode":"48207"}],"inspectionsByEstablishmentidList":[{"inspectionid":"57734","inspectionDate":"2022-03-15T00:00:00","inspectionType":"Routine Inspection","inCompliance":"No","violationsByInspectionidList":[{"violationCode":"4-204.112","violationDescription":"(A)  In a mechanically refrigerated or hot FOOD storage unit, the sensor of a TEMPERATURE MEASURING DEVICE shall be located to measure the air temperature in the warmest part of a mechanically refrigerated unit and in the coolest part of a hot FOOD storage unit.\n(B)  Cold or hot holding EQUIPMENT used for POTENTIALLY HAZARDOUS FOOD shall be designed to include and shall be equipped with at least one integral or permanently affixed TEMPERATURE MEASURING DEVICE that is located to allow easy viewing of the device's temperature display (EXCEPT, heat lamps, cold plates, steam tables, or other equipment where it is not practical).\n(C)  TEMPERATURE MEASURING DEVICES shall be designed to be easily readable.\n(D)  FOOD TEMPERATURE MEASURING DEVICES and water TEMPERATURE MEASURING DEVICES on WAREWASHING machines shall have a numerical scale, printed record, or digital readout in increments no greater than 1C or 2F in the intended range of use. (Pf)\n\n","violationType":"Core","itemDescription":"Thermometer(s)","subItem":"refrigeration","problemDescription":"Broken","subProblem":"","location":"REAR STORAGE AREA","subLocation":"At the Cooler (upright)","corrected":"False","daysToCorrect":"10","correctedDate":null,"correctionDescription":"Repair/replace."}]},{"inspectionid":"56021","inspectionDate":"2021-09-23T00:00:00","inspectionType":"Routine Inspection","inCompliance":"Yes","violationsByInspectionidList":[{"violationCode":"4-903.11","violationDescription":"Cleaned EQUIPMENT and UTENSILS, laundered LINENS, and SINGLE-SERVICE and SINGLE-USE ARTICLES shall be stored in an approved manner and location.\n","violationType":"Core","itemDescription":"Single-service/single-use article(s)","subItem":"","problemDescription":"Exposed to dust, splash, or other contaminates","subProblem":"Not covered","location":"FRONT COUNTER/AREA","subLocation":"At the Upper shelf","corrected":"False","daysToCorrect":"30","correctedDate":null,"correctionDescription":"Store in a protective manner."}]},{"inspectionid":"54486","inspectionDate":"2021-03-22T00:00:00","inspectionType":"Routine Inspection","inCompliance":"Yes","violationsByInspectionidList":[{"violationCode":"6-202.14","violationDescription":"Except as otherwise allowed, a toilet room located on the PREMISES shall be completely enclosed and provided with a tight-fitting and self-closing door. \n","violationType":"Core","itemDescription":"Toilet room door(s)","subItem":"","problemDescription":"Propped open","subProblem":"","location":"RESTROOM (EMPLOYEE)","subLocation":"Missing Self-closing device","corrected":"False","daysToCorrect":"30","correctedDate":null,"correctionDescription":null}]},{"inspectionid":"54237","inspectionDate":"2020-11-18T00:00:00","inspectionType":"Preopening/New","inCompliance":"Yes","violationsByInspectionidList":[]}]}],"maxInspectionDate":[{"inspectionDate":"2023-04-25T00:00:00"}]}},"pageContext":{"eid":"51623205"}},"staticQueryHashes":["3649515864","63159454"]}