{"data":{"site":{"pathPrefix":null},"postgres":{"establishment":[{"establishmentid":"5350","name":"Detroit Sip, LLC","address":"7420 W McNichols Rd","zipcode":"48221","owner":"Jevona Watson","licenseNumber":"221034","licenseType":"Fixed Establishment","establishmentType":"Food Service Establishment","establishmentStatus":"Open","riskCategory":"Medium","reviewFrequencyDays":"365.0","coords":"-83.14564,42.41733","geojson":{"id":"5350","type":"Feature","geometry":{"type":"Point","coordinates":[-83.145636555,42.4173301540001]},"properties":{"name":"Detroit Sip, LLC","owner":"Jevona Watson","address":"7420 W McNichols Rd","zipcode":"48221","license_type":"Fixed Establishment","risk_category":"Medium","license_number":"221034","establishmentid":"5350","establishment_type":"Food Service Establishment","establishment_status":"Open","review_frequency_days":"365.0","most_recent_license_date":"6/1/2018"}},"nearbyList":[{"establishmentid":"3986","name":"Captain Jay's Fish & Chicken #111","address":"17171 Livernois Ave","zipcode":"48221"},{"establishmentid":"1674","name":"Nicky D's Coney Island","address":"16953 Livernois Ave","zipcode":"48221"},{"establishmentid":"1490","name":"McDonald's #10902","address":"17121 Livernois Ave","zipcode":"48221"},{"establishmentid":"51622638","name":"Jam Jomar XXV II (McDonalds)","address":"17121 Livernois #10902","zipcode":"48221"},{"establishmentid":"1528","name":"Little Caesar's Pizza #167","address":"17200 Livernois Ave","zipcode":"48221"},{"establishmentid":"5306","name":"Livernois Ocean Delight Inc","address":"16817 Livernois Ave","zipcode":"48221"},{"establishmentid":"331","name":"Gregg's Pizza BBQ","address":"17160 Livernois Ave","zipcode":"48221"},{"establishmentid":"4903","name":"Babyback's Open Pit","address":"17310 Livernois Ave","zipcode":"48221"},{"establishmentid":"3282","name":"Delicious Dogs","address":"17300 Greenlawn","zipcode":"48221"},{"establishmentid":"5164","name":"Burger King","address":"16245 Livernois Ave","zipcode":"48221"}],"inspectionsByEstablishmentidList":[{"inspectionid":"44992","inspectionDate":"2019-01-28T00:00:00","inspectionType":"Routine Inspection","inCompliance":"Yes","violationsByInspectionidList":[]},{"inspectionid":"41547","inspectionDate":"2018-02-22T00:00:00","inspectionType":"Routine Inspection","inCompliance":"Yes","violationsByInspectionidList":[]},{"inspectionid":"38884","inspectionDate":"2017-05-30T00:00:00","inspectionType":"Preopening/New","inCompliance":"Yes","violationsByInspectionidList":[{"violationCode":"5-203.14","violationDescription":"A PLUMBING SYSTEM shall be installed to preclude backflow of contaminants into the water supply system at each point of use at the FOOD ESTABLISHMENT by providing an air gap or installing an APPROVED backflow prevention device. (P)\r\n","violationType":"Priority","itemDescription":"Backflow prevention","subItem":"Air gap","problemDescription":"Not provided","subProblem":"","location":"FRONT COUNTER/AREA","subLocation":"","corrected":"Yes","daysToCorrect":"10.0","correctedDate":"2017-05-30T00:00:00","correctionDescription":"Provide adequate air gap."},{"violationCode":"6-201.13","violationDescription":"(A) In FOOD ESTABLISHMENTS in which cleaning methods other than water flushing are used for cleaning floors, the floor and wall junctures shall be coved and closed to no larger than one thirty-second inch.\r\n(B) The floors in FOOD ESTABLISHMENTS in which water flush cleaning methods are used shall be provided with drains and be graded to drain, and the floor and wall junctures shall be coved and SEALED.","violationType":"Core","itemDescription":"Floor(s)","subItem":"","problemDescription":"Not coved","subProblem":"","location":"FRONT COUNTER/AREA","subLocation":"","corrected":"Yes","daysToCorrect":"30.0","correctedDate":"2017-05-30T00:00:00","correctionDescription":"Provide / install coved molding."},{"violationCode":"6-201.11","violationDescription":"Except otherwise approved, and except for antislip floor coverings or applications may be used for safety reasons, floors, floor coverings, walls, wall coverings, and ceilings shall be designed, constructed, and installed so they are SMOOTH and EASILY CLEANABLE.\r\n","violationType":"Core","itemDescription":"wall(s)","subItem":"","problemDescription":"Not constructed, designed, installed to be","subProblem":"","location":"FRONT COUNTER/AREA","subLocation":"","corrected":"Yes","daysToCorrect":"30.0","correctedDate":"2017-05-30T00:00:00","correctionDescription":"Repair/replace to be smooth and easily cleanable."}]}]}]}},"pageContext":{"eid":"5350"}}