{"data":{"site":{"pathPrefix":"/restaurant-inspections"},"postgres":{"establishment":[{"establishmentid":"1302","name":"Krystal's Korner","address":"5700 Canton St","zipcode":"48211","owner":"Ethel Glass","licenseNumber":"081582","licenseType":"Fixed Establishment","establishmentType":"Food Service Establishment","establishmentStatus":"Open","riskCategory":null,"reviewFrequencyDays":"365","coords":"-83.02478,42.37810","geojson":{"id":"1302","type":"Feature","geometry":{"type":"Point","coordinates":[-83.024775426,42.378103623]},"properties":{"name":"Krystal's Korner","owner":"Ethel Glass","address":"5700 Canton St","zipcode":"48211","license_type":"Fixed Establishment","risk_category":null,"license_number":"081582","establishmentid":"1302","establishment_type":"Food Service Establishment","establishment_status":"Open","review_frequency_days":"365","most_recent_license_date":null}},"nearbyList":[{"establishmentid":"313","name":"R.A.R.D. El Capri Bar","address":"1673 E Grand Blvd","zipcode":"48211"},{"establishmentid":"4294","name":"King Fish Market","address":"1167 E Grand Blvd","zipcode":"48211"},{"establishmentid":"3814","name":"Royal Barbecue and Grill","address":"5844 Mt Elliott Ave","zipcode":"48211"},{"establishmentid":"4254","name":"Legends Grill","address":"5805 Mt Elliott Ave","zipcode":"48211"},{"establishmentid":"4017","name":"Little Caesars Pizza","address":"7447 Gratiot Ave","zipcode":"48213"},{"establishmentid":"51622484","name":"Avalon Commissary","address":"4731 Bellevue St","zipcode":"48207"},{"establishmentid":"51622851","name":"Dilla's Delights LLC","address":"4731 Bellevue St","zipcode":"48207"},{"establishmentid":"1073","name":"Hong Moy","address":"7415 Harper Ave","zipcode":"48213"},{"establishmentid":"1548","name":"Anani ","address":"7636 Gratiot Ave","zipcode":"48213"},{"establishmentid":"51623227","name":"Quais Truck ( Wayne Co.)","address":"7636 Gratiot Ave","zipcode":"48213"}],"inspectionsByEstablishmentidList":[{"inspectionid":"45868","inspectionDate":"2019-04-10T00:00:00","inspectionType":"Routine Inspection","inCompliance":"No","violationsByInspectionidList":[{"violationCode":"5-402.11","violationDescription":"Except as otherwise allowed, a direct connection may not exist between the SEWAGE system and a drain originating from EQUIPMENT in which FOOD, portable EQUIPMENT, or UTENSILS are placed. (P)\r\n","violationType":"Priority","itemDescription":"Backflow/backsiphonage prevention device(s)","subItem":"Air gap","problemDescription":"Not provided on","subProblem":"Sink","location":"BASEMENT","subLocation":"No AIR GAP","corrected":"No","daysToCorrect":"10","correctedDate":null,"correctionDescription":null},{"violationCode":"4-302.14","violationDescription":"A test kit or other device that accurately measures the concentration in mg/L of SANITIZING solutions shall be provided. (Pf)\r\n","violationType":"Foundation","itemDescription":"Sanitizer test kit","subItem":"quaternary ammonia","problemDescription":"Not provided","subProblem":"","location":"BAR","subLocation":"Missing Test strips","corrected":"No","daysToCorrect":"10","correctedDate":null,"correctionDescription":null},{"violationCode":"6-501.12","violationDescription":"(A) PHYSICAL FACILITIES shall be cleaned as often as necessary to keep them clean.\r\n(B) Except spill cleanup, cleaning shall be done during periods when the least amount of FOOD is exposed such as after closing. ","violationType":"Core","itemDescription":"Physical facilities/structures","subItem":"floors","problemDescription":"Soiled","subProblem":"","location":"BAR","subLocation":"On the Floor","corrected":"Not required","daysToCorrect":"30","correctedDate":null,"correctionDescription":null},{"violationCode":"4-602.13","violationDescription":"NonFOOD-CONTACT SURFACES of EQUIPMENT shall be cleaned at a frequency necessary to preclude accumulation of soil residues.\r\n","violationType":"Core","itemDescription":"Nonfood contact surface(s)","subItem":"","problemDescription":"Soiled","subProblem":"","location":"BAR","subLocation":"At the Equipment","corrected":"Not required","daysToCorrect":"30","correctedDate":null,"correctionDescription":null}]},{"inspectionid":"38385","inspectionDate":"2017-03-30T00:00:00","inspectionType":"Routine Inspection","inCompliance":"Yes","violationsByInspectionidList":[{"violationCode":"6-501.12","violationDescription":"(A) PHYSICAL FACILITIES shall be cleaned as often as necessary to keep them clean.\r\n(B) Except spill cleanup, cleaning shall be done during periods when the least amount of FOOD is exposed such as after closing. ","violationType":"Core","itemDescription":"Physical facilities/structures","subItem":"floors","problemDescription":"Soiled","subProblem":"","location":"BASEMENT","subLocation":"At the Floor","corrected":"Not required","daysToCorrect":"30","correctedDate":null,"correctionDescription":"Keep clean."}]}]}],"maxInspectionDate":[{"inspectionDate":"2020-05-29T00:00:00"}]}},"pageContext":{"eid":"1302"}}