{"data":{"site":{"pathPrefix":"/restaurant-inspections"},"postgres":{"establishment":[{"establishmentid":"51622567","name":"Beauty Cafe dba Detroit Waffle Cafe","address":"15300 W McNichols Rd","zipcode":"48235","owner":"Bobby Bailey","licenseNumber":"238152","licenseType":"Fixed Establishment","establishmentType":"Food Service Establishment","establishmentStatus":"Open","riskCategory":"High","reviewFrequencyDays":"180.0","coords":"-83.19718,42.41632","geojson":{"id":"51622567","type":"Feature","geometry":{"type":"Point","coordinates":[-83.197177574,42.4163154180001]},"properties":{"name":"Beauty Cafe dba Detroit Waffle Cafe","owner":"Bobby Bailey","address":"15300 W McNichols Rd","zipcode":"48235","license_type":"Fixed Establishment","risk_category":"High","license_number":"238152","establishmentid":"51622567","establishment_type":"Food Service Establishment","establishment_status":"Open","review_frequency_days":"180.0","most_recent_license_date":"5/14/2019"}},"nearbyList":[{"establishmentid":"4044","name":"Oriental Meat Market","address":"15349 W McNichols Rd","zipcode":"48235"},{"establishmentid":"3971","name":"Hood Kafe","address":"15349 W McNichols Rd","zipcode":"48235"},{"establishmentid":"2026","name":"Palushaj's Olympia Coney Island","address":"15425 W McNichols Rd","zipcode":"48235"},{"establishmentid":"748","name":"Renaissance High School","address":"6565 W Outer Dr","zipcode":"48235"},{"establishmentid":"1330","name":"McDonald's #6799","address":"15550 W McNichols Rd","zipcode":"48235"},{"establishmentid":"51622870","name":"Wild Wild West Wings","address":"15535 W McNichols Rd","zipcode":"48066"},{"establishmentid":"1413","name":"Lady Louisa's Place","address":"15535 W McNichols Rd","zipcode":"48235"},{"establishmentid":"1199","name":"Taco Bell #24449","address":"15624 W McNichols Rd","zipcode":"48235"},{"establishmentid":"4271","name":"Sweetwater Express","address":"15640 W McNichols Rd","zipcode":"48235"},{"establishmentid":"51622632","name":"Detroit Achievement Academy","address":"7000 W Outer Drive","zipcode":"48235"}],"inspectionsByEstablishmentidList":[{"inspectionid":"49336","inspectionDate":"2019-10-07T00:00:00","inspectionType":"Routine Inspection","inCompliance":"Yes","violationsByInspectionidList":[{"violationCode":"7-204.11","violationDescription":"Chemical SANITIZERS and other chemical antimicrobials applied to FOOD-CONTACT SURFACES shall meet the requirements specified in this code. (P)\r\n","violationType":"Priority","itemDescription":"Sanitizer(s)","subItem":"","problemDescription":"Do not comply with law","subProblem":"","location":"3 COMPARTMENT SINK AREA","subLocation":"Below the Sink (3 compartment)","corrected":"Yes","daysToCorrect":"10.0","correctedDate":"2019-10-07T00:00:00","correctionDescription":null},{"violationCode":"3-501.17","violationDescription":"(A)  READY-TO-EAT, POTENTIALLY HAZARDOUS FOOD (TIME/TEMPERATURE CONTROL FOR SAFETY FOOD)  prepared and held refrigerated for more than 24 hours in a FOOD ESTABLISHMENT  shall be clearly marked at the time of preparation to indicate the date or day by which the FOOD shall be consumed. (Pf)\r\n(B)  A container of refrigerated, commercially prepared READY-TO-EAT POTENTIALLY HAZARDOUS FOOD (TIME/TEMPERATURE CONTROL FOR SAFETY FOOD)  shall be clearly marked, at the time the original container is opened in a FOOD ESTABLISHMENT, to indicate the date or day by which the FOOD shall be consumed. (Pf)\r\n\r\nA date marking system that does not exceed 7 days, including date of preparation, or opening is to be used. (Pf)\r\n","violationType":"Foundation","itemDescription":"In house prepared ready-to-eat potentially hazardous  food(s)","subItem":"","problemDescription":"Without date of consumption marking","subProblem":"","location":"COOLER","subLocation":"Across from the  Handsink","corrected":"Yes","daysToCorrect":"10.0","correctedDate":"2019-10-07T00:00:00","correctionDescription":null}]},{"inspectionid":"48276","inspectionDate":"2019-07-02T00:00:00","inspectionType":"Preopening/New","inCompliance":"Yes","violationsByInspectionidList":[]}]}],"maxInspectionDate":[{"inspectionDate":"2019-10-31T00:00:00"}]}},"pageContext":{"eid":"51622567"}}