{"data":{"site":{"pathPrefix":"/restaurant-inspections"},"postgres":{"establishment":[{"establishmentid":"1056","name":"Tameleria Nuevo Leon","address":"2669 W Vernor","zipcode":"48216","owner":"Susana N. Garza","licenseNumber":"072036","licenseType":"Fixed Establishment","establishmentType":"Food Service Establishment","establishmentStatus":"Open","riskCategory":null,"reviewFrequencyDays":"365","coords":"-83.08004,42.32632","geojson":{"id":"1056","type":"Feature","geometry":{"type":"Point","coordinates":[-83.080044196,42.326316796]},"properties":{"name":"Tameleria Nuevo Leon","owner":"Susana N. Garza","address":"2669 W Vernor","zipcode":"48216","license_type":"Fixed Establishment","risk_category":null,"license_number":"072036","establishmentid":"1056","establishment_type":"Food Service Establishment","establishment_status":"Open","review_frequency_days":"365","most_recent_license_date":"4/29/2019"}},"nearbyList":[{"establishmentid":"525","name":"Mexican Village Of Detroit","address":"2600 Bagley Street","zipcode":"48216"},{"establishmentid":"1441","name":"Donovan's Pub","address":"3003 W Vernor","zipcode":"48216"},{"establishmentid":"5013","name":"Fist of Curry","address":"2547 Bagley Ave","zipcode":"48216"},{"establishmentid":"51622959","name":"Peso Bar","address":"2547 Bagley Street","zipcode":"48216"},{"establishmentid":"51622672","name":"Cork & Gabel","address":"2415 Michigan Ave","zipcode":"48216"},{"establishmentid":"1386","name":"Los Galanes","address":"3354 Bagley Ave","zipcode":"48216"},{"establishmentid":"5113","name":"Takoi","address":"2520 Michigan Ave","zipcode":"48216"},{"establishmentid":"642","name":"Xochimilco Restaurant ","address":"3401-09  Bagley Street","zipcode":"48216"},{"establishmentid":"3745","name":"Mercury Burger Bar","address":"2163 Michigan Ave","zipcode":"48216"},{"establishmentid":"1454","name":"Mexican Town Restaurant","address":"3457 Bagley Street","zipcode":"48216"}],"inspectionsByEstablishmentidList":[{"inspectionid":"48747","inspectionDate":"2019-08-14T00:00:00","inspectionType":"Routine Inspection","inCompliance":"Yes","violationsByInspectionidList":[{"violationCode":"MFL289.2129","violationDescription":"Sec. 2129. (1) All food establishments shall employ a minimum of 1 managerial employee as a food safety manager, who must be an individual who is currently certified under a personnel certification program accredited by the American National Standards Institute, utilizing the Conference for Food Protection standards:\r\n(2) Beginning January 14, 2017 and every 5 years thereafter, a certified  food safety manager who supervises the operations of a food service establishment shall have completed a food safety training program\r\ncontaining an allergen awareness  component that has been approved by  the department. A food service establishment shall retain records on the  site of the food service establishment documenting compliance of its  certified food safety managers with this subsection. ","violationType":"Core","itemDescription":"Person-in-charge","subItem":"","problemDescription":null,"subProblem":"","location":"ESTABLISHMENT","subLocation":"Certified Manager","corrected":"Not required","daysToCorrect":"30","correctedDate":null,"correctionDescription":null},{"violationCode":"2-401.11","violationDescription":"(A)    An EMPLOYEE shall eat, drink, or use any form of tobacco only in designated areas where the contamination of exposed FOOD; clean EQUIPMENT, UTENSILS, and LINENS; unwrapped SINGLE-SERVICE and SINGLE-USE ARTICLES; or other items needing protection can not result.\r\n(B)     A FOOD EMPLOYEE may drink from a closed BEVERAGE container if the container is handled to prevent contamination of:\r\n         (1)     The EMPLOYEE'S hands;\r\n         (2)     The container; and\r\n         (3)     Exposed FOOD; clean EQUIPMENT, UTENSILS, and LINENS; and unwrapped SINGLE-SERVICE and SINGLE-USE ARTICLES.\r\n","violationType":"Core","itemDescription":"Employee(s)","subItem":"","problemDescription":"Eating","subProblem":"","location":"PREP AREA(S)","subLocation":"Employees","corrected":"Not required","daysToCorrect":"30","correctedDate":null,"correctionDescription":"Eat only in designated areas as restricted above."},{"violationCode":"6-202.15","violationDescription":"Outer openings of a FOOD ESTABLISHMENT shall be protected against the entry of insects and rodents. Unless otherwise allowed by law. \r\n","violationType":"Core","itemDescription":"Outer opening(s)","subItem":"window(s)","problemDescription":"Not sealed to prevent pest entry","subProblem":"","location":"FRONT AREA","subLocation":"Screening","corrected":"Not required","daysToCorrect":"30","correctedDate":null,"correctionDescription":null}]},{"inspectionid":"43182","inspectionDate":"2018-07-18T00:00:00","inspectionType":"Routine Inspection","inCompliance":"Yes","violationsByInspectionidList":[{"violationCode":"6-501.14","violationDescription":"(A) Intake and exhaust air ducts shall be cleaned and filters changed so they are not a source of contamination by dust, dirt, and other materials. \r\n(B) If vented to the outside, ventilation systems may not create a public health HAZARD or nuisance or unLAWful discharge.\r\n","violationType":"Core","itemDescription":"Ventilation system","subItem":"","problemDescription":"Not clean","subProblem":"","location":"VENTILATION HOOD SYSTEM","subLocation":"","corrected":"Not required","daysToCorrect":"30","correctedDate":null,"correctionDescription":"Clean"}]},{"inspectionid":"39310","inspectionDate":"2017-07-20T00:00:00","inspectionType":"Routine Inspection","inCompliance":"Yes","violationsByInspectionidList":[]}]}],"maxInspectionDate":[{"inspectionDate":"2020-05-29T00:00:00"}]}},"pageContext":{"eid":"1056"}}