{"data":{"postgres":{"establishment":[{"establishmentid":"51622627","name":"Antonio's Pizzeria & Grill","address":"12740 Gratiot Ave","zipcode":"48205","owner":"Brigitte Yousif Inc.","licenseNumber":"ps092017","licenseType":"Fixed Establishment","establishmentType":"Food Service Establishment","establishmentStatus":"Permanently Closed","riskCategory":null,"reviewFrequencyDays":"90.0","coords":"-82.98770,42.41976","geojson":{"id":"51622627","type":"Feature","geometry":{"type":"Point","coordinates":[-82.987699181,42.4197603650001]},"properties":{"name":"Antonio's Pizzeria & Grill","owner":"Brigitte Yousif Inc.","address":"12740 Gratiot Ave","zipcode":"48205","license_type":"Fixed Establishment","risk_category":null,"license_number":"ps092017","establishmentid":"51622627","establishment_type":"Food Service Establishment","establishment_status":"Permanently Closed","review_frequency_days":"90.0","most_recent_license_date":null}},"nearbyList":[{"establishmentid":"1215","name":"Wendy's Old Fashioned Hamburgers","address":"12550 Gratiot Ave","zipcode":"48205"},{"establishmentid":"5310","name":"Asian Corned Beef","address":"13240 Gratiot Ave","zipcode":"48205"},{"establishmentid":"1355","name":"Domino's Pizza","address":"13250 Gratiot Ave","zipcode":"48224"},{"establishmentid":"51622581","name":"Gratiot Fish & Seafood","address":"13324 Gratiot Ave","zipcode":"48205"},{"establishmentid":"1286","name":"Leong's Carry Out","address":"13330 Gratiot Ave","zipcode":"48205"},{"establishmentid":"4239","name":"Matrix Human Services","address":"13560 E McNichols Ave","zipcode":"48205"},{"establishmentid":"1385","name":"Little Caesar's Pizza #81","address":"12039 Gratiot Ave","zipcode":"48205"},{"establishmentid":"1311","name":"Long John Silvers #3464","address":"11288 Gratiot Ave","zipcode":"48213"},{"establishmentid":"1167","name":"Fleming Elementary","address":"18501 Waltham St","zipcode":"48205"},{"establishmentid":"2763","name":"William J. Beckham Elementary","address":"9860 Park Drive","zipcode":"48213"},{"establishmentid":"921","name":"Mt. Calvary Lutheran School","address":"17100 Chalmers  Ave","zipcode":"48205"},{"establishmentid":"3497","name":"Prince Pizza Chicken & Ribs","address":"13000 E Seven Mile Rd","zipcode":"48205"},{"establishmentid":"3750","name":"Zorba's Coney Island","address":"11701 E McNichols Ave","zipcode":"48205"},{"establishmentid":"951","name":"Turning Point Academy","address":"12300 Linnhurst","zipcode":"48205"},{"establishmentid":"309","name":"P.P.H. Lounge","address":"11526 Portlance St","zipcode":"48205"},{"establishmentid":"5003","name":"Coney Connection","address":"10993 Gratiot Ave","zipcode":"48205"},{"establishmentid":"51622640","name":"Rio's Coney Island","address":"10993 Gratiot Ave","zipcode":"48213"},{"establishmentid":"2375","name":"New Robert's Coney Island Inc.","address":"12701 E Seven Mile Rd","zipcode":"48205"},{"establishmentid":"4822","name":"Captain Jay's Fish & Chicken #107","address":"14205 Gratiot Ave","zipcode":"48205"},{"establishmentid":"2049","name":"Popeye's Chicken & Biscuits","address":"14180 Gratiot Ave","zipcode":"48205"}],"inspectionsByEstablishmentidList":[{"inspectionid":"41100","inspectionDate":"2017-11-17T00:00:00","inspectionType":"Routine Inspection","inCompliance":"No","violationsByInspectionidList":[{"violationCode":"3-501.16","violationDescription":"Except during preparation, cooking, or cooling, or when time is used as the public health control POTENTIALLY HAZARDOUS FOOD (TIME/TEMPERATURE CONTROL FOR SAFETY FOOD) shall be maintained:\r\n(A)  135ºF or above, except that roasts properly cooked and cooled may be held              at a temperature of 130ºF; or (P)\r\n(B)   At 41ºF or less (P)\r\n","violationType":"Priority","itemDescription":"Hot food item(s)","subItem":"","problemDescription":"Stored above 41 degrees F","subProblem":"","location":"HOT HOLDING AREA","subLocation":"","corrected":"Yes","daysToCorrect":"10.0","correctedDate":"2017-12-04T00:00:00","correctionDescription":"Store above 135 degrees F."},{"violationCode":"4-204.112","violationDescription":"(A)  In a mechanically refrigerated or hot FOOD storage unit, the sensor of a TEMPERATURE MEASURING DEVICE shall be located to measure the air temperature in the warmest part of a mechanically refrigerated unit and in the coolest part of a hot FOOD storage unit.\r\n(B)  Cold or hot holding EQUIPMENT used for POTENTIALLY HAZARDOUS FOOD shall be designed to include and shall be equipped with at least one integral or permanently affixed TEMPERATURE MEASURING DEVICE that is located to allow easy viewing of the device's temperature display (EXCEPT, heat lamps, cold plates, steam tables, or other equipment where it is not practical).\r\n(C)  TEMPERATURE MEASURING DEVICES shall be designed to be easily readable.\r\n(D)  FOOD TEMPERATURE MEASURING DEVICES and water TEMPERATURE MEASURING DEVICES on WAREWASHING machines shall have a numerical scale, printed record, or digital readout in increments no greater than 1C or 2F in the intended range of use. (Pf)\r\n\r\n","violationType":"Foundation","itemDescription":"Thermometer(s)","subItem":"","problemDescription":"Not provided","subProblem":"","location":"COOLER","subLocation":"","corrected":"Yes","daysToCorrect":"10.0","correctedDate":"2017-12-04T00:00:00","correctionDescription":"Provide."},{"violationCode":"4-302.11","violationDescription":"A FOOD dispensing UTENSIL shall be available for each container displayed at a CONSUMER self-service unit such as a buffet or salad bar. (Pf)\r\n","violationType":"Foundation","itemDescription":"Self-serve dispensing utensil(s)","subItem":"","problemDescription":"Not provided","subProblem":"","location":"HOT HOLDING AREA","subLocation":"","corrected":"No","daysToCorrect":"10.0","correctedDate":null,"correctionDescription":"Provide."},{"violationCode":"4-501.11","violationDescription":"EQUIPMENT shall be maintained in a state of repair and condition that meets the requirements of the code.\r\n","violationType":"Core","itemDescription":"Equipment","subItem":"","problemDescription":"In poor repair","subProblem":"","location":"KITCHEN","subLocation":"","corrected":"Yes","daysToCorrect":"30.0","correctedDate":"2017-12-04T00:00:00","correctionDescription":"Repair"},{"violationCode":"6-201.11","violationDescription":"Except otherwise approved, and except for antislip floor coverings or applications may be used for safety reasons, floors, floor coverings, walls, wall coverings, and ceilings shall be designed, constructed, and installed so they are SMOOTH and EASILY CLEANABLE.\r\n","violationType":"Core","itemDescription":"Floor(s)","subItem":"","problemDescription":"Not coved","subProblem":"","location":"3 COMPARTMENT SINK AREA","subLocation":"","corrected":"Not required","daysToCorrect":"30.0","correctedDate":null,"correctionDescription":"Provide / install coved molding."},{"violationCode":"5-205.15","violationDescription":"A PLUMBING SYSTEM shall be:\r\n(A) Repaired according to LAW; (P) and\r\n(B) Maintained in good repair.\r\n","violationType":"Core","itemDescription":"Plumbing system","subItem":"","problemDescription":"Not maintained","subProblem":"","location":"KITCHEN","subLocation":"","corrected":"Not required","daysToCorrect":"10.0","correctedDate":null,"correctionDescription":"Maintain in good repair"}]}]}]}},"pageContext":{"eid":"51622627"}}