{"data":{"site":{"pathPrefix":"/restaurant-inspections"},"postgres":{"establishment":[{"establishmentid":"4301","name":"Regent Park Scholars Charter Academy","address":"15865  E Seven Mile Rd","zipcode":"48205","owner":"National Heritage Academies","licenseNumber":"070883","licenseType":"Fixed Establishment","establishmentType":"Non-Public School","establishmentStatus":"Open","riskCategory":"Medium","reviewFrequencyDays":"210.0","coords":"-82.95761,42.43611","geojson":{"id":"4301","type":"Feature","geometry":{"type":"Point","coordinates":[-82.9576128589999,42.4361115840001]},"properties":{"name":"Regent Park Scholars Charter Academy","owner":"National Heritage Academies","address":"15865  E Seven Mile Rd","zipcode":"48205","license_type":"Fixed Establishment","risk_category":"Medium","license_number":"070883","establishmentid":"4301","establishment_type":"Non-Public School","establishment_status":"Open","review_frequency_days":"210.0","most_recent_license_date":"4/15/2016"}},"nearbyList":[{"establishmentid":"3737","name":"Fisher Middle School (Upper)","address":"15491 Maddelein St","zipcode":"48205"},{"establishmentid":"2243","name":"Papa's Restaurant and Coney Island","address":"19130 Kelly Rd","zipcode":"48224"},{"establishmentid":"276","name":"Billeo's ","address":"19164 Kelly Road","zipcode":"48224"},{"establishmentid":"5239","name":"Paradise Fish & Chicken Market","address":"15251 W Seven Mile Rd","zipcode":"48235"},{"establishmentid":"2125","name":"Jet's Pizza","address":"15235 E Seven Mile Rd","zipcode":"48205"},{"establishmentid":"3164","name":"Fisher Magnet Lower Academy (K-4,PK)","address":"15510 E State Fair","zipcode":"48205"},{"establishmentid":"4989","name":"Lape Soul Food","address":"15236 E Seven Mile Rd","zipcode":"48205"},{"establishmentid":"51622719","name":"Toarmina's Pizza","address":"12400 Morang","zipcode":"48224"},{"establishmentid":"3099","name":"AAA Panda Inc.","address":"18087 Kelly Rd","zipcode":"48224"},{"establishmentid":"51622593","name":"E & G Food Market","address":"18081 Kelly Rd","zipcode":"48224"},{"establishmentid":"661","name":"Burger King ","address":"18021 Kelly Rd","zipcode":"48224"},{"establishmentid":"1088","name":"Koney Time Restaurant","address":"15098 E Seven Mile Rd","zipcode":"48205"},{"establishmentid":"845","name":"Brewer Elementary (K-8)","address":"18025 Brock St","zipcode":"48205"},{"establishmentid":"841","name":"Denby High School","address":"12800 Kelly Rd","zipcode":"48224"},{"establishmentid":"5287","name":"Mary Lee's Carryout","address":"14901 E 7mile","zipcode":"48205"},{"establishmentid":"1109","name":"Kentucky Fried Chicken H730207","address":"15700 E Eight Mile Rd","zipcode":"48205"},{"establishmentid":"2448","name":"Pizza Hut ","address":"15610 E Eight Mile ","zipcode":"48205"},{"establishmentid":"3715","name":"Dave's Soul Food","address":"16046 E Eight Mile Rd","zipcode":"48205"},{"establishmentid":"4888","name":"Chung's","address":"12518 Kelly Rd","zipcode":"48224"},{"establishmentid":"844","name":"Carleton Elementary School","address":"11724  Casino Ave","zipcode":"48224"}],"inspectionsByEstablishmentidList":[{"inspectionid":"44731","inspectionDate":"2018-12-14T00:00:00","inspectionType":"Routine Inspection","inCompliance":"Yes","violationsByInspectionidList":[{"violationCode":"4-602.13","violationDescription":"NonFOOD-CONTACT SURFACES of EQUIPMENT shall be cleaned at a frequency necessary to preclude accumulation of soil residues.\r\n","violationType":"Core","itemDescription":"Nonfood contact surface(s)","subItem":"","problemDescription":"Soiled","subProblem":"","location":"KITCHEN","subLocation":"","corrected":"Not required","daysToCorrect":"30.0","correctedDate":null,"correctionDescription":"Clean."},{"violationCode":"6-501.18","violationDescription":"PLUMBING FIXTURES such as HANDWASHING SINKS, toilets, and urinals shall be cleaned as often as necessary to keep them clean. \r\n","violationType":"Core","itemDescription":"sink","subItem":"","problemDescription":null,"subProblem":"","location":"HANDSINK(S)","subLocation":"","corrected":"Not required","daysToCorrect":"30.0","correctedDate":null,"correctionDescription":"Clean"}]},{"inspectionid":"42365","inspectionDate":"2018-05-21T00:00:00","inspectionType":"Routine Inspection","inCompliance":"No","violationsByInspectionidList":[{"violationCode":"4-602.13","violationDescription":"NonFOOD-CONTACT SURFACES of EQUIPMENT shall be cleaned at a frequency necessary to preclude accumulation of soil residues.\r\n","violationType":"Core","itemDescription":"Nonfood contact surface(s)","subItem":"","problemDescription":"Soiled","subProblem":"","location":"KITCHEN","subLocation":"","corrected":"Not required","daysToCorrect":"30.0","correctedDate":null,"correctionDescription":"Clean."}]},{"inspectionid":"40680","inspectionDate":"2017-11-01T00:00:00","inspectionType":"Routine Inspection","inCompliance":"Yes","violationsByInspectionidList":[]},{"inspectionid":"38857","inspectionDate":"2017-05-03T00:00:00","inspectionType":"Routine Inspection","inCompliance":"Yes","violationsByInspectionidList":[{"violationCode":"6-501.18","violationDescription":"PLUMBING FIXTURES such as HANDWASHING SINKS, toilets, and urinals shall be cleaned as often as necessary to keep them clean. \r\n","violationType":"Core","itemDescription":"sink","subItem":"","problemDescription":null,"subProblem":"","location":"HANDSINK(S)","subLocation":"","corrected":"Not required","daysToCorrect":"30.0","correctedDate":null,"correctionDescription":"Clean"},{"violationCode":"6-501.12","violationDescription":"(A) PHYSICAL FACILITIES shall be cleaned as often as necessary to keep them clean.\r\n(B) Except spill cleanup, cleaning shall be done during periods when the least amount of FOOD is exposed such as after closing. ","violationType":"Core","itemDescription":"Physical facilities/structures","subItem":"","problemDescription":"With accumulation of debris","subProblem":"","location":"KITCHEN","subLocation":"","corrected":"Not required","daysToCorrect":"30.0","correctedDate":null,"correctionDescription":"Keep clean."}]},{"inspectionid":"37250","inspectionDate":"2016-11-01T00:00:00","inspectionType":"Routine Inspection","inCompliance":"Yes","violationsByInspectionidList":[{"violationCode":"5-202.12","violationDescription":"(A) A handwashing sink shall be equipped to provide water at a temperature of at least 38°C (100°F) through a mixing valve or combination faucet. (Pf)  \r\n(B) A steam mixing valve may not be used at a handwashing sink.  \r\n(C) A self-closing, slow-closing, or metering faucet shall provide a flow of water for at least 15 seconds without the need to reactivate the faucet.   \r\n(D) An automatic handwashing facility shall be installed in accordance with manufacturer's instructions.\r\n","violationType":"Foundation","itemDescription":"Handwashing facility","subItem":"","problemDescription":"Lack of hot water","subProblem":"","location":"HANDSINK(S)","subLocation":"","corrected":"Yes","daysToCorrect":"10.0","correctedDate":"2016-11-30T00:00:00","correctionDescription":"Provide hot water."}]}]}]}},"pageContext":{"eid":"4301"}}