{"componentChunkName":"component---src-templates-establishment-page-js","path":"/establishment/51623137","result":{"data":{"site":{"pathPrefix":"/restaurant-inspections"},"postgres":{"establishment":[{"establishmentid":"51623137","name":"Detroit Masala","address":"4154 Third St.","zipcode":"48201","owner":"Mohammed Ullah","licenseNumber":"246008","licenseType":"Fixed Establishment","establishmentType":"Food Service Establishment","establishmentStatus":"Open","riskCategory":"High","reviewFrequencyDays":"150","coords":"-83.06758,42.34899","geojson":{"id":"51623137","type":"Feature","geometry":{"type":"Point","coordinates":[-83.067579606,42.348986352]},"properties":{"name":"Detroit Masala","owner":"Mohammed Ullah","address":"4154 Third St.","zipcode":"48201","license_type":"Fixed Establishment","risk_category":"High","license_number":"246008","establishmentid":"51623137","establishment_type":"Food Service Establishment","establishment_status":"Open","review_frequency_days":"150","most_recent_license_date":"4/12/2022"}},"nearbyList":[{"establishmentid":"51622458","name":"Willis Show Bar/Detroit Prestige Holding","address":"4156 Third Ave.","zipcode":"48201"},{"establishmentid":"5180","name":"Cinema Detroit","address":"4126 Third Ave.","zipcode":"48201"},{"establishmentid":"51623440","name":"Vecino","address":"4100 Third St.","zipcode":"48201"},{"establishmentid":"51622834","name":"Awake Cafe Coffee and Conversation","address":"4224 Third Ave.","zipcode":"48201"},{"establishmentid":"5193","name":"Gus's Fried Chicken","address":"4101 Third Ave.","zipcode":"48201"},{"establishmentid":"51623799","name":"Detroit Public Theatre","address":"3960 Third Ave.","zipcode":"48201"},{"establishmentid":"4753","name":"Breakfast Lunch & Deli","address":"3940 Third St.","zipcode":"48201"},{"establishmentid":"737","name":"Mormando's Pizzeria","address":"3940 Third","zipcode":"48201"},{"establishmentid":"51623023","name":"Nain Rouge Brewery","address":"666 Selden St.","zipcode":"48201"},{"establishmentid":"51623163","name":"Barcade","address":"666 Selden St.","zipcode":"48201"}],"inspectionsByEstablishmentidList":[{"inspectionid":"55878","inspectionDate":"2021-09-16T00:00:00","inspectionType":"Routine Inspection","inCompliance":"Yes","violationsByInspectionidList":[{"violationCode":"3-101.11","violationDescription":"FOOD shall be safe, unADULTERATED and honestly presented. (P)\n","violationType":"Priority","itemDescription":"Food","subItem":null,"problemDescription":"Adulterated/contaminated","subProblem":null,"location":"KITCHEN","subLocation":"Inside the Cooler (small)","corrected":"True","daysToCorrect":"10","correctedDate":"2021-09-16T00:00:00","correctionDescription":"Discard."},{"violationCode":"6-301.11","violationDescription":"Each HANDWASHING SINK or group of 2 adjacent HANDWASHING SINKS shall be provided with a supply of hand cleaning liquid, powder, or bar soap. (Pf)\n","violationType":"Foundation","itemDescription":"Soap","subItem":null,"problemDescription":"Not provided","subProblem":"At hand sink","location":"KITCHEN","subLocation":"At the Handsink","corrected":"True","daysToCorrect":"10","correctedDate":"2021-09-16T00:00:00","correctionDescription":"Provide"},{"violationCode":"4-501.11","violationDescription":"EQUIPMENT shall be maintained in a state of repair and condition that meets the requirements of the code.\n","violationType":"Core","itemDescription":"Equipment","subItem":null,"problemDescription":"In poor repair","subProblem":null,"location":"FRONT COUNTER/AREA","subLocation":"At the Cooler (pepsi)","corrected":"False","daysToCorrect":"30","correctedDate":null,"correctionDescription":null}]},{"inspectionid":"50558","inspectionDate":"2020-01-24T00:00:00","inspectionType":"Routine Inspection","inCompliance":"Yes","violationsByInspectionidList":[]},{"inspectionid":"49924","inspectionDate":"2019-11-19T00:00:00","inspectionType":"Preopening/New","inCompliance":"Yes","violationsByInspectionidList":[]}]}],"maxInspectionDate":[{"inspectionDate":"2022-07-25T00:00:00"}]}},"pageContext":{"eid":"51623137"}},"staticQueryHashes":["3649515864","63159454"]}