{"componentChunkName":"component---src-templates-establishment-page-js","path":"/establishment/1237","result":{"data":{"site":{"pathPrefix":"/restaurant-inspections"},"postgres":{"establishment":[{"establishmentid":"1237","name":"Carver Elementary- Middle School","address":"18701 Paul","zipcode":"48228","owner":"Detroit Board Of Education","licenseNumber":"035338","licenseType":"Fixed Establishment","establishmentType":"Public School","establishmentStatus":"Open","riskCategory":null,"reviewFrequencyDays":"180","coords":"-83.22348,42.33550","geojson":{"id":"1237","type":"Feature","geometry":{"type":"Point","coordinates":[-83.223484915,42.335499328]},"properties":{"name":"Carver Elementary- Middle School","owner":"Detroit Board Of Education","address":"18701 Paul","zipcode":"48228","license_type":"Fixed Establishment","risk_category":null,"license_number":"035338","establishmentid":"1237","establishment_type":"Public School","establishment_status":"Open","review_frequency_days":"180","most_recent_license_date":null}},"nearbyList":[{"establishmentid":"51623436","name":"Catrina Mia","address":"6212 Artesian","zipcode":"48228"},{"establishmentid":"51623478","name":"Wild Mustang","address":"18728 Ford","zipcode":"48228"},{"establishmentid":"5145","name":"Ford Rd. Bistro Toy Chest","address":"18728 Ford Rd.","zipcode":"48228"},{"establishmentid":"1121","name":"Club 228","address":"18728 Ford Rd.","zipcode":"48228"},{"establishmentid":"1515","name":"Pizzaplace Dearborn, Inc","address":"18706 Ford Rd.","zipcode":"48228"},{"establishmentid":"1050","name":"Detroit Robin Inc./Red Robin ","address":"18650 Ford Rd.","zipcode":"48228"},{"establishmentid":"3673","name":"Tijuana's Authenic Mexican Kitchen","address":"18940  Ford Rd.","zipcode":"48228"},{"establishmentid":"51623783","name":"Pizza Place","address":"18950 Ford Rd.","zipcode":"48228"},{"establishmentid":"1444","name":"Ford Patio Bar & Grill ","address":"18490 Ford Rd.","zipcode":"48228"},{"establishmentid":"1380","name":"Doubletree Detroit/Dearborn","address":"5801 Southfield Rd.","zipcode":"48228"}],"inspectionsByEstablishmentidList":[{"inspectionid":"59242","inspectionDate":"2022-04-28T00:00:00","inspectionType":"Routine Inspection","inCompliance":"Yes","violationsByInspectionidList":[]},{"inspectionid":"56307","inspectionDate":"2021-10-19T00:00:00","inspectionType":"Routine Inspection","inCompliance":"Yes","violationsByInspectionidList":[]},{"inspectionid":"55156","inspectionDate":"2021-06-22T00:00:00","inspectionType":"Routine Inspection","inCompliance":"Yes","violationsByInspectionidList":[]},{"inspectionid":"53275","inspectionDate":"2020-10-28T00:00:00","inspectionType":"Routine Inspection","inCompliance":"Yes","violationsByInspectionidList":[]},{"inspectionid":"51192","inspectionDate":"2020-03-14T00:00:00","inspectionType":"COVID19-phone-low","inCompliance":"Yes","violationsByInspectionidList":[]},{"inspectionid":"49443","inspectionDate":"2019-10-11T00:00:00","inspectionType":"Routine Inspection","inCompliance":"Yes","violationsByInspectionidList":[]},{"inspectionid":"47903","inspectionDate":"2019-05-29T00:00:00","inspectionType":"Routine Inspection","inCompliance":"Yes","violationsByInspectionidList":[{"violationCode":"4-501.11","violationDescription":"EQUIPMENT shall be maintained in a state of repair and condition that meets the requirements of the code.\n","violationType":"Core","itemDescription":"Equipment","subItem":null,"problemDescription":"Broken","subProblem":null,"location":"KITCHEN","subLocation":null,"corrected":"False","daysToCorrect":"30","correctedDate":null,"correctionDescription":null}]},{"inspectionid":"43811","inspectionDate":"2018-10-16T00:00:00","inspectionType":"Routine Inspection","inCompliance":"Yes","violationsByInspectionidList":[]},{"inspectionid":"42063","inspectionDate":"2018-04-25T00:00:00","inspectionType":"Routine Inspection","inCompliance":"Yes","violationsByInspectionidList":[]},{"inspectionid":"40033","inspectionDate":"2017-09-20T00:00:00","inspectionType":"Routine Inspection","inCompliance":"Yes","violationsByInspectionidList":[]},{"inspectionid":"38682","inspectionDate":"2017-04-25T00:00:00","inspectionType":"Routine Inspection","inCompliance":"Yes","violationsByInspectionidList":[]},{"inspectionid":"36694","inspectionDate":"2016-10-06T00:00:00","inspectionType":"Routine Inspection","inCompliance":"Yes","violationsByInspectionidList":[{"violationCode":"4-302.14","violationDescription":"A test kit or other device that accurately measures the concentration in mg/L of SANITIZING solutions shall be provided. (Pf)\n","violationType":"Foundation","itemDescription":"Sanitizer test kit","subItem":null,"problemDescription":"Not provided","subProblem":null,"location":"DISHWASHING AREA","subLocation":"Not provided (with) Test strips","corrected":"True","daysToCorrect":"10","correctedDate":"2016-10-10T00:00:00","correctionDescription":"Provide."}]}]}],"maxInspectionDate":[{"inspectionDate":"2022-08-31T00:00:00"}]}},"pageContext":{"eid":"1237"}},"staticQueryHashes":["3649515864","63159454"]}