{"componentChunkName":"component---src-templates-establishment-page-js","path":"/establishment/5393","result":{"data":{"site":{"pathPrefix":"/restaurant-inspections"},"postgres":{"establishment":[{"establishmentid":"5393","name":"Five Hundred Degrees","address":"15090 Schafer","zipcode":"48227","owner":"Beverly Koonce","licenseNumber":"ps110416","licenseType":"Fixed Establishment","establishmentType":"Food Service Establishment","establishmentStatus":"Permanently Closed","riskCategory":null,"reviewFrequencyDays":"150","coords":"-83.17887,42.40123","geojson":{"id":"5393","type":"Feature","geometry":{"type":"Point","coordinates":[-83.178874975,42.401232096]},"properties":{"name":"Five Hundred Degrees","owner":"Beverly Koonce","address":"15090 Schafer","zipcode":"48227","license_type":"Fixed Establishment","risk_category":null,"license_number":"ps110416","establishmentid":"5393","establishment_type":"Food Service Establishment","establishment_status":"Permanently Closed","review_frequency_days":"150","most_recent_license_date":null}},"nearbyList":[{"establishmentid":"4118","name":"Mrs. Alberta's","address":"15090 Schaefer Ave.","zipcode":"48227"},{"establishmentid":"3356","name":"Schaefer Soul Food","address":"15090 Schaefer Ave.","zipcode":"48227"},{"establishmentid":"3948","name":"24 Karat","address":"15070 Schaefer","zipcode":"48227"},{"establishmentid":"1214","name":"Church's Fried Chicken #964","address":"13531 Fenkell Ave.","zipcode":"48227"},{"establishmentid":"782","name":"Toya's Bar & Grill","address":"14906 Schaefer Hwy.","zipcode":"48227"},{"establishmentid":"51622893","name":"Lighthouse Fish Market & Grocery","address":"15391 Schaefer","zipcode":"48227"},{"establishmentid":"5232","name":"Eddies Schaefer Fish Inc.","address":"15391 Schaefer Hwy.","zipcode":"48227"},{"establishmentid":"5175","name":"Gunny Ray's Shrimp & Chicken","address":"15391 Schaefer Hwy.","zipcode":"48227"},{"establishmentid":"1866","name":"Lee's Texas Style Bar-B-Que","address":"14001 Fenkell","zipcode":"48227"},{"establishmentid":"3102","name":"Jewell's Ice Cream","address":"15710 Stansbury","zipcode":"48227"}],"inspectionsByEstablishmentidList":[{"inspectionid":"40019","inspectionDate":"2016-11-17T00:00:00","inspectionType":"Routine Inspection","inCompliance":"No","violationsByInspectionidList":[{"violationCode":"5-202.13","violationDescription":"An air gap between the water supply inlet and the flood level rim of the PLUMBING FIXTURE, EQUIPMENT, or nonFOOD EQUIPMENT shall be at least twice the diameter of the water supply inlet and may not be less than 1 inch. (P)\n","violationType":"Priority","itemDescription":"Air gap","subItem":"","problemDescription":"Less than","subProblem":"1 inch","location":"PREP SINK","subLocation":"","corrected":"False","daysToCorrect":"10","correctedDate":null,"correctionDescription":"Provide"},{"violationCode":"6-301.12","violationDescription":"Each HANDWASHING SINK or group of adjacent HANDWASHING SINKS shall be provided with:\n(A) Individual, disposable towels; (Pf)\n(B) A continuous towel system that supplies the user with a clean towel;(Pf) or \n(C) A heated-air hand drying device.(Pf)\n(D) A hand drying device that employs an air-knife system that delivers high velocity pressurized air at ambient temperatures.(Pf)\n","violationType":"Foundation","itemDescription":"Sanitary hand drying provisions","subItem":"","problemDescription":"Not provided","subProblem":"","location":"HANDSINK(S)","subLocation":"","corrected":"True","daysToCorrect":"10","correctedDate":"2016-11-18T00:00:00","correctionDescription":"Provide."},{"violationCode":"6-301.11","violationDescription":"Each HANDWASHING SINK or group of 2 adjacent HANDWASHING SINKS shall be provided with a supply of hand cleaning liquid, powder, or bar soap. (Pf)\n","violationType":"Foundation","itemDescription":"Soap","subItem":"","problemDescription":"Not provided","subProblem":"","location":"HANDSINK(S)","subLocation":"","corrected":"True","daysToCorrect":"10","correctedDate":"2016-11-18T00:00:00","correctionDescription":"Provide."},{"violationCode":"6-201.13","violationDescription":"(A) In FOOD ESTABLISHMENTS in which cleaning methods other than water flushing are used for cleaning floors, the floor and wall junctures shall be coved and closed to no larger than one thirty-second inch.\n(B) The floors in FOOD ESTABLISHMENTS in which water flush cleaning methods are used shall be provided with drains and be graded to drain, and the floor and wall junctures shall be coved and SEALED.","violationType":"Core","itemDescription":"Floor(s)","subItem":"","problemDescription":"Not coved","subProblem":"","location":"WALK-IN COOLER & FREEZER","subLocation":"","corrected":"False","daysToCorrect":"30","correctedDate":null,"correctionDescription":"Provide / install coved molding."}]}]}],"maxInspectionDate":[{"inspectionDate":"2023-04-25T00:00:00"}]}},"pageContext":{"eid":"5393"}},"staticQueryHashes":["3649515864","63159454"]}