{"data":{"site":{"pathPrefix":"/restaurant-inspections"},"postgres":{"establishment":[{"establishmentid":"4482","name":"Checkers","address":"9515 Michigan Ave","zipcode":"4821","owner":"Dakota Restaurants","licenseNumber":"238075","licenseType":"Fixed Establishment","establishmentType":"Food Service Establishment","establishmentStatus":"Open","riskCategory":"Medium","reviewFrequencyDays":"365","coords":"-83.15601,42.32764","geojson":{"id":"4482","type":"Feature","geometry":{"type":"Point","coordinates":[-83.156012721,42.327638477]},"properties":{"name":"Checkers","owner":"Dakota Restaurants","address":"9515 Michigan Ave","zipcode":"4821","license_type":"Fixed Establishment","risk_category":"Medium","license_number":"238075","establishmentid":"4482","establishment_type":"Food Service Establishment","establishment_status":"Open","review_frequency_days":"365","most_recent_license_date":"5/1/2019"}},"nearbyList":[{"establishmentid":"431","name":"Club Venus","address":"9506-9510 Michigan Ave","zipcode":"4821"},{"establishmentid":"5188","name":"Avenue Grill Plus","address":"8900 McGraw Ave","zipcode":"48228"},{"establishmentid":"4784","name":"Universal Academy","address":"4833 Ogden St","zipcode":"4821"},{"establishmentid":"881","name":"Crazy Horse","address":"8140 Michigan Ave","zipcode":"4821"},{"establishmentid":"944","name":"Priest Elementary","address":"7840 Wagner St","zipcode":"4821"},{"establishmentid":"3137","name":"La Rosita","address":"7831-49 McGraw St","zipcode":"4821"},{"establishmentid":"2583","name":"Priest Annex","address":"5901 Casper St","zipcode":"4821"},{"establishmentid":"3198","name":"Angel's Place","address":"7824 Michigan Ave","zipcode":"4821"},{"establishmentid":"5050","name":"El Rey De Las Arepas","address":"7701 McGraw St","zipcode":"4821"},{"establishmentid":"1132","name":"Cas Bar","address":"7800 Michigan Ave","zipcode":"4821"}],"inspectionsByEstablishmentidList":[{"inspectionid":"48494","inspectionDate":"2019-07-23T00:00:00","inspectionType":"Routine Inspection","inCompliance":"Yes","violationsByInspectionidList":[{"violationCode":"4-501.11","violationDescription":"EQUIPMENT shall be maintained in a state of repair and condition that meets the requirements of the code.\r\n","violationType":"Core","itemDescription":"Equipment components","subItem":"doors","problemDescription":"In poor repair","subProblem":"","location":"WALK-IN COOLER","subLocation":"Door","corrected":"Not required","daysToCorrect":"30","correctedDate":null,"correctionDescription":null},{"violationCode":"4-204.11","violationDescription":"Exhaust ventilation hood systems in FOOD preparation and WAREWASHING areas including components such as hoods, fans, guards, and ducting shall be designed to prevent grease or condensation from draining or dripping onto FOOD, EQUIPMENT, UTENSILS, LINENS, and SINGLE-SERVICE and SINGLE-USE ARTICLES.\r\n","violationType":"Core","itemDescription":"Exhaust ventilation hood system(s)","subItem":"","problemDescription":"Designed to allow grease or condensation from draining/dripping onto","subProblem":"","location":"GRILL AREA","subLocation":"FILTERS","corrected":"Yes","daysToCorrect":"30","correctedDate":"2019-07-23T00:00:00","correctionDescription":"Repair/replace to prevent grease accumulation/dripping/draining."}]},{"inspectionid":"42788","inspectionDate":"2018-07-03T00:00:00","inspectionType":"Routine Inspection","inCompliance":"Yes","violationsByInspectionidList":[{"violationCode":"4-903.11","violationDescription":"Cleaned EQUIPMENT and UTENSILS, laundered LINENS, and SINGLE-SERVICE and SINGLE-USE ARTICLES shall be stored in an approved manner and location.\r\n","violationType":"Core","itemDescription":"Clean equipment/utensil(s)","subItem":"","problemDescription":"Exposed to dust, splash, or other contaminates","subProblem":"","location":"DRY STORAGE AREA","subLocation":"","corrected":"Yes","daysToCorrect":"30","correctedDate":"2018-07-03T00:00:00","correctionDescription":"Store in manner that does not contaminate items"},{"violationCode":"3-305.11","violationDescription":"FOOD shall be protected from contamination by storing the FOOD:\r\n(1)     In a clean, dry location;\r\n(2)     Where it is not exposed to splash, dust, or other contamination; and\r\n(3)     At least 15 cm (6 inches) above the floor, unless otherwise approved.\r\n","violationType":"Core","itemDescription":"Food item(s) in storage","subItem":"","problemDescription":"Exposed to dust, splash, or other contaminates","subProblem":"","location":"DRY STORAGE AREA","subLocation":"","corrected":"Yes","daysToCorrect":"30","correctedDate":"2018-07-03T00:00:00","correctionDescription":"Store in manner that does not contaminate items"}]},{"inspectionid":"38960","inspectionDate":"2017-06-08T00:00:00","inspectionType":"Routine Inspection","inCompliance":"Yes","violationsByInspectionidList":[]}]}],"maxInspectionDate":[{"inspectionDate":"2020-05-29T00:00:00"}]}},"pageContext":{"eid":"4482"}}