{"data":{"site":{"pathPrefix":"/restaurant-inspections"},"postgres":{"establishment":[{"establishmentid":"1336","name":"Indian Village Tennis Club","address":"1502 Parker Ave","zipcode":"48214","owner":"Indian Village Tennis Club","licenseNumber":"035468","licenseType":"Fixed Establishment","establishmentType":"Food Service Establishment","establishmentStatus":"Seasonal","riskCategory":null,"reviewFrequencyDays":"365.0","coords":"-82.99641,42.35680","geojson":{"id":"1336","type":"Feature","geometry":{"type":"Point","coordinates":[-82.996410983,42.356800633]},"properties":{"name":"Indian Village Tennis Club","owner":"Indian Village Tennis Club","address":"1502 Parker Ave","zipcode":"48214","license_type":"Fixed Establishment","risk_category":null,"license_number":"035468","establishmentid":"1336","establishment_type":"Food Service Establishment","establishment_status":"Seasonal","review_frequency_days":"365.0","most_recent_license_date":"4/27/2018"}},"nearbyList":[{"establishmentid":"51622473","name":"Yum Village Food Truck Works Detroit","address":"1415 Parker #867 ","zipcode":"48214"},{"establishmentid":"4817","name":"Craft Work","address":"8047 Agnes St","zipcode":"48214"},{"establishmentid":"4765","name":"Detroit Vegan Soul, LLC","address":"8029 Agnes St","zipcode":"48214"},{"establishmentid":"4953","name":"The Red Hook, Detroit, LLC","address":"8025 Agnes St","zipcode":"48214"},{"establishmentid":"5284","name":"Conventional Missionary Baptist Church","address":"2255 Seminole","zipcode":"48214"},{"establishmentid":"833","name":"Marcus Garvey","address":"2301 Van Dyke Ave","zipcode":"48207"},{"establishmentid":"4233","name":"St. Charles","address":"1491 Baldwin","zipcode":"48214"},{"establishmentid":"51622619","name":"Detroit Prep","address":"2411 Iroquois St","zipcode":"48214"},{"establishmentid":"1870","name":"Belle Isle Pizza (fka) Garalino's Pizza","address":"7869 E Jefferson Ave","zipcode":"48214"},{"establishmentid":"1099","name":"Butzel Recreation Center","address":"7737 Kercheval Ave","zipcode":"48214"},{"establishmentid":"2593","name":"Moses Field School","address":"1100 Sheridan","zipcode":"48214"},{"establishmentid":"4984","name":"Four Seasons Catering LLC","address":"8000 E Jefferson","zipcode":"48214"},{"establishmentid":"1091","name":"River Towers Apartments","address":"7800 E Jefferson Ave","zipcode":"48214"},{"establishmentid":"2497","name":"8330 on the River","address":"8330 E Jefferson Ave","zipcode":"48214"},{"establishmentid":"51622516","name":"The In Les Place","address":"415 Burns","zipcode":"48214"},{"establishmentid":"51622626","name":"The Whittier Tower Bar","address":"415 Burns Drive","zipcode":"48217"},{"establishmentid":"1006","name":"John Nichols Elementary","address":"3000 Burns","zipcode":"48214"},{"establishmentid":"2370","name":"McDonald's #2285","address":"8825 E Jefferson Ave","zipcode":"48214"},{"establishmentid":"5368","name":"Chubby Duck Detroit","address":"208 E Grand River","zipcode":"48226"},{"establishmentid":"5054","name":"Belle Isle Krispy Crunchy Chicken","address":"7255 E Jefferson Ave","zipcode":"48214"}],"inspectionsByEstablishmentidList":[{"inspectionid":"43402","inspectionDate":"2018-09-17T00:00:00","inspectionType":"Routine Inspection","inCompliance":"Yes","violationsByInspectionidList":[{"violationCode":"4-602.13","violationDescription":"NonFOOD-CONTACT SURFACES of EQUIPMENT shall be cleaned at a frequency necessary to preclude accumulation of soil residues.\r\n","violationType":"Core","itemDescription":"Nonfood contact surface(s)","subItem":"","problemDescription":"Soiled","subProblem":"","location":"BAR","subLocation":"Inside the Cabinet(s) (lower)","corrected":"Not required","daysToCorrect":"30.0","correctedDate":null,"correctionDescription":"Keep clean."},{"violationCode":"4-602.12","violationDescription":"(A) The FOOD-CONTACT SURFACES of cooking and baking EQUIPMENT shall be cleaned at least every 24 hours. This section does not apply to hot oil cooking and filtering EQUIPMENT if it is cleaned as specified in Subparagraph 4-602.11(D)(6).   \r\n(B) The cavities and door seals of microwave ovens shall be cleaned at least every 24 hours by using the manufacturer's recommended cleaning procedure.","violationType":"Core","itemDescription":"Microwave oven door seals and cavities","subItem":"","problemDescription":"Not cleaned","subProblem":"","location":"KITCHEN","subLocation":"Inside the Microwave Oven(s)","corrected":"Not required","daysToCorrect":"30.0","correctedDate":null,"correctionDescription":"Clean as required above."}]},{"inspectionid":"39660","inspectionDate":"2017-08-22T00:00:00","inspectionType":"Routine Inspection","inCompliance":"No","violationsByInspectionidList":[{"violationCode":"4-204.112","violationDescription":"(A)  In a mechanically refrigerated or hot FOOD storage unit, the sensor of a TEMPERATURE MEASURING DEVICE shall be located to measure the air temperature in the warmest part of a mechanically refrigerated unit and in the coolest part of a hot FOOD storage unit.\r\n(B)  Cold or hot holding EQUIPMENT used for POTENTIALLY HAZARDOUS FOOD shall be designed to include and shall be equipped with at least one integral or permanently affixed TEMPERATURE MEASURING DEVICE that is located to allow easy viewing of the device's temperature display (EXCEPT, heat lamps, cold plates, steam tables, or other equipment where it is not practical).\r\n(C)  TEMPERATURE MEASURING DEVICES shall be designed to be easily readable.\r\n(D)  FOOD TEMPERATURE MEASURING DEVICES and water TEMPERATURE MEASURING DEVICES on WAREWASHING machines shall have a numerical scale, printed record, or digital readout in increments no greater than 1C or 2F in the intended range of use. (Pf)\r\n\r\n","violationType":"Foundation","itemDescription":"Thermometer(s)","subItem":"refrigeration","problemDescription":"Not provided","subProblem":"","location":"KITCHEN","subLocation":"Inside the Refrigerator/freezers","corrected":"No","daysToCorrect":"10.0","correctedDate":null,"correctionDescription":"Provide as required"},{"violationCode":"4-602.12","violationDescription":"(A) The FOOD-CONTACT SURFACES of cooking and baking EQUIPMENT shall be cleaned at least every 24 hours. This section does not apply to hot oil cooking and filtering EQUIPMENT if it is cleaned as specified in Subparagraph 4-602.11(D)(6).   \r\n(B) The cavities and door seals of microwave ovens shall be cleaned at least every 24 hours by using the manufacturer's recommended cleaning procedure.","violationType":"Core","itemDescription":"Microwave oven door seals and cavities","subItem":"","problemDescription":"Not cleaned","subProblem":"","location":"KITCHEN","subLocation":"Inside the Microwave Oven(s)","corrected":"Not required","daysToCorrect":"30.0","correctedDate":null,"correctionDescription":"Clean as required above."},{"violationCode":"4-602.13","violationDescription":"NonFOOD-CONTACT SURFACES of EQUIPMENT shall be cleaned at a frequency necessary to preclude accumulation of soil residues.\r\n","violationType":"Core","itemDescription":"Nonfood contact surface(s)","subItem":"","problemDescription":"With accumulation of debris","subProblem":"","location":"KITCHEN","subLocation":"Inside the Toaster oven","corrected":"Not required","daysToCorrect":"30.0","correctedDate":null,"correctionDescription":"Keep clean."}]}]}]}},"pageContext":{"eid":"1336"}}