{"data":{"site":{"pathPrefix":"/restaurant-inspections"},"postgres":{"establishment":[{"establishmentid":"51623058","name":"D Ice Cream","address":"3876 Oliver St","zipcode":"48212","owner":"Salen Saleh-Alui Al-masmari","licenseNumber":"238082","licenseType":"Mobile Food Establishment","establishmentType":"LHD - Mobile Food Establishmen","establishmentStatus":"Seasonal","riskCategory":null,"reviewFrequencyDays":"90.0","coords":"-83.04426,42.39194","geojson":{"id":"51623058","type":"Feature","geometry":{"type":"Point","coordinates":[-83.04426497,42.3919413310001]},"properties":{"name":"D Ice Cream","owner":"Salen Saleh-Alui Al-masmari","address":"3876 Oliver St","zipcode":"48212","license_type":"Mobile Food Establishment","risk_category":null,"license_number":"238082","establishmentid":"51623058","establishment_type":"LHD - Mobile Food Establishmen","establishment_status":"Seasonal","review_frequency_days":"90.0","most_recent_license_date":"7/10/2019"}},"nearbyList":[{"establishmentid":"5344","name":"Oakland International Academy","address":"8228 Conant St","zipcode":"48211"},{"establishmentid":"5343","name":"Oakland International Academy","address":"4001 Miller St","zipcode":null},{"establishmentid":"4777","name":"Mr. Primo Softy","address":"8215 Winkelman Street","zipcode":"48211"},{"establishmentid":"5218","name":"S & A Ice Cream","address":"8189 Winkelman St","zipcode":"48211"},{"establishmentid":"4810","name":"U.S.A Ice Cream","address":"4069 Dodge St","zipcode":"48211"},{"establishmentid":"5342","name":"Oakland International Academy","address":"6111 Miller St","zipcode":"48211"},{"establishmentid":"51623019","name":"Detroit Soft Serve","address":"6116 Georgia St","zipcode":"48211"},{"establishmentid":"4005","name":"M H Soft Serve","address":"4177 Dodge St","zipcode":"48211"},{"establishmentid":"5369","name":"Spiderman Ice Cream","address":"5975 Hedge St","zipcode":"48211"},{"establishmentid":"51622754","name":"Mr. Ice Cream","address":"3252 Jacob St","zipcode":"48212"}],"inspectionsByEstablishmentidList":[{"inspectionid":"48279","inspectionDate":"2019-07-10T00:00:00","inspectionType":"Mobile Inspection","inCompliance":"Yes","violationsByInspectionidList":[{"violationCode":"4-602.13","violationDescription":"NonFOOD-CONTACT SURFACES of EQUIPMENT shall be cleaned at a frequency necessary to preclude accumulation of soil residues.\r\n","violationType":"Core","itemDescription":"Nonfood contact surface(s)","subItem":"","problemDescription":"Soiled","subProblem":"","location":"TRUCK","subLocation":"Inside the Soft serve machine","corrected":"Not required","daysToCorrect":"30.0","correctedDate":null,"correctionDescription":null},{"violationCode":"MFL289.6135","violationDescription":"Sec. 6135. (1) The name and address of the business operating a mobile food establishment shall be affixed to each side of the exterior of the vehicle in letters not less than 3 inches high and 3/8 of an inch wide and shall be in contrast to the vehicle background color. When more than 1 mobile food service establishment is operated by the same person, the director shall assign a number to each establishment.  (2) A copy of limitations attached to the license of a mobile food service establishment shall be carried on the mobile food service establishment at all times.  (3) If a mobile food establishment is operating on a regularly scheduled route, the director may require the license holder to provide a copy of the route schedule when the license is approved and every time the route schedule is changed.  (4) The director or the operator in the presence of the director shall affix 2 decals provided by the department on the mobile food establishment when the license is issued. The decals shall be conspicuously displayed on each side of the mobile food establishment so as to be visible when in transit and while serving the public.","violationType":"Core","itemDescription":null,"subItem":"","problemDescription":null,"subProblem":"","location":"TRUCK","subLocation":"On the outside of the Vehicle","corrected":"Not required","daysToCorrect":"30.0","correctedDate":null,"correctionDescription":null},{"violationCode":"6-201.11","violationDescription":"Except otherwise approved, and except for antislip floor coverings or applications may be used for safety reasons, floors, floor coverings, walls, wall coverings, and ceilings shall be designed, constructed, and installed so they are SMOOTH and EASILY CLEANABLE.\r\n","violationType":"Core","itemDescription":"wall(s)","subItem":"","problemDescription":"Not constructed, designed, installed to be","subProblem":"","location":"TRUCK","subLocation":"At the Windows","corrected":"Yes","daysToCorrect":"30.0","correctedDate":"2019-07-10T00:00:00","correctionDescription":null}]}]}],"maxInspectionDate":[{"inspectionDate":"2019-10-31T00:00:00"}]}},"pageContext":{"eid":"51623058"}}