{"data":{"site":{"pathPrefix":"/restaurant-inspections"},"postgres":{"establishment":[{"establishmentid":"51622944","name":"Crown Burgers","address":"20449 Schaefer Hwy","zipcode":"48212","owner":"Mohamed A. Obyan","licenseNumber":"236368","licenseType":"Fixed Establishment","establishmentType":"Food Service Establishment","establishmentStatus":"Open","riskCategory":"High","reviewFrequencyDays":"180","coords":"-83.18134,42.44361","geojson":{"id":"51622944","type":"Feature","geometry":{"type":"Point","coordinates":[-83.181342836,42.443607287]},"properties":{"name":"Crown Burgers","owner":"Mohamed A. Obyan","address":"20449 Schaefer Hwy","zipcode":"48212","license_type":"Fixed Establishment","risk_category":"High","license_number":"236368","establishmentid":"51622944","establishment_type":"Food Service Establishment","establishment_status":"Open","review_frequency_days":"180","most_recent_license_date":null}},"nearbyList":[{"establishmentid":"5373","name":"Schaefer Fish Market LLC","address":"20449 Schaefer Hwy","zipcode":"48235"},{"establishmentid":"51622621","name":"Da Catch LLC","address":"20449 Schaefer Hwy","zipcode":"48235"},{"establishmentid":"4343","name":"Subway","address":"13541 W Eight Mile Rd","zipcode":"48235"},{"establishmentid":"2074","name":"Church's Fried Chicken #976","address":"13611 W Eight Mile Rd","zipcode":"48235"},{"establishmentid":"1462","name":"Tubby's","address":"601 Schaefer Hwy S","zipcode":"48217"},{"establishmentid":"3380","name":"Subway","address":"335 Schaefer Hwy S","zipcode":"48217"},{"establishmentid":"5151","name":"Pop'n Smoke BBQ","address":"13849 W Eight Mile Rd","zipcode":"48235"},{"establishmentid":"5157","name":"44 Burrito","address":"14015 W Eight Mile Rd","zipcode":"48235"},{"establishmentid":"849","name":"Vernor Elementary","address":"13726 Pembroke St","zipcode":"48235"},{"establishmentid":"588","name":"Hot Tamales","address":"13109 W Eight Mile Rd","zipcode":"48235"}],"inspectionsByEstablishmentidList":[{"inspectionid":"50383","inspectionDate":"2020-01-15T00:00:00","inspectionType":"Routine Inspection","inCompliance":"Yes","violationsByInspectionidList":[{"violationCode":"5-205.11","violationDescription":"(A) A HANDWASHING SINK shall be maintained so that it is accessible at all times for EMPLOYEE use and used for no other purpose. (Pf)\r\n(B)  An automatic handwashing facility shall be used in accordance with manufacturer's instructions. (Pf)\r\n","violationType":"Foundation","itemDescription":"Handwashing sink(s)","subItem":"","problemDescription":"Not easily accessible","subProblem":"","location":"KITCHEN","subLocation":"","corrected":"Yes","daysToCorrect":"10","correctedDate":"2020-01-15T00:00:00","correctionDescription":null}]},{"inspectionid":"48506","inspectionDate":"2019-07-25T00:00:00","inspectionType":"Routine Inspection","inCompliance":"Yes","violationsByInspectionidList":[{"violationCode":"5-202.12","violationDescription":"(A) A handwashing sink shall be equipped to provide water at a temperature of at least 38°C (100°F) through a mixing valve or combination faucet. (Pf)  \r\n(B) A steam mixing valve may not be used at a handwashing sink.  \r\n(C) A self-closing, slow-closing, or metering faucet shall provide a flow of water for at least 15 seconds without the need to reactivate the faucet.   \r\n(D) An automatic handwashing facility shall be installed in accordance with manufacturer's instructions.\r\n","violationType":"Priority","itemDescription":"Handwashing facility","subItem":"","problemDescription":"Lack of hot water","subProblem":"","location":"THROUGHOUT FACILITY","subLocation":"","corrected":"Yes","daysToCorrect":"10","correctedDate":"2019-08-06T00:00:00","correctionDescription":null},{"violationCode":"3-601.12","violationDescription":"(A) FOOD shall be offered for human consumption in a way that does not mislead or misinform the CONSUMER.   \r\n(B) FOOD or COLOR ADDITIVES, colored overwraps, or lights may not be used to misrepresent the true appearance, color, or quality of a FOOD.\r\n","violationType":"Core","itemDescription":"Misrepresentation of food(s)","subItem":"","problemDescription":"By service that","subProblem":"Misinforms consumer","location":"MENU(S)","subLocation":"","corrected":"Yes","daysToCorrect":"30","correctedDate":"2019-08-06T00:00:00","correctionDescription":null}]}]}],"maxInspectionDate":[{"inspectionDate":"2020-05-29T00:00:00"}]}},"pageContext":{"eid":"51622944"}}