{"data":{"site":{"pathPrefix":"/restaurant-inspections"},"postgres":{"establishment":[{"establishmentid":"5124","name":"Mercy Education Project","address":"1450 Howard St","zipcode":"48216","owner":"Mercy Education Project","licenseNumber":"082482","licenseType":"Fixed Establishment","establishmentType":null,"establishmentStatus":"Open","riskCategory":"Medium","reviewFrequencyDays":"365","coords":"-83.06248,42.32683","geojson":{"id":"5124","type":"Feature","geometry":{"type":"Point","coordinates":[-83.062481991,42.326833376]},"properties":{"name":"Mercy Education Project","owner":"Mercy Education Project","address":"1450 Howard St","zipcode":"48216","license_type":"Fixed Establishment","risk_category":"Medium","license_number":"082482","establishmentid":"5124","establishment_type":null,"establishment_status":"Open","review_frequency_days":"365","most_recent_license_date":"4/25/2019"}},"nearbyList":[{"establishmentid":"4013","name":"Le Petit Zinc","address":"1055 Trumbull","zipcode":"48216"},{"establishmentid":"1134","name":"Burger King #4724","address":"1425 W Lafayette","zipcode":"48216"},{"establishmentid":"51622835","name":"Burger King #1191","address":"1425 W Lafayette Blvd","zipcode":"48216"},{"establishmentid":"4939","name":"Batch Brewing Company","address":"1408 Porter St","zipcode":"48216"},{"establishmentid":"1349","name":"Mudgie's","address":"1300 Porter St","zipcode":"48226"},{"establishmentid":"51622455","name":"Sheiba Express","address":"1366 W Fort St","zipcode":"48226"},{"establishmentid":"2406","name":"Haz Subs & Salads","address":"1360 W Fort St","zipcode":"48226"},{"establishmentid":"5174","name":"Red Dunn/ Events","address":"1331 Trumbull Ave","zipcode":"48216"},{"establishmentid":"51622514","name":"Burroughs","address":"1331 Trumbull Ave","zipcode":"48216"},{"establishmentid":"1507","name":"Coney King Coney Island","address":"1350 W Fort St","zipcode":"48226"}],"inspectionsByEstablishmentidList":[{"inspectionid":"44161","inspectionDate":"2018-11-21T00:00:00","inspectionType":"Routine Inspection","inCompliance":"No","violationsByInspectionidList":[{"violationCode":"4-302.14","violationDescription":"A test kit or other device that accurately measures the concentration in mg/L of SANITIZING solutions shall be provided. (Pf)\r\n","violationType":"Foundation","itemDescription":"Sanitizer test kit","subItem":"","problemDescription":"Not provided","subProblem":"","location":"ESTABLISHMENT","subLocation":"Missing Test strips","corrected":"No","daysToCorrect":"10","correctedDate":null,"correctionDescription":"A designated dressing room/area shall be provided and used."},{"violationCode":"4-302.12","violationDescription":"(A) FOOD TEMPERATURE MEASURING DEVICES shall be provided and readily accessible for use in ensuring attainment and maintenance of FOOD temperatures as specified under Chapter 3. (Pf)   \r\n(B) A TEMPERATURE MEASURING DEVICE with a suitable small-diameter probe that is designed to measure the temperature of thin masses shall be provided and readily accessible to accurately measure the temperature in thin FOODS such as MEAT patties and FISH filets. (Pf)\r\n","violationType":"Foundation","itemDescription":"Food thermometer(s)","subItem":"probe","problemDescription":"Not available","subProblem":"","location":"ESTABLISHMENT","subLocation":"Missing Digital Thermometer","corrected":"No","daysToCorrect":"10","correctedDate":null,"correctionDescription":"Make available at all times."}]},{"inspectionid":"37319","inspectionDate":"2016-12-07T00:00:00","inspectionType":"Routine Inspection","inCompliance":"Yes","violationsByInspectionidList":[{"violationCode":"4-204.112","violationDescription":"(A)  In a mechanically refrigerated or hot FOOD storage unit, the sensor of a TEMPERATURE MEASURING DEVICE shall be located to measure the air temperature in the warmest part of a mechanically refrigerated unit and in the coolest part of a hot FOOD storage unit.\r\n(B)  Cold or hot holding EQUIPMENT used for POTENTIALLY HAZARDOUS FOOD shall be designed to include and shall be equipped with at least one integral or permanently affixed TEMPERATURE MEASURING DEVICE that is located to allow easy viewing of the device's temperature display (EXCEPT, heat lamps, cold plates, steam tables, or other equipment where it is not practical).\r\n(C)  TEMPERATURE MEASURING DEVICES shall be designed to be easily readable.\r\n(D)  FOOD TEMPERATURE MEASURING DEVICES and water TEMPERATURE MEASURING DEVICES on WAREWASHING machines shall have a numerical scale, printed record, or digital readout in increments no greater than 1C or 2F in the intended range of use. (Pf)\r\n\r\n","violationType":"Core","itemDescription":"Thermometer(s)","subItem":"refrigeration","problemDescription":"Not provided","subProblem":"","location":"STORAGE AREA(S)","subLocation":"Missing Thermometer(s)","corrected":"Yes","daysToCorrect":"10","correctedDate":"2016-12-07T00:00:00","correctionDescription":"Provide as required"}]}]}],"maxInspectionDate":[{"inspectionDate":"2020-10-30T00:00:00"}]}},"pageContext":{"eid":"5124"}}