{"data":{"postgres":{"establishment":[{"establishmentid":"1902","name":"Nikki's Place & Lounge","address":"17200 Harper Ave","zipcode":"48224","owner":"Lawrence Brink","licenseNumber":"037550","licenseType":"Fixed Establishment","establishmentType":"Food Service Establishment","establishmentStatus":"Open","riskCategory":null,"reviewFrequencyDays":"365.0","coords":"-82.93465,42.41715","geojson":{"id":"1902","type":"Feature","geometry":{"type":"Point","coordinates":[-82.934654489,42.4171543520001]},"properties":{"name":"Nikki's Place & Lounge","owner":"Lawrence Brink","address":"17200 Harper Ave","zipcode":"48224","license_type":"Fixed Establishment","risk_category":null,"license_number":"037550","establishmentid":"1902","establishment_type":"Food Service Establishment","establishment_status":"Open","review_frequency_days":"365.0","most_recent_license_date":"3/24/2016"}},"nearbyList":[{"establishmentid":"446","name":"Tubby's Sub Shop #37","address":"17195 Harper Ave","zipcode":"48224"},{"establishmentid":"51622597","name":"The Den Sports Grill and Bar","address":"17175 Harper Ave","zipcode":"48224"},{"establishmentid":"511","name":"Champagnes Steak and Soul","address":"17323 Harper Ave","zipcode":"48224"},{"establishmentid":"3571","name":"Papa's Pizza ","address":"17137 Harper Ave","zipcode":"48224"},{"establishmentid":"1797","name":"Wendy's Old Fashioned Hamburgers","address":"17010 Harper Ave","zipcode":"48226"},{"establishmentid":"1295","name":"McDonald's #5459 ","address":"16950 Harper Ave","zipcode":"48224"},{"establishmentid":"705","name":"First Place Lounge","address":"16921 Harper Ave","zipcode":"48224"},{"establishmentid":"4366","name":"Sweetwater Express (Harper)","address":"16849 Harper Ave","zipcode":"48224"},{"establishmentid":"465","name":"Firewater Bar & Grill","address":"16801 Harper Ave","zipcode":"48224"},{"establishmentid":"2162","name":"White Castle #59","address":"16737 Harper Ave ","zipcode":"48224"},{"establishmentid":"3738","name":"Popeye's Chicken & Biscuits","address":"16701 Harper Ave","zipcode":"48205"},{"establishmentid":"2265","name":"Louie's Ham & Corn Beef","address":"16661 Harper Ave","zipcode":"48224"},{"establishmentid":"5243","name":"Vergotes Poultry & Fish Inc.","address":"16523 Harper","zipcode":"48224"},{"establishmentid":"51622809","name":"Morang 1 Coney Island","address":"11001 Morang Dr","zipcode":"48224"},{"establishmentid":"4936","name":"Checker's Drive In Restuarant","address":"16511 Harper Rd","zipcode":"48224"},{"establishmentid":"1671","name":"Happy's Pizza #3","address":"11025 Morang Dr","zipcode":"48234"},{"establishmentid":"4412","name":"East English Village Preparatory Academy","address":"5020 Cadieux","zipcode":"48224"},{"establishmentid":"5290","name":"Charlie's Jolly Cones","address":"9194 Whittier Ave","zipcode":"48204"},{"establishmentid":"4766","name":"Marquette Elementary (Main Building)","address":"6145 Canyon","zipcode":"48238"},{"establishmentid":"1116","name":"Marquette Elementary School (Annex)","address":"6145 Canyon","zipcode":"48236"}],"inspectionsByEstablishmentidList":[{"inspectionid":"44325","inspectionDate":"2018-11-30T00:00:00","inspectionType":"Routine Inspection","inCompliance":"Yes","violationsByInspectionidList":[{"violationCode":"5-205.11","violationDescription":"(A) A HANDWASHING SINK shall be maintained so that it is accessible at all times for EMPLOYEE use and used for no other purpose. (Pf)\r\n(B)  An automatic handwashing facility shall be used in accordance with manufacturer's instructions. (Pf)\r\n","violationType":"Foundation","itemDescription":"Handwashing sink(s)","subItem":"","problemDescription":"Used for culinary purposes","subProblem":"","location":"HANDSINK(S)","subLocation":"","corrected":"Yes","daysToCorrect":"10.0","correctedDate":"2018-11-30T00:00:00","correctionDescription":"Discontinue use of hand sink for this use and use appropriate sink."},{"violationCode":"6-301.11","violationDescription":"Each HANDWASHING SINK or group of 2 adjacent HANDWASHING SINKS shall be provided with a supply of hand cleaning liquid, powder, or bar soap. (Pf)\r\n","violationType":"Foundation","itemDescription":"Soap","subItem":"","problemDescription":"Not provided","subProblem":"","location":"HANDSINK(S)","subLocation":"","corrected":"Yes","daysToCorrect":"10.0","correctedDate":"2018-11-30T00:00:00","correctionDescription":"Provide."}]},{"inspectionid":"40638","inspectionDate":"2017-11-01T00:00:00","inspectionType":"Routine Inspection","inCompliance":"No","violationsByInspectionidList":[{"violationCode":"4-302.14","violationDescription":"A test kit or other device that accurately measures the concentration in mg/L of SANITIZING solutions shall be provided. (Pf)\r\n","violationType":"Foundation","itemDescription":"Sanitizer test kit","subItem":"","problemDescription":"Not provided","subProblem":"","location":"BAR","subLocation":"At the Three compartment sink","corrected":"No","daysToCorrect":"10.0","correctedDate":null,"correctionDescription":"Provide as required"}]},{"inspectionid":"37126","inspectionDate":"2016-11-15T00:00:00","inspectionType":"Routine Inspection","inCompliance":"Yes","violationsByInspectionidList":[{"violationCode":"4-204.120","violationDescription":"EQUIPMENT compartments that are subject to accumulation of moisture due to conditions such as condensation, FOOD or BEVERAGE drip, or water from melting ice shall be sloped to an outlet that allows complete draining.\r\n","violationType":"Core","itemDescription":"Equipment compartment(s)","subItem":"steamer(s)","problemDescription":"Not sloped to drain","subProblem":"","location":"BEVERAGE AREA","subLocation":"","corrected":"Not required","daysToCorrect":"30.0","correctedDate":null,"correctionDescription":"Repair/replace so that sloped to drain."}]}]}]}},"pageContext":{"eid":"1902"}}