{"data":{"site":{"pathPrefix":"/restaurant-inspections"},"postgres":{"establishment":[{"establishmentid":"5201","name":"Roy Allen Family Life Center","address":"4924 Joy Rd","zipcode":"48204","owner":"Chapel Hill Baptist","licenseNumber":"082497","licenseType":"Fixed Establishment","establishmentType":"Food Service Establishment","establishmentStatus":"Open","riskCategory":null,"reviewFrequencyDays":"180.0","coords":"-83.12836,42.36638","geojson":{"id":"5201","type":"Feature","geometry":{"type":"Point","coordinates":[-83.1283646639999,42.3663824560001]},"properties":{"name":"Roy Allen Family Life Center","owner":"Chapel Hill Baptist","address":"4924 Joy Rd","zipcode":"48204","license_type":"Fixed Establishment","risk_category":null,"license_number":"082497","establishmentid":"5201","establishment_type":"Food Service Establishment","establishment_status":"Open","review_frequency_days":"180.0","most_recent_license_date":null}},"nearbyList":[{"establishmentid":"1146","name":"Church's Fried Chicken #855","address":"9137 W Grand River Ave","zipcode":"48204"},{"establishmentid":"1270","name":"Ebenezer A.M.E Church","address":"5151 W Chicago","zipcode":"48204"},{"establishmentid":"1084","name":"Paradise Chop Suey","address":"9333 Grand River Ave","zipcode":"48204"},{"establishmentid":"793","name":"Trade Union Leadership Council","address":"8670 Grand River Ave","zipcode":"48204"},{"establishmentid":"924","name":"Keidan Special Education Center","address":"4441 Collingwood St","zipcode":"48204"},{"establishmentid":"2011","name":"Steve's World of Food-SEMI Truck","address":"8443-47 Grand River Ave","zipcode":"48204"},{"establishmentid":"1934","name":"Steve's Soul Food-Commissary","address":"8443-47 Grand River Ave","zipcode":"48204"},{"establishmentid":"51622573","name":"Steve's World of Food #2","address":"8443 Grand River Ave","zipcode":"48204"},{"establishmentid":"4883","name":"Livernois & I96 Subway Inc","address":"9600 Livernois Ave","zipcode":"48204"},{"establishmentid":"1709","name":"Wendy's ","address":"9768 Grand River Ave","zipcode":"48204"}],"inspectionsByEstablishmentidList":[{"inspectionid":"45685","inspectionDate":"2019-03-26T00:00:00","inspectionType":"Routine Inspection","inCompliance":"Yes","violationsByInspectionidList":[]},{"inspectionid":"43193","inspectionDate":"2018-06-29T00:00:00","inspectionType":"Routine Inspection","inCompliance":"Yes","violationsByInspectionidList":[{"violationCode":"MFL289.2129","violationDescription":"Sec. 2129. (1) All food establishments shall employ a minimum of 1 managerial employee as a food safety manager, who must be an individual who is currently certified under a personnel certification program accredited by the American National Standards Institute, utilizing the Conference for Food Protection standards:\r\n(2) Beginning January 14, 2017 and every 5 years thereafter, a certified  food safety manager who supervises the operations of a food service establishment shall have completed a food safety training program\r\ncontaining an allergen awareness  component that has been approved by  the department. A food service establishment shall retain records on the  site of the food service establishment documenting compliance of its  certified food safety managers with this subsection. ","violationType":"Core","itemDescription":"Person-in-charge","subItem":"","problemDescription":null,"subProblem":"","location":"ESTABLISHMENT","subLocation":"","corrected":"Not required","daysToCorrect":"30.0","correctedDate":null,"correctionDescription":null}]},{"inspectionid":"40581","inspectionDate":"2017-10-26T00:00:00","inspectionType":"Routine Inspection","inCompliance":"Yes","violationsByInspectionidList":[{"violationCode":"MFL289.2129","violationDescription":"Sec. 2129. (1) All food establishments shall employ a minimum of 1 managerial employee as a food safety manager, who must be an individual who is currently certified under a personnel certification program accredited by the American National Standards Institute, utilizing the Conference for Food Protection standards:\r\n(2) Beginning January 14, 2017 and every 5 years thereafter, a certified  food safety manager who supervises the operations of a food service establishment shall have completed a food safety training program\r\ncontaining an allergen awareness  component that has been approved by  the department. A food service establishment shall retain records on the  site of the food service establishment documenting compliance of its  certified food safety managers with this subsection. ","violationType":"Core","itemDescription":"Person-in-charge","subItem":"","problemDescription":null,"subProblem":"","location":"ESTABLISHMENT","subLocation":"","corrected":"Not required","daysToCorrect":"30.0","correctedDate":null,"correctionDescription":null}]},{"inspectionid":"38643","inspectionDate":"2017-05-09T00:00:00","inspectionType":"Routine Inspection","inCompliance":"Yes","violationsByInspectionidList":[]},{"inspectionid":"36849","inspectionDate":"2016-10-20T00:00:00","inspectionType":"Routine Inspection","inCompliance":"Yes","violationsByInspectionidList":[]}]}],"maxInspectionDate":[{"inspectionDate":"2019-05-31T00:00:00"}]}},"pageContext":{"eid":"5201"}}