{"data":{"site":{"pathPrefix":"/restaurant-inspections"},"postgres":{"establishment":[{"establishmentid":"51622921","name":"Rock City Eats & Sweets","address":"9701 Harper Ave","zipcode":"48213","owner":"Mario Sattam","licenseNumber":"237725","licenseType":"Fixed Establishment","establishmentType":"Food Service Establishment","establishmentStatus":"Plan Review","riskCategory":"High","reviewFrequencyDays":"180.0","coords":"-83.00703,42.39291","geojson":{"id":"51622921","type":"Feature","geometry":{"type":"Point","coordinates":[-83.007029115,42.392911487]},"properties":{"name":"Rock City Eats & Sweets","owner":"Mario Sattam","address":"9701 Harper Ave","zipcode":"48213","license_type":"Fixed Establishment","risk_category":"High","license_number":"237725","establishmentid":"51622921","establishment_type":"Food Service Establishment","establishment_status":"Plan Review","review_frequency_days":"180.0","most_recent_license_date":"4/26/2019"}},"nearbyList":[{"establishmentid":"3511","name":"Ross Catering","address":"9628 Harper Ave","zipcode":"48213"},{"establishmentid":"3633","name":"Subway #26842","address":"9655 Gratiot Ave","zipcode":"48213"},{"establishmentid":"2811","name":"Captain Jay's Fish & Chicken","address":"9623 Gratiot Ave","zipcode":"48213"},{"establishmentid":"3632","name":"Hollywood Coney Island","address":"9951 Gratiot Ave","zipcode":"48213"},{"establishmentid":"5398","name":"Captain Jay's #102","address":"9654 Gratiot Ave","zipcode":"48213"},{"establishmentid":"207","name":"Burger King ","address":"9239 Gratiot Ave","zipcode":"48213"},{"establishmentid":"2148","name":"Operation Get Down","address":"10100 Harper Ave","zipcode":"48213"},{"establishmentid":"1436","name":"Blackwell Institute","address":"9330 Shoemaker St","zipcode":"48213"},{"establishmentid":"1244","name":"Bethel Baptist Church East","address":"5715 Holcomb St","zipcode":"48213"},{"establishmentid":"1643","name":"A. L. Holmes Elementary","address":"8950 Crane St","zipcode":"48213"}],"inspectionsByEstablishmentidList":[{"inspectionid":"48764","inspectionDate":"2019-08-15T00:00:00","inspectionType":"Routine Inspection","inCompliance":"Yes","violationsByInspectionidList":[{"violationCode":"5-402.11","violationDescription":"Except as otherwise allowed, a direct connection may not exist between the SEWAGE system and a drain originating from EQUIPMENT in which FOOD, portable EQUIPMENT, or UTENSILS are placed. (P)\r\n","violationType":"Priority","itemDescription":"Drainage system","subItem":"","problemDescription":"Not constructed, designed, installed according to law","subProblem":"","location":"ICE BIN","subLocation":"","corrected":"Yes","daysToCorrect":"10.0","correctedDate":"2019-08-15T00:00:00","correctionDescription":null},{"violationCode":"5-205.11","violationDescription":"(A) A HANDWASHING SINK shall be maintained so that it is accessible at all times for EMPLOYEE use and used for no other purpose. (Pf)\r\n(B)  An automatic handwashing facility shall be used in accordance with manufacturer's instructions. (Pf)\r\n","violationType":"Foundation","itemDescription":"Handwashing sink(s)","subItem":"","problemDescription":"Used for culinary purposes","subProblem":"","location":"HANDSINK(S)","subLocation":"","corrected":"Yes","daysToCorrect":"10.0","correctedDate":"2019-08-15T00:00:00","correctionDescription":null}]},{"inspectionid":"47855","inspectionDate":"2019-05-17T00:00:00","inspectionType":"Plan Review/Pre-Open","inCompliance":"Yes","violationsByInspectionidList":[]}]}],"maxInspectionDate":[{"inspectionDate":"2019-10-31T00:00:00"}]}},"pageContext":{"eid":"51622921"}}