{"data":{"site":{"pathPrefix":"/restaurant-inspections"},"postgres":{"establishment":[{"establishmentid":"51623295","name":"McDonalds #25735","address":"3975 Conner Ave ","zipcode":"48215","owner":"Yusef Alcodray","licenseNumber":"249497","licenseType":"Fixed Establishment","establishmentType":"Food Service Establishment","establishmentStatus":"Open","riskCategory":null,"reviewFrequencyDays":"90.0","coords":"-82.96870,42.38400","geojson":{"id":"51623295","type":"Feature","geometry":{"type":"Point","coordinates":[-82.968697461,42.384003026]},"properties":{"name":"McDonalds #25735","owner":"Yusef Alcodray","address":"3975 Conner Ave ","zipcode":"48215","license_type":"Fixed Establishment","risk_category":null,"license_number":"249497","establishmentid":"51623295","establishment_type":"Food Service Establishment","establishment_status":"Open","review_frequency_days":"90.0","most_recent_license_date":"5/8/2020"}},"nearbyList":[{"establishmentid":"2646","name":"McDonald's #25135","address":"3975 Conner Ave","zipcode":"48215"},{"establishmentid":"3751","name":"Manhattan Fish and Chicken","address":"3800 Conner St","zipcode":"48215"},{"establishmentid":"1731","name":"Capuchin Kitchen","address":"4390 Conner St","zipcode":"48215"},{"establishmentid":"680","name":"Burger King ","address":"12661 Mack Ave","zipcode":"48215"},{"establishmentid":"2766","name":"Wendy's ","address":"4749 Conner St","zipcode":"48215"},{"establishmentid":"5240","name":"Red Sea Food Inc.","address":"12500 E Warren","zipcode":"48215"},{"establishmentid":"51623316","name":"Lonestar Catering","address":"12700 E Warren","zipcode":"48215"},{"establishmentid":"5425","name":"Spud Headz","address":"12700 E Warren","zipcode":"48215"},{"establishmentid":"1104","name":"Maison Fine Food Inc.","address":"13031 Mack Ave","zipcode":"48215"},{"establishmentid":"3893","name":"Northeast Guidance Center","address":"2900 Conner St","zipcode":"48215"}],"inspectionsByEstablishmentidList":[{"inspectionid":"53107","inspectionDate":"2020-10-16T00:00:00","inspectionType":"Complaint","inCompliance":"Yes","violationsByInspectionidList":[{"violationCode":"6-501.18","violationDescription":"PLUMBING FIXTURES such as HANDWASHING SINKS, toilets, and urinals shall be cleaned as often as necessary to keep them clean. \r\n","violationType":"Core","itemDescription":null,"subItem":"","problemDescription":null,"subProblem":"","location":"RESTROOM (MEN'S PUBLIC)","subLocation":"At the Urinal(s)","corrected":"Not required","daysToCorrect":"30","correctedDate":null,"correctionDescription":null}]},{"inspectionid":"52558","inspectionDate":"2020-08-25T00:00:00","inspectionType":"Routine Inspection","inCompliance":"Yes","violationsByInspectionidList":[{"violationCode":"4-602.13","violationDescription":"NonFOOD-CONTACT SURFACES of EQUIPMENT shall be cleaned at a frequency necessary to preclude accumulation of soil residues.\r\n","violationType":"Core","itemDescription":"Nonfood contact surface(s)","subItem":"","problemDescription":"With accumulation of debris","subProblem":"","location":"RESTROOM (MEN'S)","subLocation":"At the Equipment","corrected":"Not required","daysToCorrect":"30","correctedDate":null,"correctionDescription":"Keep clean."},{"violationCode":"5-205.15","violationDescription":"A PLUMBING SYSTEM shall be:\r\n(A) Repaired according to LAW; (P) and\r\n(B) Maintained in good repair.\r\n","violationType":"Core","itemDescription":"Drainage system","subItem":"drain lines","problemDescription":"Not constructed, designed, installed according to law","subProblem":"","location":"KITCHEN","subLocation":"At the Prep sink","corrected":"Not required","daysToCorrect":"10","correctedDate":null,"correctionDescription":null},{"violationCode":"6-501.12","violationDescription":"(A) PHYSICAL FACILITIES shall be cleaned as often as necessary to keep them clean.\r\n(B) Except spill cleanup, cleaning shall be done during periods when the least amount of FOOD is exposed such as after closing. ","violationType":"Core","itemDescription":"Physical facilities/structures","subItem":"","problemDescription":"Cleaned when food items are exposed","subProblem":"","location":"OUTSIDE","subLocation":"Above Dumpster enclosure","corrected":"Not required","daysToCorrect":"30","correctedDate":null,"correctionDescription":"Clean in sanitary manner when no food items are exposed."}]}]}],"maxInspectionDate":[{"inspectionDate":"2020-10-30T00:00:00"}]}},"pageContext":{"eid":"51623295"}}