{"data":{"site":{"pathPrefix":"/restaurant-inspections"},"postgres":{"establishment":[{"establishmentid":"766","name":"Akbar's Coffee Shop","address":"12943 Fenkell Ave","zipcode":"48227","owner":"Catherine Ivory","licenseNumber":"034779","licenseType":"Fixed Establishment","establishmentType":"Food Service Establishment","establishmentStatus":"Open","riskCategory":null,"reviewFrequencyDays":"180","coords":"-83.17231,42.40199","geojson":{"id":"766","type":"Feature","geometry":{"type":"Point","coordinates":[-83.172314316,42.401990912]},"properties":{"name":"Akbar's Coffee Shop","owner":"Catherine Ivory","address":"12943 Fenkell Ave","zipcode":"48227","license_type":"Fixed Establishment","risk_category":null,"license_number":"034779","establishmentid":"766","establishment_type":"Food Service Establishment","establishment_status":"Open","review_frequency_days":"180","most_recent_license_date":"5/17/2017"}},"nearbyList":[{"establishmentid":"1366","name":"Little Caesar's Pizza #64","address":"12712 Fenkell Ave","zipcode":"48227"},{"establishmentid":"4914","name":"Loyola High School Detroit","address":"15325 Pinehurst St","zipcode":"48238"},{"establishmentid":"1214","name":"Church's Fried Chicken #964","address":"13531 Fenkell Ave","zipcode":"48227"},{"establishmentid":"5393","name":"Five Hundred Degrees","address":"15090 Schaefer","zipcode":"48227"},{"establishmentid":"782","name":"Toya's Bar & Grill","address":"14906 Schaefer Hwy","zipcode":"48227"},{"establishmentid":"1406","name":"Christland Missionary Baptist Church","address":"12901 Puritan Ave","zipcode":"48227"},{"establishmentid":"51622893","name":"Lighthouse Fish Market & Grocery","address":"15391 Schaefer Rd","zipcode":"48227"},{"establishmentid":"5175","name":"Gunny Ray's Shrimp & Chicken","address":"15391 Schaefer Hwy","zipcode":"48227"},{"establishmentid":"2405","name":"Mark's A. Eagles #4 Coney Island","address":"12701 Puritan Ave","zipcode":"48227"},{"establishmentid":"5391","name":"Desmond's Elegant Affairs","address":"12924 Puritan Ave","zipcode":"48227"}],"inspectionsByEstablishmentidList":[{"inspectionid":"37082","inspectionDate":"2016-11-09T00:00:00","inspectionType":"Routine Inspection","inCompliance":"No","violationsByInspectionidList":[{"violationCode":"6-301.12","violationDescription":"Each HANDWASHING SINK or group of adjacent HANDWASHING SINKS shall be provided with:\r\n(A) Individual, disposable towels; (Pf)\r\n(B) A continuous towel system that supplies the user with a clean towel;(Pf) or \r\n(C) A heated-air hand drying device.(Pf)\r\n(D) A hand drying device that employs an air-knife system that delivers high velocity pressurized air at ambient temperatures.(Pf)\r\n","violationType":"Foundation","itemDescription":"Sanitary hand drying provisions","subItem":"","problemDescription":"Not provided","subProblem":"At hand sink","location":"HANDSINK(S)","subLocation":"","corrected":"No","daysToCorrect":"10","correctedDate":null,"correctionDescription":"Provide"},{"violationCode":"6-301.11","violationDescription":"Each HANDWASHING SINK or group of 2 adjacent HANDWASHING SINKS shall be provided with a supply of hand cleaning liquid, powder, or bar soap. (Pf)\r\n","violationType":"Foundation","itemDescription":"Soap","subItem":"","problemDescription":"Not provided","subProblem":"","location":"HANDSINK(S)","subLocation":"","corrected":"No","daysToCorrect":"10","correctedDate":null,"correctionDescription":"Provide."},{"violationCode":"3-601.12","violationDescription":"(A) FOOD shall be offered for human consumption in a way that does not mislead or misinform the CONSUMER.   \r\n(B) FOOD or COLOR ADDITIVES, colored overwraps, or lights may not be used to misrepresent the true appearance, color, or quality of a FOOD.\r\n","violationType":"Core","itemDescription":"Misrepresentation of food(s)","subItem":"","problemDescription":"By service that","subProblem":"Misinforms consumer","location":"COOLER","subLocation":"","corrected":"Yes","daysToCorrect":"30","correctedDate":"2016-11-09T00:00:00","correctionDescription":"Discontinue."},{"violationCode":"3-501.13","violationDescription":"POTENTIALLY HAZARDOUS FOOD (TIME/TEMPERATURE CONTROL FOR SAFETY FOOD)  shall be thawed:  Under refrigeration, or under cool running water (<70° F), or as part of cooking process, and total accumulated time above 41° F, for thawed portions, shall not exceed 4 hours.  Any thawing procedure may be used for immediate service for individual consumers order of READY-TO-EAT foods.\r\n","violationType":"Core","itemDescription":"Frozen food(s) for thawing","subItem":"","problemDescription":"Stored in water","subProblem":"That is standing","location":"KITCHEN","subLocation":"","corrected":"Not required","daysToCorrect":"30","correctedDate":null,"correctionDescription":"Use cool, running water with enough flow to remove particles."},{"violationCode":"3-305.11","violationDescription":"FOOD shall be protected from contamination by storing the FOOD:\r\n(1)     In a clean, dry location;\r\n(2)     Where it is not exposed to splash, dust, or other contamination; and\r\n(3)     At least 15 cm (6 inches) above the floor, unless otherwise approved.\r\n","violationType":"Core","itemDescription":"Food item(s) in storage","subItem":"","problemDescription":"Stored on floor or less than 6 inches above floor","subProblem":"","location":"STORAGE AREA (DRY)","subLocation":"","corrected":"Not required","daysToCorrect":"30","correctedDate":null,"correctionDescription":"Store at least 6 inches above the floor."}]}]}],"maxInspectionDate":[{"inspectionDate":"2020-05-29T00:00:00"}]}},"pageContext":{"eid":"766"}}