{"data":{"site":{"pathPrefix":"/restaurant-inspections"},"postgres":{"establishment":[{"establishmentid":"1991","name":"Mama's, Inc.","address":"14620 E Eight Mile Rd","zipcode":"48205","owner":"Violeta Vickie Juncaj","licenseNumber":"078343","licenseType":"Fixed Establishment","establishmentType":"Food Service Establishment","establishmentStatus":"Open","riskCategory":"High","reviewFrequencyDays":"180.0","coords":"-83.19102,42.44535","geojson":{"id":"1991","type":"Feature","geometry":{"type":"Point","coordinates":[-83.1910168369999,42.445345682]},"properties":{"name":"Mama's, Inc.","owner":"Violeta Vickie Juncaj","address":"14620 E Eight Mile Rd","zipcode":"48205","license_type":"Fixed Establishment","risk_category":"High","license_number":"078343","establishmentid":"1991","establishment_type":"Food Service Establishment","establishment_status":"Open","review_frequency_days":"180.0","most_recent_license_date":"4/26/2016"}},"nearbyList":[{"establishmentid":"5286","name":"Rinor LLC / Mama's","address":"14620 E Eight Mile Rd","zipcode":"48205"},{"establishmentid":"4915","name":"The Jamaican Pot","address":"14615 W Eight Mile Rd","zipcode":"48235"},{"establishmentid":"5116","name":"Subway","address":"15000 E Eight Mile Rd","zipcode":"48205"},{"establishmentid":"2776","name":"Nu Wave Fish & Chicken","address":"15030 E Eight Mile Rd","zipcode":"48205"},{"establishmentid":"4286","name":"Jalen Rose Leadership Acadamy","address":"15000 Trojan St","zipcode":"48235"},{"establishmentid":"5157","name":"44 Burrito","address":"14015 W Eight Mile Rd","zipcode":"48235"},{"establishmentid":"5151","name":"Pop'n Smoke BBQ","address":"13849 W Eight Mile Rd","zipcode":"48235"},{"establishmentid":"3199","name":"Detroit Fish & Shrimp III","address":"20030 James Couzens Fwy","zipcode":"48235"},{"establishmentid":"51622621","name":"Da Catch LLC","address":"20449 Schaefer Hwy","zipcode":"48235"},{"establishmentid":"51622944","name":"Crown Burgers","address":"20449 Schaefer Hwy","zipcode":"48212"}],"inspectionsByEstablishmentidList":[{"inspectionid":"49897","inspectionDate":"2019-06-05T00:00:00","inspectionType":"Routine Inspection","inCompliance":"Yes","violationsByInspectionidList":[{"violationCode":"3-501.16","violationDescription":"Except during preparation, cooking, or cooling, or when time is used as the public health control POTENTIALLY HAZARDOUS FOOD (TIME/TEMPERATURE CONTROL FOR SAFETY FOOD) shall be maintained:\r\n(A)  135ºF or above, except that roasts properly cooked and cooled may be held              at a temperature of 130ºF; or (P)\r\n(B)   At 41ºF or less (P)\r\n","violationType":"Priority","itemDescription":"Hot food item(s)","subItem":"","problemDescription":"Stored below 135 degrees F","subProblem":"","location":"HOT HOLDING AREA","subLocation":"","corrected":"Yes","daysToCorrect":"10.0","correctedDate":"2019-06-05T00:00:00","correctionDescription":null},{"violationCode":"3-501.15","violationDescription":"(A) Cooling shall be accomplished in accordance with the time and temperature criteria specified under § 3-501.14 by using one or more of the following methods based on the type of FOOD being cooled:  \r\n   (1) Placing the FOOD in shallow pans; (Pf)\r\n   (2) Separating the FOOD into smaller or thinner portions; (Pf)\r\n   (3) Using rapid cooling EQUIPMENT; (Pf)\r\n   (4) Stirring the FOOD in a container placed in an ice water bath; (Pf)\r\n   (5) Using containers that facilitate heat transfer; (Pf)\r\n   (6) Adding ice as an ingredient; (Pf) or\r\n   (7) Other effective methods. (Pf)  \r\n(B) When placed in cooling or cold holding EQUIPMENT, FOOD containers in which FOOD is being cooled shall be:  \r\n   (1) Arranged in the EQUIPMENT to provide maximum heat transfer through the       container walls; and\r\n   (2) Loosely covered, or uncovered if protected from overhead contamination as          specified under Subparagraph 3-305.11(A)(2), during the cooling period to facilitate    heat transfer from the surface of the FOOD.","violationType":"Foundation","itemDescription":"Food item(s) cooled","subItem":"","problemDescription":"Improperly","subProblem":"Covered","location":"WALK-IN COOLER","subLocation":"","corrected":"Yes","daysToCorrect":"10.0","correctedDate":"2019-06-05T00:00:00","correctionDescription":null},{"violationCode":"4-602.13","violationDescription":"NonFOOD-CONTACT SURFACES of EQUIPMENT shall be cleaned at a frequency necessary to preclude accumulation of soil residues.\r\n","violationType":"Core","itemDescription":"Nonfood contact surface(s)","subItem":"","problemDescription":"With accumulation of debris","subProblem":"","location":"EQUIPMENT","subLocation":"","corrected":"Not required","daysToCorrect":"30.0","correctedDate":null,"correctionDescription":null}]}]}],"maxInspectionDate":[{"inspectionDate":"2019-10-31T00:00:00"}]}},"pageContext":{"eid":"1991"}}