{"data":{"site":{"pathPrefix":"/restaurant-inspections"},"postgres":{"establishment":[{"establishmentid":"51622835","name":"Burger King #1191","address":"1425 W Lafayette Blvd","zipcode":"48216","owner":"Paul Flanders","licenseNumber":"230533","licenseType":"Fixed Establishment","establishmentType":"Food Service Establishment","establishmentStatus":"Open","riskCategory":null,"reviewFrequencyDays":"365","coords":"-83.06147,42.32548","geojson":{"id":"51622835","type":"Feature","geometry":{"type":"Point","coordinates":[-83.061466517,42.325482084]},"properties":{"name":"Burger King #1191","owner":"Paul Flanders","address":"1425 W Lafayette Blvd","zipcode":"48216","license_type":"Fixed Establishment","risk_category":null,"license_number":"230533","establishmentid":"51622835","establishment_type":"Food Service Establishment","establishment_status":"Open","review_frequency_days":"365","most_recent_license_date":"4/26/2019"}},"nearbyList":[{"establishmentid":"1134","name":"Burger King #4724","address":"1425 W Lafayette","zipcode":"48216"},{"establishmentid":"51622455","name":"Sheiba Express","address":"1366 W Fort St","zipcode":"48226"},{"establishmentid":"2406","name":"Haz Subs & Salads","address":"1360 W Fort St","zipcode":"48226"},{"establishmentid":"1507","name":"Coney King Coney Island","address":"1350 W Fort St","zipcode":"48226"},{"establishmentid":"5124","name":"Mercy Education Project","address":"1450 Howard St","zipcode":"48216"},{"establishmentid":"4013","name":"Le Petit Zinc","address":"1055 Trumbull","zipcode":"48216"},{"establishmentid":"1082","name":"Salvation Army","address":"1627 W Fort St","zipcode":"48216"},{"establishmentid":"1349","name":"Mudgie's","address":"1300 Porter St","zipcode":"48226"},{"establishmentid":"4939","name":"Batch Brewing Company","address":"1408 Porter St","zipcode":"48216"},{"establishmentid":"51622514","name":"Burroughs","address":"1331 Trumbull Ave","zipcode":"48216"}],"inspectionsByEstablishmentidList":[{"inspectionid":"49419","inspectionDate":"2019-10-10T00:00:00","inspectionType":"Routine Inspection","inCompliance":"Yes","violationsByInspectionidList":[{"violationCode":"7-204.11","violationDescription":"Chemical SANITIZERS and other chemical antimicrobials applied to FOOD-CONTACT SURFACES shall meet the requirements specified in this code. (P)\r\n","violationType":"Priority","itemDescription":"Sanitizer(s)","subItem":"","problemDescription":"Do not comply with law","subProblem":"","location":"3 COMPARTMENT SINK AREA","subLocation":"","corrected":"Yes","daysToCorrect":"10","correctedDate":"2019-10-10T00:00:00","correctionDescription":null},{"violationCode":"MFL289.4119","violationDescription":"Sec. 4119. (1) Except as otherwise provided in subsection (2), a person licensed as a food establishment under this chapter shall keep a copy of the current license or temporary license furnished by the department posted and exposed in a conspicuous place for public inspection. A conspicuous place is the principal place where food business is transacted.  (2) In the case of vending machines, the name and address and telephone number of the current vending machine location operator shall be conspicuously displayed on each vending machine.","violationType":"Core","itemDescription":"Food Service License","subItem":"","problemDescription":"Not displayed","subProblem":"","location":"FACILITY","subLocation":"","corrected":"Not required","daysToCorrect":"30","correctedDate":null,"correctionDescription":null},{"violationCode":"4-602.13","violationDescription":"NonFOOD-CONTACT SURFACES of EQUIPMENT shall be cleaned at a frequency necessary to preclude accumulation of soil residues.\r\n","violationType":"Core","itemDescription":"Nonfood contact surface(s)","subItem":"","problemDescription":"Soiled","subProblem":"","location":"DINING AREA","subLocation":"","corrected":"Not required","daysToCorrect":"30","correctedDate":null,"correctionDescription":null}]},{"inspectionid":"43803","inspectionDate":"2018-10-17T00:00:00","inspectionType":"Routine Inspection","inCompliance":"Yes","violationsByInspectionidList":[{"violationCode":"6-403.11","violationDescription":"(A) Areas designated for EMPLOYEES to eat, drink, and use tobacco shall be located so that FOOD, EQUIPMENT, LINENS, and SINGLE-SERVICE and SINGLE-USE ARTICLES are protected from contamination.\r\n(B) Lockers or other suitable facilities shall be located in a designated room or area where contamination of FOOD, EQUIPMENT, UTENSILS, LINENS, and SINGLE-SERVICE and SINGLE-USE ARTICLES can not occur.\r\n","violationType":"Core","itemDescription":"Locker(s)/employee storage area(s)","subItem":"","problemDescription":"Contaminates","subProblem":"Single use","location":"DRY STORAGE AREA","subLocation":"","corrected":"Yes","daysToCorrect":"30","correctedDate":"2018-10-17T00:00:00","correctionDescription":"Relocate to a designated area that does not contaminate items or surfaces."}]}]}],"maxInspectionDate":[{"inspectionDate":"2020-05-29T00:00:00"}]}},"pageContext":{"eid":"51622835"}}