{"data":{"site":{"pathPrefix":"/restaurant-inspections"},"postgres":{"establishment":[{"establishmentid":"4655","name":"Leland House","address":"400 Bagley Ave","zipcode":"48226","owner":"Leland House Limited Partnersh","licenseNumber":"208215","licenseType":"Fixed Establishment","establishmentType":"Food Service Establishment","establishmentStatus":"Open","riskCategory":"Low","reviewFrequencyDays":"365.0","coords":"-83.05445,42.33367","geojson":{"id":"4655","type":"Feature","geometry":{"type":"Point","coordinates":[-83.054450937,42.3336701740001]},"properties":{"name":"Leland House","owner":"Leland House Limited Partnersh","address":"400 Bagley Ave","zipcode":"48226","license_type":"Fixed Establishment","risk_category":"Low","license_number":"208215","establishmentid":"4655","establishment_type":"Food Service Establishment","establishment_status":"Open","review_frequency_days":"365.0","most_recent_license_date":"4/27/2018"}},"nearbyList":[{"establishmentid":"652","name":"Nick's Gaslight Inc.","address":"441 W Grand River ","zipcode":"48226"},{"establishmentid":"4916","name":"Republic Tavern","address":"1942 Grand River","zipcode":"48226"},{"establishmentid":"5401","name":"Express Dogs","address":"220 Bagley Ste 244","zipcode":"48209"},{"establishmentid":"5133","name":"Coaches Corner Bar & Grill","address":"210 Bagley Ave","zipcode":"48226"},{"establishmentid":"5167","name":"Savannahblue","address":"1431 Times Square","zipcode":"48226"},{"establishmentid":"3617","name":"DTE Energy Town Square C-Store313","address":"2000 Second Ave","zipcode":"48226"},{"establishmentid":"3966","name":"Bookies Bar and Grille","address":"2208 Cass Ave","zipcode":"48226"},{"establishmentid":"5002","name":"St. Aloysius","address":"1232 Washington Blvd","zipcode":"48226"},{"establishmentid":"3584","name":"Cliff Bells","address":"2030 Park Ave","zipcode":"48201"},{"establishmentid":"3996","name":"Park Bar","address":"2040 Park Ave","zipcode":"48201"},{"establishmentid":"5207","name":"Rusted Crow Detroit","address":"78 W Adams St","zipcode":"48226"},{"establishmentid":"3804","name":"Roast Detroit LLC","address":"1128 Washington Blvd","zipcode":"48226"},{"establishmentid":"51622572","name":"Westin Book Cadillac Hotel Starbucks","address":"1114 Washington Blvd","zipcode":"48226"},{"establishmentid":"3905","name":"WBC Coffee Bar","address":"1114 Washington Boulevard","zipcode":"48226"},{"establishmentid":"3903","name":"The Westin Book Cadillac Detroit","address":"1114 Washington Boulevard","zipcode":"48226"},{"establishmentid":"5374","name":"La Pecora Nera","address":"1514 Washington Blvd Ste. 104","zipcode":"48226"},{"establishmentid":"4076","name":"Subway","address":"28 W Adams","zipcode":"48226"},{"establishmentid":"3172","name":"Centaur Bar","address":"2233 Park Avenue","zipcode":"48201-34"},{"establishmentid":"4340","name":"Hot Taco","address":"2233 Park Ave","zipcode":"48201"},{"establishmentid":"4089","name":"Cafe D'Mongo's Speakeasy","address":"1439 Griswold St","zipcode":"48226"}],"inspectionsByEstablishmentidList":[{"inspectionid":"44846","inspectionDate":"2019-01-11T00:00:00","inspectionType":"Routine Inspection","inCompliance":"Yes","violationsByInspectionidList":[{"violationCode":"6-302.11","violationDescription":"A supply of toilet tissue shall be available at each toilet.(Pf)\r\n","violationType":"Foundation","itemDescription":"Toilet paper","subItem":"at toilet in restroom","problemDescription":"Not provided","subProblem":"","location":"RESTROOM(S)","subLocation":"","corrected":"Yes","daysToCorrect":"10.0","correctedDate":"2019-01-11T00:00:00","correctionDescription":"Provide."},{"violationCode":"6-301.12","violationDescription":"Each HANDWASHING SINK or group of adjacent HANDWASHING SINKS shall be provided with:\r\n(A) Individual, disposable towels; (Pf)\r\n(B) A continuous towel system that supplies the user with a clean towel;(Pf) or \r\n(C) A heated-air hand drying device.(Pf)\r\n(D) A hand drying device that employs an air-knife system that delivers high velocity pressurized air at ambient temperatures.(Pf)\r\n","violationType":"Foundation","itemDescription":"Sanitary hand drying provisions","subItem":"disposable, paper towels","problemDescription":"Not provided","subProblem":"At hand sink","location":"RESTROOM (WOMEN'S)","subLocation":"","corrected":"Yes","daysToCorrect":"10.0","correctedDate":"2019-01-11T00:00:00","correctionDescription":"Provide"},{"violationCode":"7-102.11","violationDescription":"Working containers used for storing POISONOUS OR TOXIC MATERIALS such as cleaners and SANITIZERS taken from bulk supplies shall be clearly and individually identified with the common name of the material. (Pf)\r\n","violationType":"Foundation","itemDescription":"Working containers-toxics","subItem":"","problemDescription":"Not labeled as to content","subProblem":"","location":"BAR","subLocation":"","corrected":"Yes","daysToCorrect":"10.0","correctedDate":"2019-01-11T00:00:00","correctionDescription":"Label containers with common name."}]},{"inspectionid":"40986","inspectionDate":"2017-12-05T00:00:00","inspectionType":"Routine Inspection","inCompliance":"Yes","violationsByInspectionidList":[{"violationCode":"6-501.12","violationDescription":"(A) PHYSICAL FACILITIES shall be cleaned as often as necessary to keep them clean.\r\n(B) Except spill cleanup, cleaning shall be done during periods when the least amount of FOOD is exposed such as after closing. ","violationType":"Core","itemDescription":"Physical facilities/structures","subItem":"floors","problemDescription":"With accumulation of debris","subProblem":"","location":"BAR (MAIN)","subLocation":"","corrected":"Not required","daysToCorrect":"30.0","correctedDate":null,"correctionDescription":"Keep clean."},{"violationCode":"6-501.111","violationDescription":"The presence of insects, rodents, and other pests shall be controlled to minimize their presence on the PREMISES.  by:\r\n(A) Routinely inspecting incoming shipments of FOOD and supplies; \r\n(B) Routinely inspecting the PREMISES for evidence of pests;\r\n(C) Using methods, if pests are found, such as trapping devices or other means of pest control as specified.(Pf) \r\n(D) Eliminating harborage conditions. \r\n","violationType":"Core","itemDescription":"Harborage conditions","subItem":"unused equipment","problemDescription":"Not eliminated","subProblem":"","location":"BAR (MAIN)","subLocation":"","corrected":"Not required","daysToCorrect":"10.0","correctedDate":null,"correctionDescription":"Remove unnecessary items."},{"violationCode":"4-903.11","violationDescription":"Cleaned EQUIPMENT and UTENSILS, laundered LINENS, and SINGLE-SERVICE and SINGLE-USE ARTICLES shall be stored in an approved manner and location.\r\n","violationType":"Core","itemDescription":"Clean equipment/utensil(s)","subItem":"","problemDescription":"Stored on floor or less than 6 inches above floor","subProblem":"","location":"BAR (MAIN)","subLocation":"","corrected":"Not required","daysToCorrect":"30.0","correctedDate":null,"correctionDescription":"Store at least 6 inches above the floor."},{"violationCode":"6-501.18","violationDescription":"PLUMBING FIXTURES such as HANDWASHING SINKS, toilets, and urinals shall be cleaned as often as necessary to keep them clean. \r\n","violationType":"Core","itemDescription":"Handwashing facility","subItem":"handwash","problemDescription":"Not clean","subProblem":"","location":"HANDSINK(S)","subLocation":"","corrected":"Not required","daysToCorrect":"30.0","correctedDate":null,"correctionDescription":"Clean"}]}]}]}},"pageContext":{"eid":"4655"}}