{"componentChunkName":"component---src-templates-establishment-page-js","path":"/establishment/51623740","result":{"data":{"site":{"pathPrefix":"/restaurant-inspections"},"postgres":{"establishment":[{"establishmentid":"51623740","name":"Belly It LLC ","address":"16873  Muirland St","zipcode":"48221","owner":"Anthony Redman ","licenseNumber":"PR22073D","licenseType":"Special Transitory Food Unit","establishmentType":"LHD - Special Transitory Food","establishmentStatus":"Plan Review","riskCategory":null,"reviewFrequencyDays":null,"coords":"-83.13425,42.41592","geojson":{"id":"51623740","type":"Feature","geometry":{"type":"Point","coordinates":[-83.134247671,42.415918138]},"properties":{"name":"Belly It LLC ","owner":"Anthony Redman ","address":"16873  Muirland St","zipcode":"48221","license_type":"Special Transitory Food Unit","risk_category":null,"license_number":"PR22073D","establishmentid":"51623740","establishment_type":"LHD - Special Transitory Food","establishment_status":"Plan Review","review_frequency_days":null,"most_recent_license_date":null}},"nearbyList":[{"establishmentid":"51622474","name":"Stolen Recipes","address":"3143 McNichols W.","zipcode":"48221"},{"establishmentid":"4626","name":"U of Detroit-Mercy/M-10","address":"4001 McNichols Rd. W.","zipcode":"48221"},{"establishmentid":"4438","name":"U of Detroit Mercy-Tommy's Smoothies","address":"4001 McNichols Rd. W.","zipcode":"48221"},{"establishmentid":"4413","name":"U of Detroit Mercy-Subway","address":"4001 McNichols Rd. W.","zipcode":"48221"},{"establishmentid":"4143","name":"U of Detroit Mercy-Library Cafe","address":"4001 McNichols Rd. W.","zipcode":"48221"},{"establishmentid":"4625","name":"U of Detroit-Mercy/Starbucks","address":"4001 McNichols Rd. W.","zipcode":"48221"},{"establishmentid":"4589","name":"Total Vending","address":"4001 West McNichols","zipcode":"48221"},{"establishmentid":"1577","name":"U of Detroit Mercy-Student Cafe/Poblanos","address":"4001 McNichols Rd. W.","zipcode":"48221"},{"establishmentid":"3067","name":"Variety Vending","address":"4001 McNichols W.","zipcode":"48221"},{"establishmentid":"51622664","name":"U of Detroit-Mercy/Poblano's Loft","address":"4001 McNichols W.","zipcode":"48221"}],"inspectionsByEstablishmentidList":[{"inspectionid":"59714","inspectionDate":"2022-07-05T00:00:00","inspectionType":"Preopening/New","inCompliance":"No","violationsByInspectionidList":[{"violationCode":"4-601.11","violationDescription":"(A) EQUIPMENT FOOD-CONTACT SURFACES and UTENSILS shall be clean to sight and touch. (Pf)\n(B) The FOOD-CONTACT SURFACES of cooking EQUIPMENT and pans shall be kept free of encrusted grease deposits and other soil accumulations. \n(C) NonFOOD-CONTACT SURFACES of EQUIPMENT shall be kept free of an accumulation of dust, dirt, FOOD residue, and other debris. \n","violationType":"Core","itemDescription":"Cooking equipment","subItem":null,"problemDescription":"Greasy","subProblem":null,"location":"FOOD TRUCK","subLocation":null,"corrected":"False","daysToCorrect":"10","correctedDate":null,"correctionDescription":null},{"violationCode":"4-101.19","violationDescription":"NonFOOD-CONTACT SURFACES of EQUIPMENT that are exposed to splash, spillage, or other FOOD soiling or that require frequent cleaning shall be constructed of a CORROSION-RESISTANT, nonabsorbent, and SMOOTH material.\n","violationType":"Core","itemDescription":"Equipment","subItem":null,"problemDescription":"Inadequate","subProblem":null,"location":"FOOD TRUCK","subLocation":"At the top of Grill and deep fryer","corrected":"False","daysToCorrect":"30","correctedDate":null,"correctionDescription":null},{"violationCode":"4-101.19","violationDescription":"NonFOOD-CONTACT SURFACES of EQUIPMENT that are exposed to splash, spillage, or other FOOD soiling or that require frequent cleaning shall be constructed of a CORROSION-RESISTANT, nonabsorbent, and SMOOTH material.\n","violationType":"Core","itemDescription":null,"subItem":null,"problemDescription":null,"subProblem":null,"location":"FOOD TRUCK","subLocation":null,"corrected":"False","daysToCorrect":"30","correctedDate":null,"correctionDescription":null}]}]}],"maxInspectionDate":[{"inspectionDate":"2022-08-31T00:00:00"}]}},"pageContext":{"eid":"51623740"}},"staticQueryHashes":["3649515864","63159454"]}