{"componentChunkName":"component---src-templates-establishment-page-js","path":"/establishment/51623040","result":{"data":{"site":{"pathPrefix":"/restaurant-inspections"},"postgres":{"establishment":[{"establishmentid":"51623040","name":"Mister Dips","address":"1400 Woodward Avenue","zipcode":"48226","owner":"1400 Webward LLC","licenseNumber":"246038","licenseType":"Fixed Establishment","establishmentType":"Food Service Establishment","establishmentStatus":"New License ","riskCategory":"High","reviewFrequencyDays":"150","coords":"-83.04845,42.33439","geojson":{"id":"51623040","type":"Feature","geometry":{"type":"Point","coordinates":[-83.048446799,42.334393261]},"properties":{"name":"Mister Dips","owner":"1400 Webward LLC","address":"1400 Woodward Avenue","zipcode":"48226","license_type":"Fixed Establishment","risk_category":"High","license_number":"246038","establishmentid":"51623040","establishment_type":"Food Service Establishment","establishment_status":"New License ","review_frequency_days":"150","most_recent_license_date":null}},"nearbyList":[{"establishmentid":"51622703","name":"Shinola Hotel-Birdie Room","address":"1400 Woodward","zipcode":"48226"},{"establishmentid":"51622882","name":"Penny Red's","address":"1400 Woodward","zipcode":"48226"},{"establishmentid":"51622787","name":"The Brakeman","address":"1400 Woodward","zipcode":"48226"},{"establishmentid":"51622886","name":"Shinola Hotel- Evening Bar","address":"1400 Woodward","zipcode":"48226"},{"establishmentid":"51622881","name":"Shinola Hotel- San Morello","address":"1400 Woodward","zipcode":"48226"},{"establishmentid":"51622701","name":"Shinola Hotel- Banquet Kitchen","address":"1400 Woodward","zipcode":"48226"},{"establishmentid":"51622702","name":"Shinola Hotel- WW Basement Kitchen","address":"1400 Woodward","zipcode":"48226"},{"establishmentid":"51622901","name":"Madcap Coffee Company","address":"1413 Farmer","zipcode":"48226"},{"establishmentid":"3734","name":"Good Girls Go To Paris Crepes","address":"2 John R.","zipcode":"48226"},{"establishmentid":"2166","name":"Motor City Pit Stop Cafe","address":"2 John R","zipcode":"48226"}],"inspectionsByEstablishmentidList":[{"inspectionid":"59741","inspectionDate":"2022-07-07T00:00:00","inspectionType":"Routine Inspection","inCompliance":"Yes","violationsByInspectionidList":[{"violationCode":"4-501.114","violationDescription":"A chemical SANITIZER used in a SANITIZING solution for a manual or\nmechanical operation shall meet these limits or as otherwise approved: (P)\n\tChlorine        ppm           pH<10             pH<8\n\t\t      25              120 F              120 F\n\t\t      50              100 F              75 F\n\t\t     100              55 F               55 F\n                 Iodine           a concentration of between 12.5 and 25 ppm and minimum temp of 75 F and pH of 5 or less or meets manufacturer's specifications. (P)\n\n                Quats            minimum temperature of 75 F, hardness of 500 ppm or less and meet manufacturers use directions. (P)\n","violationType":"Priority","itemDescription":"Quaternary ammonia solution","subItem":null,"problemDescription":"Below 100 ppm","subProblem":null,"location":"DISHWASHING AREA","subLocation":"At the Three compartment sink","corrected":"True","daysToCorrect":"10","correctedDate":"2022-07-07T00:00:00","correctionDescription":null}]},{"inspectionid":"57150","inspectionDate":"2022-02-04T00:00:00","inspectionType":"Routine Inspection","inCompliance":"Yes","violationsByInspectionidList":[{"violationCode":"6-301.11","violationDescription":"Each HANDWASHING SINK or group of 2 adjacent HANDWASHING SINKS shall be provided with a supply of hand cleaning liquid, powder, or bar soap. (Pf)\n","violationType":"Foundation","itemDescription":"Soap","subItem":null,"problemDescription":"Not provided","subProblem":null,"location":"COOK LINE AREA","subLocation":"At the Handsink","corrected":"True","daysToCorrect":"10","correctedDate":"2022-02-04T00:00:00","correctionDescription":null},{"violationCode":"6-301.12","violationDescription":"Each HANDWASHING SINK or group of adjacent HANDWASHING SINKS shall be provided with:\n(A) Individual, disposable towels; (Pf)\n(B) A continuous towel system that supplies the user with a clean towel;(Pf) or \n(C) A heated-air hand drying device.(Pf)\n(D) A hand drying device that employs an air-knife system that delivers high velocity pressurized air at ambient temperatures.(Pf)\n","violationType":"Foundation","itemDescription":null,"subItem":null,"problemDescription":null,"subProblem":null,"location":"COOK LINE AREA","subLocation":null,"corrected":"True","daysToCorrect":"10","correctedDate":"2022-02-04T00:00:00","correctionDescription":null},{"violationCode":"6-501.12","violationDescription":"(A) PHYSICAL FACILITIES shall be cleaned as often as necessary to keep them clean.\n(B) Except spill cleanup, cleaning shall be done during periods when the least amount of FOOD is exposed such as after closing. ","violationType":"Core","itemDescription":"Physical facilities/structures","subItem":null,"problemDescription":"Soiled","subProblem":null,"location":"FLOOR DRAIN(S)","subLocation":null,"corrected":"False","daysToCorrect":"30","correctedDate":null,"correctionDescription":null}]},{"inspectionid":"54853","inspectionDate":"2021-05-14T00:00:00","inspectionType":"Closed - Temporary","inCompliance":"Yes","violationsByInspectionidList":[]},{"inspectionid":"49800","inspectionDate":"2019-11-12T00:00:00","inspectionType":"Preopening/New","inCompliance":"Yes","violationsByInspectionidList":[]}]}],"maxInspectionDate":[{"inspectionDate":"2022-07-25T00:00:00"}]}},"pageContext":{"eid":"51623040"}},"staticQueryHashes":["3649515864","63159454"]}