{"data":{"site":{"pathPrefix":"/restaurant-inspections"},"postgres":{"establishment":[{"establishmentid":"51622930","name":"Green Room Salads dba Lunchbox Deli","address":"500 Griswold St Ste 220","zipcode":"48226","owner":"Steve Zuccaro","licenseNumber":"238157","licenseType":"Fixed Establishment","establishmentType":"Food Service Establishment","establishmentStatus":"Open","riskCategory":"High","reviewFrequencyDays":"180.0","coords":"-83.04611,42.32958","geojson":{"id":"51622930","type":"Feature","geometry":{"type":"Point","coordinates":[-83.0461123439999,42.329582558]},"properties":{"name":"Green Room Salads dba Lunchbox Deli","owner":"Steve Zuccaro","address":"500 Griswold St Ste 220","zipcode":"48226","license_type":"Fixed Establishment","risk_category":"High","license_number":"238157","establishmentid":"51622930","establishment_type":"Food Service Establishment","establishment_status":"Open","review_frequency_days":"180.0","most_recent_license_date":"7/5/2019"}},"nearbyList":[{"establishmentid":"51622894","name":"Crazy Gringo Express","address":"500 Griswold","zipcode":"48226"},{"establishmentid":"51622988","name":"Crazy Gringo Express","address":"500 Griswold St","zipcode":"48226"},{"establishmentid":"5418","name":"The Guardian Cafe","address":"500 Griswold St","zipcode":"48226"},{"establishmentid":"3202","name":"Rowland Cafe","address":"500 Griswold St","zipcode":"48226"},{"establishmentid":"4946","name":"Dominos Pizza","address":"535 Griswold St","zipcode":"48226"},{"establishmentid":"3583","name":"Frank's Deli in the Buhl","address":"535 Griswold St #114","zipcode":"48226"},{"establishmentid":"4393","name":"The Buhl Bar","address":"535 Griswold Ste 103","zipcode":"48226"},{"establishmentid":"1322","name":"Grand Trunk Pub","address":"608-612 Woodward Ave","zipcode":"48226"},{"establishmentid":"1687","name":"The Green Room","address":"120 W Congress","zipcode":"48226"},{"establishmentid":"4365","name":"Eurest Cafe' Qzine","address":"611 Woodward Ave","zipcode":"48226"}],"inspectionsByEstablishmentidList":[{"inspectionid":"48343","inspectionDate":"2019-07-12T00:00:00","inspectionType":"Plan Review/Pre-Open","inCompliance":"Yes","violationsByInspectionidList":[{"violationCode":"4-402.11","violationDescription":"EQUIPMENT that is fixed because it is not EASILY MOVABLE shall be installed so that it is spaced to allow access for cleaning along the sides, behind, and above the EQUIPMENT or sealed as required,  COUNTER-MOUNTED EQUIPMENT that is not EASILY MOVABLE shall be installed to allow cleaning of the EQUIPMENT and areas underneath and around the EQUIPMENT .\r\n","violationType":"Core","itemDescription":"Fixed equipment","subItem":"","problemDescription":"Not sealed to adjoining","subProblem":"Wall(s)","location":"THREE COMPARTMENT SINK","subLocation":"","corrected":"Not required","daysToCorrect":"30.0","correctedDate":null,"correctionDescription":null},{"violationCode":"6-201.11","violationDescription":"Except otherwise approved, and except for antislip floor coverings or applications may be used for safety reasons, floors, floor coverings, walls, wall coverings, and ceilings shall be designed, constructed, and installed so they are SMOOTH and EASILY CLEANABLE.\r\n","violationType":"Core","itemDescription":"wall(s)","subItem":"wall covering(s)","problemDescription":"Not constructed, designed, installed to be","subProblem":"Smooth","location":"WALK-IN COOLER","subLocation":"","corrected":"Not required","daysToCorrect":"30.0","correctedDate":null,"correctionDescription":null}]}]}],"maxInspectionDate":[{"inspectionDate":"2019-10-31T00:00:00"}]}},"pageContext":{"eid":"51622930"}}