{"data":{"postgres":{"establishment":[{"establishmentid":"51622535","name":"Little Caesars Arena- Press Dining","address":"2645 Woodward Avenue","zipcode":"48201","owner":"Detroit District Sportservice","licenseNumber":"220983","licenseType":"Fixed Establishment","establishmentType":"Food Service Establishment","establishmentStatus":"Open","riskCategory":"High","reviewFrequencyDays":"365.0","coords":"-83.05481,42.34195","geojson":{"id":"51622535","type":"Feature","geometry":{"type":"Point","coordinates":[-83.054812494,42.341946353]},"properties":{"name":"Little Caesars Arena- Press Dining","owner":"Detroit District Sportservice","address":"2645 Woodward Avenue","zipcode":"48201","license_type":"Fixed Establishment","risk_category":"High","license_number":"220983","establishmentid":"51622535","establishment_type":"Food Service Establishment","establishment_status":"Open","review_frequency_days":"365.0","most_recent_license_date":"4/25/2018"}},"nearbyList":[{"establishmentid":"51622521","name":"Mike's Pizza Bar","address":"2643 Park Avenue Unit B","zipcode":"4821"},{"establishmentid":"51622522","name":"Sports & Social","address":"2643 Park Avenue Unit C","zipcode":"4821"},{"establishmentid":"5224","name":"Pho Lucky","address":"3111 Woodward Ave","zipcode":"48201"},{"establishmentid":"3173","name":"Harry's Detroit","address":"2482 Clifford","zipcode":"48201"},{"establishmentid":"51622670","name":"Second Best Bar","address":"42 E Watson","zipcode":"48207"},{"establishmentid":"5154","name":"Grey Ghost Detroit","address":"47 E Watson St","zipcode":"48201"},{"establishmentid":"5383","name":"New Order Coffee Roasters","address":"3100 Woodward Ave","zipcode":"48201"},{"establishmentid":"51622588","name":"JJA Detroit LLC / DBA BakersField","address":"3100 Woodward Ave ","zipcode":"48201-34"},{"establishmentid":"692","name":"Temple Bar","address":"2906 Cass","zipcode":"48201"},{"establishmentid":"1586","name":"Hockey Town Cafe","address":"2301 Woodward Ave","zipcode":"48201"},{"establishmentid":"1701","name":"Town Pump Tavern","address":"100 Montcalm W","zipcode":"48201"},{"establishmentid":"51622555","name":"Empire","address":"3148 Woodward Ave","zipcode":"48201"},{"establishmentid":"377","name":"Fox Theatre","address":"2211 Woodward Ave","zipcode":"48201"},{"establishmentid":"4889","name":"Top China One","address":"3157 Woodward Ave","zipcode":"48201"},{"establishmentid":"4340","name":"Hot Taco","address":"2233 Park Ave","zipcode":"48201"},{"establishmentid":"3172","name":"Centaur Bar","address":"2233 Park Avenue","zipcode":"48201-34"},{"establishmentid":"51622556","name":"For The Love of Sugar","address":"100 Erskine St","zipcode":"48201"},{"establishmentid":"1405","name":"Mariner's Inn","address":"445 Ledyard","zipcode":"48201"},{"establishmentid":"806","name":"King David Grand Lodge","address":"114 Erskine St","zipcode":"48201"},{"establishmentid":"739","name":"Coalition on Temporary Shelter","address":"26 Peterboro St","zipcode":"48201"}],"inspectionsByEstablishmentidList":[{"inspectionid":"44340","inspectionDate":"2018-11-28T00:00:00","inspectionType":"Routine Inspection","inCompliance":"No","violationsByInspectionidList":[{"violationCode":"7-204.11","violationDescription":"Chemical SANITIZERS and other chemical antimicrobials applied to FOOD-CONTACT SURFACES shall meet the requirements specified in this code. (P)\r\n","violationType":"Priority","itemDescription":"Sanitizer(s)","subItem":"","problemDescription":"Do not comply with law","subProblem":"","location":"SANITIZER BUCKETS","subLocation":"","corrected":"Yes","daysToCorrect":"10.0","correctedDate":"2018-11-28T00:00:00","correctionDescription":"Remove and replace to be in compliance with law."},{"violationCode":"5-205.11","violationDescription":"(A) A HANDWASHING SINK shall be maintained so that it is accessible at all times for EMPLOYEE use and used for no other purpose. (Pf)\r\n(B)  An automatic handwashing facility shall be used in accordance with manufacturer's instructions. (Pf)\r\n","violationType":"Foundation","itemDescription":"Handwashing sink(s)","subItem":"","problemDescription":"Not easily accessible","subProblem":"Items stored In","location":"BACK AREA","subLocation":"","corrected":"Yes","daysToCorrect":"10.0","correctedDate":"2018-11-28T00:00:00","correctionDescription":"Remove items from handsink.  Do not store items at handsink."},{"violationCode":"6-301.11","violationDescription":"Each HANDWASHING SINK or group of 2 adjacent HANDWASHING SINKS shall be provided with a supply of hand cleaning liquid, powder, or bar soap. (Pf)\r\n","violationType":"Foundation","itemDescription":"Soap","subItem":"at handsink front","problemDescription":"Not provided","subProblem":"At hand sink","location":"HANDSINK(S)","subLocation":"","corrected":"No","daysToCorrect":"10.0","correctedDate":null,"correctionDescription":"Provide"},{"violationCode":"4-302.14","violationDescription":"A test kit or other device that accurately measures the concentration in mg/L of SANITIZING solutions shall be provided. (Pf)\r\n","violationType":"Foundation","itemDescription":"Sanitizer test kit","subItem":"quaternary ammonia","problemDescription":"Not provided","subProblem":"","location":"FACILITY","subLocation":"","corrected":"No","daysToCorrect":"10.0","correctedDate":null,"correctionDescription":"Provide."},{"violationCode":"6-301.12","violationDescription":"Each HANDWASHING SINK or group of adjacent HANDWASHING SINKS shall be provided with:\r\n(A) Individual, disposable towels; (Pf)\r\n(B) A continuous towel system that supplies the user with a clean towel;(Pf) or \r\n(C) A heated-air hand drying device.(Pf)\r\n(D) A hand drying device that employs an air-knife system that delivers high velocity pressurized air at ambient temperatures.(Pf)\r\n","violationType":"Foundation","itemDescription":"Sanitary hand drying provisions","subItem":"disposable, paper towels","problemDescription":"Not provided","subProblem":"At hand sink","location":"BACK AREA","subLocation":"","corrected":"No","daysToCorrect":"10.0","correctedDate":null,"correctionDescription":"Provide"},{"violationCode":"3-501.15","violationDescription":"(A) Cooling shall be accomplished in accordance with the time and temperature criteria specified under ยง 3-501.14 by using one or more of the following methods based on the type of FOOD being cooled:  \r\n   (1) Placing the FOOD in shallow pans; (Pf)\r\n   (2) Separating the FOOD into smaller or thinner portions; (Pf)\r\n   (3) Using rapid cooling EQUIPMENT; (Pf)\r\n   (4) Stirring the FOOD in a container placed in an ice water bath; (Pf)\r\n   (5) Using containers that facilitate heat transfer; (Pf)\r\n   (6) Adding ice as an ingredient; (Pf) or\r\n   (7) Other effective methods. (Pf)  \r\n(B) When placed in cooling or cold holding EQUIPMENT, FOOD containers in which FOOD is being cooled shall be:  \r\n   (1) Arranged in the EQUIPMENT to provide maximum heat transfer through the       container walls; and\r\n   (2) Loosely covered, or uncovered if protected from overhead contamination as          specified under Subparagraph 3-305.11(A)(2), during the cooling period to facilitate    heat transfer from the surface of the FOOD.","violationType":"Core","itemDescription":"Food item(s) cooled","subItem":"","problemDescription":"Improperly","subProblem":"Covered","location":"COOLER","subLocation":"","corrected":"Yes","daysToCorrect":"10.0","correctedDate":"2018-11-28T00:00:00","correctionDescription":"Cool items uncovered on the top shelf of cooler."},{"violationCode":"2-402.11","violationDescription":"FOOD EMPLOYEES shall wear hair restraints such as hats, hair coverings or nets, beard restraints, and clothing that covers body hair, that are designed and worn to effectively keep their hair from contacting exposed FOOD; clean EQUIPMENT, UTENSILS, and LINENS; or unwrapped SINGLE-SERVICE or SINGLE-USE ARTICLES.","violationType":"Core","itemDescription":"Hair restraint","subItem":"","problemDescription":"Not worn on face","subProblem":"","location":"BACK PREPARATION AREA","subLocation":"","corrected":"Not required","daysToCorrect":"30.0","correctedDate":null,"correctionDescription":"Provide beard net."}]},{"inspectionid":"40634","inspectionDate":"2017-10-25T00:00:00","inspectionType":"Routine Inspection","inCompliance":"Yes","violationsByInspectionidList":[{"violationCode":"6-301.12","violationDescription":"Each HANDWASHING SINK or group of adjacent HANDWASHING SINKS shall be provided with:\r\n(A) Individual, disposable towels; (Pf)\r\n(B) A continuous towel system that supplies the user with a clean towel;(Pf) or \r\n(C) A heated-air hand drying device.(Pf)\r\n(D) A hand drying device that employs an air-knife system that delivers high velocity pressurized air at ambient temperatures.(Pf)\r\n","violationType":"Foundation","itemDescription":"Sanitary hand drying provisions","subItem":"disposable, paper towels","problemDescription":"Not provided","subProblem":"At hand sink","location":"HANDSINK(S)","subLocation":"","corrected":"Yes","daysToCorrect":"10.0","correctedDate":"2017-10-25T00:00:00","correctionDescription":"Provide"},{"violationCode":"6-301.11","violationDescription":"Each HANDWASHING SINK or group of 2 adjacent HANDWASHING SINKS shall be provided with a supply of hand cleaning liquid, powder, or bar soap. (Pf)\r\n","violationType":"Foundation","itemDescription":"Soap","subItem":"at handsink front","problemDescription":"Not provided","subProblem":"At hand sink","location":"HANDSINK(S)","subLocation":"","corrected":"Yes","daysToCorrect":"10.0","correctedDate":"2017-10-25T00:00:00","correctionDescription":"Provide"}]}]}]}},"pageContext":{"eid":"51622535"}}