{"data":{"site":{"pathPrefix":"/restaurant-inspections"},"postgres":{"establishment":[{"establishmentid":"5095","name":"Subway #61420","address":"14363 Livernois Ave","zipcode":"48238","owner":"Wayne Garbie","licenseNumber":"081344","licenseType":"Fixed Establishment","establishmentType":"Food Service Establishment","establishmentStatus":"Open","riskCategory":null,"reviewFrequencyDays":"365.0","coords":"-83.14057,42.39326","geojson":{"id":"5095","type":"Feature","geometry":{"type":"Point","coordinates":[-83.140568194,42.3932576290001]},"properties":{"name":"Subway #61420","owner":"Wayne Garbie","address":"14363 Livernois Ave","zipcode":"48238","license_type":"Fixed Establishment","risk_category":null,"license_number":"081344","establishmentid":"5095","establishment_type":"Food Service Establishment","establishment_status":"Open","review_frequency_days":"365.0","most_recent_license_date":null}},"nearbyList":[{"establishmentid":"1675","name":"Popeye's Chicken & Biscuits #5522","address":"14300 Livernois Ave","zipcode":"48238"},{"establishmentid":"4808","name":"Checker's","address":"14400 Livernois Ave","zipcode":"48238"},{"establishmentid":"2016","name":"Wendy's ","address":"14001 Livernois Ave","zipcode":"48238"},{"establishmentid":"1493","name":"Taco Bell #4014","address":"14000 Livernois Ave","zipcode":"48238"},{"establishmentid":"1063","name":"L. A. Coney Island","address":"13550 Livernois Ave","zipcode":"48238"},{"establishmentid":"3426","name":"Manhattan Fish & Chicken","address":"13325 Livernois Ave","zipcode":"48238"},{"establishmentid":"3478","name":"Joy Preparatory Academy - Dexter Campus","address":"15055 Dexter Ave","zipcode":"48238"},{"establishmentid":"4169","name":"Lynn's Fish & Chicken","address":"12863 Livernois Ave","zipcode":"48238"},{"establishmentid":"4923","name":"Nicky D's Coney Island ","address":"3357 West Davison","zipcode":"48238"},{"establishmentid":"1785","name":"Burger King ","address":"3200 W Davison Ave","zipcode":"48238"},{"establishmentid":"1556","name":"Uptown Bar B Que","address":"15700 Livernois Ave","zipcode":"48238"},{"establishmentid":"3415","name":"Nu Wave Fish & Chicken","address":"2970 W Davison Ave","zipcode":"48238"},{"establishmentid":"4806","name":"Hope Academy","address":"12121 Broadstreet Ave","zipcode":"48204"},{"establishmentid":"2684","name":"Little Caesar's Pizza #157","address":"2918 W Davison Ave","zipcode":"48238"},{"establishmentid":"826","name":"Stewart Elementary- Middle School","address":"13120 Wildemere","zipcode":"48238"},{"establishmentid":"3808","name":"Get Back Up","address":"12305 Dexter Ave","zipcode":"48206"},{"establishmentid":"1425","name":"Focus Hope Center for Children","address":"1550 Oakman Blvd","zipcode":"48238"},{"establishmentid":"1144","name":"Church's Fried Chicken #785","address":"16100 Livernois Ave","zipcode":"48221"},{"establishmentid":"3542","name":"Flagship Academy","address":"13661 Wisconsin St","zipcode":"48238"},{"establishmentid":"1149","name":"Church's Fried Chicken #863","address":"2757 W Davison Ave","zipcode":"48238"}],"inspectionsByEstablishmentidList":[{"inspectionid":"43798","inspectionDate":"2018-10-18T00:00:00","inspectionType":"Routine Inspection","inCompliance":"Yes","violationsByInspectionidList":[]},{"inspectionid":"40418","inspectionDate":"2017-09-20T00:00:00","inspectionType":"Routine Inspection","inCompliance":"No","violationsByInspectionidList":[{"violationCode":"5-202.13","violationDescription":"An air gap between the water supply inlet and the flood level rim of the PLUMBING FIXTURE, EQUIPMENT, or nonFOOD EQUIPMENT shall be at least twice the diameter of the water supply inlet and may not be less than 1 inch. (P)\r\n","violationType":"Priority","itemDescription":"Air gap","subItem":"","problemDescription":"Not provided","subProblem":"","location":"PREP AREA(S)","subLocation":"At the Prep sink","corrected":"No","daysToCorrect":"10.0","correctedDate":null,"correctionDescription":"Provide adequate air gap."},{"violationCode":"MFL289.2129","violationDescription":"Sec. 2129. (1) All of the following food establishments shall employ a minimum of 1 managerial employee who is currently certified under a personnel certification program accredited by the American national standards institute, utilizing the conference for food protection standards:  (a) A food service establishment that is not any of the following:    (i) Operating under a temporary food service establishment license.  (ii) A vending machine location.     (b) An extended retail food establishment.  (c) Operated within a retail grocery.  (2) An individual certified under subsection (1) shall be recognized with full faith and credit by the state and all local units of government throughout the state.  (3) The department may promulgate rules to do all of the following:  (a) Develop requirements for retail food establishments to follow when employing certified food safety managers or personnel.  (b) Set a reasonable date for compliance with the requirements under subdivision (a) taking into consideration existing local personnel certification requirements.  (c) Establish certification fees necessary to implement, maintain, and track certified individuals directly or by contract. The department may annually adjust the schedule of fees to provide that the fee charged is sufficient to cover the cost of the certification tracking program.  (d) Implement and enforce the requirements described in subdivision (a).    (4) The certification program developed by the American national standards institute, as it exists on April 1, 2008 , is incorporated by reference. The department may adopt updates to the certification program accreditation standards in subsection (1) by rule.     (5) This section does not prohibit any local legislative body from implementing a food handler program, an employee health certification program, or a manager certification program, if it is not in conflict with this section.","violationType":"Core","itemDescription":"Person-in-charge","subItem":"","problemDescription":"Failed to notify the health department that an employee is diagnosed with a \"big 4\" illness","subProblem":"","location":"ESTABLISHMENT","subLocation":"","corrected":"Not required","daysToCorrect":"30.0","correctedDate":null,"correctionDescription":"Notify as required by code."},{"violationCode":"3-304.14","violationDescription":"(A)  Cloths that are in use for wiping FOOD spills on TABLEWARE shall be maintained dry and used for no other purpose. \r\n(B)  Cloths in-use for wiping counters and equipment shall be held between uses in   a chemical sanitizer solution, and laundered daily.\r\n(C)  Cloths in-use for wiping surfaces in contact with raw animal FOODS shall be      kept separate from cloths used for other purposes.\r\n(D)  Dry wiping cloths and the chemical sanitizing solutions shall be free of FOOD    debris or visible soil.\r\n(E)  Containers of chemical sanitizing solutions shall be stored off the floor and         used in a manner that prevents contamination of FOOD, EQUIPMENT, UTENSILS, LINENS, SINGLE-SERVICE, or SINGLE-USE ARTICLES.\r\n(E)  SINGLE-USE disposable sanitizer wipes shall be used in accordance lable               instructions.\r\n","violationType":"Core","itemDescription":"Wiping cloth(s)","subItem":"","problemDescription":"Stored in","subProblem":"Less than 100-200 ppm quaternary ammonia","location":"SERVICE AREA","subLocation":"On the Counter(s)","corrected":"Yes","daysToCorrect":"30.0","correctedDate":"2017-09-20T00:00:00","correctionDescription":null}]}]}]}},"pageContext":{"eid":"5095"}}