{"data":{"postgres":{"establishment":[{"establishmentid":"51622538","name":"Little Caesars Arena- Detroit House","address":"2645 Woodward Avenue","zipcode":"48201","owner":"Detroit District Sportservice","licenseNumber":"220989","licenseType":"Fixed Establishment","establishmentType":"Food Service Establishment","establishmentStatus":"Open","riskCategory":"High","reviewFrequencyDays":"365.0","coords":"-83.05481,42.34195","geojson":{"id":"51622538","type":"Feature","geometry":{"type":"Point","coordinates":[-83.054812494,42.341946353]},"properties":{"name":"Little Caesars Arena- Detroit House","owner":"Detroit District Sportservice","address":"2645 Woodward Avenue","zipcode":"48201","license_type":"Fixed Establishment","risk_category":"High","license_number":"220989","establishmentid":"51622538","establishment_type":"Food Service Establishment","establishment_status":"Open","review_frequency_days":"365.0","most_recent_license_date":"4/25/2018"}},"nearbyList":[{"establishmentid":"51622547","name":"Little Caesars Arena- Legends Club","address":"2645 Woodward Avenue","zipcode":"48201"},{"establishmentid":"51622509","name":"Little Caesars Arena Kid Rock Made in De","address":"2645 Woodward Avenue","zipcode":"48201"},{"establishmentid":"51622526","name":"Little Caesars Arena- District Market","address":"2645 Woodward Avenue","zipcode":"48201"},{"establishmentid":"51622542","name":"Little Caesars Arena- Gondola Pantries","address":"2645 Woodward Avenue","zipcode":"48201"},{"establishmentid":"51622528","name":"Little Caesars Arena- Club Level Concess","address":"2645 Woodward Avenue","zipcode":"48201"},{"establishmentid":"51622530","name":"Little Caesars Arena- Dough Room","address":"2645 Woodward Avenue","zipcode":"48201"},{"establishmentid":"51622543","name":"Little Caesars Arena- Alumni Club","address":"2645 Woodward Avenue","zipcode":"48201"},{"establishmentid":"51622545","name":"Little Caesars Arena- Central Suite Kitc","address":"2645 Woodward Avenue","zipcode":"48201"},{"establishmentid":"51622529","name":"Little Caesars Arena- East Club","address":"2645 Woodward Avenue","zipcode":"48201"},{"establishmentid":"51622537","name":"Little Caesars Arena-Main Concourse Conc","address":"2645 Woodward Avenue","zipcode":"48201"}],"inspectionsByEstablishmentidList":[{"inspectionid":"44700","inspectionDate":"2018-12-17T00:00:00","inspectionType":"Routine Inspection","inCompliance":"Yes","violationsByInspectionidList":[{"violationCode":"4-302.12","violationDescription":"(A) FOOD TEMPERATURE MEASURING DEVICES shall be provided and readily accessible for use in ensuring attainment and maintenance of FOOD temperatures as specified under Chapter 3. (Pf)   \r\n(B) A TEMPERATURE MEASURING DEVICE with a suitable small-diameter probe that is designed to measure the temperature of thin masses shall be provided and readily accessible to accurately measure the temperature in thin FOODS such as MEAT patties and FISH filets. (Pf)\r\n","violationType":"Foundation","itemDescription":"Food thermometer(s)","subItem":"probe","problemDescription":"Not provided","subProblem":"","location":"FACILITY","subLocation":"","corrected":"Yes","daysToCorrect":"10.0","correctedDate":"2018-12-17T00:00:00","correctionDescription":"Provide."}]},{"inspectionid":"41053","inspectionDate":"2017-11-04T00:00:00","inspectionType":"Routine Inspection","inCompliance":"Yes","violationsByInspectionidList":[{"violationCode":"4-302.14","violationDescription":"A test kit or other device that accurately measures the concentration in mg/L of SANITIZING solutions shall be provided. (Pf)\r\n","violationType":"Foundation","itemDescription":"Sanitizer test kit","subItem":"chlorine","problemDescription":"Not provided","subProblem":"","location":"3 COMPARTMENT SINK AREA","subLocation":"","corrected":"Yes","daysToCorrect":"10.0","correctedDate":"2017-11-04T00:00:00","correctionDescription":"Provide."},{"violationCode":"5-205.11","violationDescription":"(A) A HANDWASHING SINK shall be maintained so that it is accessible at all times for EMPLOYEE use and used for no other purpose. (Pf)\r\n(B)  An automatic handwashing facility shall be used in accordance with manufacturer's instructions. (Pf)\r\n","violationType":"Foundation","itemDescription":"Handwashing sink(s)","subItem":"","problemDescription":"Allows for contamination","subProblem":"","location":"HANDSINK(S)","subLocation":"","corrected":"Yes","daysToCorrect":"10.0","correctedDate":"2017-11-04T00:00:00","correctionDescription":"Remove to prevent contamination."}]}]}]}},"pageContext":{"eid":"51622538"}}