{"data":{"site":{"pathPrefix":"/restaurant-inspections"},"postgres":{"establishment":[{"establishmentid":"51622932","name":"Momo Cha","address":"474 Peterboro St Unit #102","zipcode":"48201","owner":"Louisa Ainsworth","licenseNumber":"237715","licenseType":"Fixed Establishment","establishmentType":"Food Service Establishment","establishmentStatus":"Open","riskCategory":"High","reviewFrequencyDays":"180.0","coords":"-83.06167,42.34422","geojson":{"id":"51622932","type":"Feature","geometry":{"type":"Point","coordinates":[-83.0616724239999,42.3442225970001]},"properties":{"name":"Momo Cha","owner":"Louisa Ainsworth","address":"474 Peterboro St Unit #102","zipcode":"48201","license_type":"Fixed Establishment","risk_category":"High","license_number":"237715","establishmentid":"51622932","establishment_type":"Food Service Establishment","establishment_status":"Open","review_frequency_days":"180.0","most_recent_license_date":"5/10/2019"}},"nearbyList":[{"establishmentid":"51622810","name":"Motor Burger","address":"474 Peterboro Unit #101","zipcode":"48201"},{"establishmentid":"51622705","name":"Brujo","address":"474 Peterboro St #105","zipcode":"48201"},{"establishmentid":"51622644","name":"Coop","address":"474 Peterboro St #104","zipcode":"48201"},{"establishmentid":"5359","name":"Detroit Shipping Company- Bars","address":"474 Peterboro St","zipcode":"48201"},{"establishmentid":"51622643","name":"Bangkok 96","address":"474 Peterboro Street #103","zipcode":"48201"},{"establishmentid":"51622714","name":"-320 Coffee & Creamery","address":"474 Peterboro Street #201","zipcode":"48201"},{"establishmentid":"5094","name":"Peterboro","address":"420 Peterboro St","zipcode":"48201"},{"establishmentid":"51622606","name":"Founders Brewing Company","address":"456 Charlotte St","zipcode":"48201"},{"establishmentid":"51622795","name":"Faye's Coffee Convenience","address":"3550 Cass Ave","zipcode":"48221"},{"establishmentid":"51622553","name":"Rocco's Italian Deli LLC","address":"3627 Cass Ave","zipcode":"48201"}],"inspectionsByEstablishmentidList":[{"inspectionid":"48549","inspectionDate":"2019-07-26T00:00:00","inspectionType":"Routine Inspection","inCompliance":"Yes","violationsByInspectionidList":[{"violationCode":"7-102.11","violationDescription":"Working containers used for storing POISONOUS OR TOXIC MATERIALS such as cleaners and SANITIZERS taken from bulk supplies shall be clearly and individually identified with the common name of the material. (Pf)\r\n","violationType":"Foundation","itemDescription":"Working containers-toxics","subItem":"","problemDescription":"Not labeled as to content","subProblem":"","location":"CHEMICAL STORAGE AREA","subLocation":"","corrected":"Yes","daysToCorrect":"10.0","correctedDate":"2019-08-27T00:00:00","correctionDescription":null},{"violationCode":"3-501.15","violationDescription":"(A) Cooling shall be accomplished in accordance with the time and temperature criteria specified under ยง 3-501.14 by using one or more of the following methods based on the type of FOOD being cooled:  \r\n   (1) Placing the FOOD in shallow pans; (Pf)\r\n   (2) Separating the FOOD into smaller or thinner portions; (Pf)\r\n   (3) Using rapid cooling EQUIPMENT; (Pf)\r\n   (4) Stirring the FOOD in a container placed in an ice water bath; (Pf)\r\n   (5) Using containers that facilitate heat transfer; (Pf)\r\n   (6) Adding ice as an ingredient; (Pf) or\r\n   (7) Other effective methods. (Pf)  \r\n(B) When placed in cooling or cold holding EQUIPMENT, FOOD containers in which FOOD is being cooled shall be:  \r\n   (1) Arranged in the EQUIPMENT to provide maximum heat transfer through the       container walls; and\r\n   (2) Loosely covered, or uncovered if protected from overhead contamination as          specified under Subparagraph 3-305.11(A)(2), during the cooling period to facilitate    heat transfer from the surface of the FOOD.","violationType":"Core","itemDescription":"Food item(s) cooled","subItem":"","problemDescription":"Improperly","subProblem":"Covered","location":"WALK-IN COOLER","subLocation":"","corrected":"Not required","daysToCorrect":"10.0","correctedDate":null,"correctionDescription":null}]},{"inspectionid":"47939","inspectionDate":"2019-06-04T00:00:00","inspectionType":"Preopening/New","inCompliance":"Yes","violationsByInspectionidList":[{"violationCode":"5-205.15","violationDescription":"A PLUMBING SYSTEM shall be:\r\n(A) Repaired according to LAW; (P) and\r\n(B) Maintained in good repair.\r\n","violationType":"Core","itemDescription":"Drainage system","subItem":"drain lines","problemDescription":null,"subProblem":"","location":"DISH MACHINE","subLocation":"","corrected":"Not required","daysToCorrect":"10.0","correctedDate":null,"correctionDescription":null},{"violationCode":"4-402.11","violationDescription":"EQUIPMENT that is fixed because it is not EASILY MOVABLE shall be installed so that it is spaced to allow access for cleaning along the sides, behind, and above the EQUIPMENT or sealed as required,  COUNTER-MOUNTED EQUIPMENT that is not EASILY MOVABLE shall be installed to allow cleaning of the EQUIPMENT and areas underneath and around the EQUIPMENT .\r\n","violationType":"Core","itemDescription":"Fixed equipment","subItem":"","problemDescription":"Not sealed to adjoining","subProblem":"Equipment","location":"KITCHEN","subLocation":"","corrected":"Not required","daysToCorrect":"30.0","correctedDate":null,"correctionDescription":null}]}]}],"maxInspectionDate":[{"inspectionDate":"2019-10-31T00:00:00"}]}},"pageContext":{"eid":"51622932"}}