{"data":{"site":{"pathPrefix":"/restaurant-inspections"},"postgres":{"establishment":[{"establishmentid":"51623291","name":"Grandy's Coney Island","address":"19833 W Seven Mile Rd","zipcode":"48219","owner":"Grandy's Coney Island #5 Inc.","licenseNumber":"PS081920","licenseType":"Fixed Establishment","establishmentType":"Food Service Establishment","establishmentStatus":"Open","riskCategory":null,"reviewFrequencyDays":"180","coords":"-83.23848,42.42930","geojson":{"id":"51623291","type":"Feature","geometry":{"type":"Point","coordinates":[-83.238479198,42.429304575]},"properties":{"name":"Grandy's Coney Island","owner":"Grandy's Coney Island #5 Inc.","address":"19833 W Seven Mile Rd","zipcode":"48219","license_type":"Fixed Establishment","risk_category":null,"license_number":"PS081920","establishmentid":"51623291","establishment_type":"Food Service Establishment","establishment_status":"Open","review_frequency_days":"180","most_recent_license_date":"8/25/2020"}},"nearbyList":[{"establishmentid":"5160","name":"Olympia Coney Island","address":"19740 W Seven Mile","zipcode":"48219"},{"establishmentid":"2592","name":"Crab House","address":"19721 W Seven Mile Rd","zipcode":"48219"},{"establishmentid":"51622724","name":"Kalahari African Restaurant LLC","address":"19701 W Seven Mile Rd","zipcode":"48219"},{"establishmentid":"1647","name":"China One","address":"20160 W Seven Mile Rd","zipcode":"48219"},{"establishmentid":"2238","name":"Subway #15573","address":"20170 W Seven Mile Rd","zipcode":"48219"},{"establishmentid":"2246","name":"Happy's Pizza #5","address":"20150 W Seven Mile Rd","zipcode":"48219"},{"establishmentid":"5241","name":"S & T Fresh Fish & Seafood Inc.","address":"20231 W Seven Mile Rd","zipcode":"48219"},{"establishmentid":"410","name":"Lou's  Deli/Seven Mile","address":"19440 W Seven Mile Rd","zipcode":"48219"},{"establishmentid":"634","name":"Little Caesar's Pizza #39","address":"19400 W Seven Mile Rd","zipcode":"48201"},{"establishmentid":"476","name":"Bob's Pizza Palace Inc.","address":"20510 W Seven Mile Rd","zipcode":"48219"}],"inspectionsByEstablishmentidList":[{"inspectionid":"52851","inspectionDate":"2020-09-18T00:00:00","inspectionType":"Routine Inspection","inCompliance":"No","violationsByInspectionidList":[{"violationCode":"4-302.14","violationDescription":"A test kit or other device that accurately measures the concentration in mg/L of SANITIZING solutions shall be provided. (Pf)\r\n","violationType":"Foundation","itemDescription":"Sanitizer test kit","subItem":"chlorine","problemDescription":"Not provided","subProblem":"At hand sink","location":"3 COMPARTMENT SINK AREA","subLocation":"","corrected":"No","daysToCorrect":"10","correctedDate":null,"correctionDescription":null},{"violationCode":"4-903.11","violationDescription":"Cleaned EQUIPMENT and UTENSILS, laundered LINENS, and SINGLE-SERVICE and SINGLE-USE ARTICLES shall be stored in an approved manner and location.\r\n","violationType":"Core","itemDescription":"Single-service/single-use article(s)","subItem":"","problemDescription":"Exposed to dust, splash, or other contaminates","subProblem":"","location":"DRY STORAGE AREA","subLocation":"","corrected":"Not required","daysToCorrect":"30","correctedDate":null,"correctionDescription":null}]}]}],"maxInspectionDate":[{"inspectionDate":"2020-10-30T00:00:00"}]}},"pageContext":{"eid":"51623291"}}