{"componentChunkName":"component---src-templates-establishment-page-js","path":"/establishment/51622902","result":{"data":{"site":{"pathPrefix":"/restaurant-inspections"},"postgres":{"establishment":[{"establishmentid":"51622902","name":"Milwaukee Caffe","address":"447 Milwaukee Ave. E.","zipcode":"48202","owner":"Kiesling LLC","licenseNumber":"249307","licenseType":"Fixed Establishment","establishmentType":"Food Service Establishment","establishmentStatus":"Open","riskCategory":"High","reviewFrequencyDays":"335","coords":"-83.06704,42.37134","geojson":{"id":"51622902","type":"Feature","geometry":{"type":"Point","coordinates":[-83.067042834,42.37133737]},"properties":{"name":"Milwaukee Caffe","owner":"Kiesling LLC","address":"447 Milwaukee Ave. E.","zipcode":"48202","license_type":"Fixed Establishment","risk_category":"High","license_number":"249307","establishmentid":"51622902","establishment_type":"Food Service Establishment","establishment_status":"Open","review_frequency_days":"335","most_recent_license_date":"9/5/2022"}},"nearbyList":[{"establishmentid":"51622696","name":"Kiesling","address":"449 Milwaukee Ave. E.","zipcode":"48202"},{"establishmentid":"51623260","name":"Freya and Dragonfly LLC","address":"2929 Grand Blvd. E. ","zipcode":"48202"},{"establishmentid":"51622949","name":"Oak and Reel dba Upfront Hospitality LLC","address":"2921 Grand Blvd E.","zipcode":"48202"},{"establishmentid":"51623450","name":"Reef Kitchens #07 (Fixed Trailer)","address":"2915 Grand Blvd E.","zipcode":"48202"},{"establishmentid":"4723","name":"Shawarma King","address":"2920 Grand Blvd.","zipcode":"48202"},{"establishmentid":"51622817","name":"Cooking With Que","address":"6529 Woodward","zipcode":"48202"},{"establishmentid":"2398","name":"B Georges Coney Island","address":"2898 Grand Blvd. W.","zipcode":"48202"},{"establishmentid":"2313","name":"Mariga's","address":"2894-96 Grand Blvd. W.","zipcode":"48202"},{"establishmentid":"51623848","name":"Thyme & Honey Cafe and Bodega","address":"2990 Grand Blvd. W.","zipcode":"48202"},{"establishmentid":"5182","name":"Simply Spanish","address":"2990 Grand Blvd. W.","zipcode":"48202"}],"inspectionsByEstablishmentidList":[{"inspectionid":"61103","inspectionDate":"2023-01-04T00:00:00","inspectionType":"Routine Inspection","inCompliance":"No","violationsByInspectionidList":[]},{"inspectionid":"56859","inspectionDate":"2021-12-15T00:00:00","inspectionType":"Routine Inspection","inCompliance":"No","violationsByInspectionidList":[{"violationCode":"2-201.12","violationDescription":"The PERSON IN CHARGE shall:  Exclude or restrict employees with symptom of illness or past illness as required by the code.(P)\n","violationType":"Priority","itemDescription":"Person-in-charge","subItem":"","problemDescription":"Fail to require employees to report illness as rule requires","subProblem":"","location":"RESTAURANT","subLocation":"","corrected":"True","daysToCorrect":"10","correctedDate":"2012-01-15T00:00:00","correctionDescription":null},{"violationCode":"6-301.12","violationDescription":"Each HANDWASHING SINK or group of adjacent HANDWASHING SINKS shall be provided with:\n(A) Individual, disposable towels; (Pf)\n(B) A continuous towel system that supplies the user with a clean towel;(Pf) or \n(C) A heated-air hand drying device.(Pf)\n(D) A hand drying device that employs an air-knife system that delivers high velocity pressurized air at ambient temperatures.(Pf)\n","violationType":"Foundation","itemDescription":"Sanitary hand drying provisions","subItem":"","problemDescription":"Not provided","subProblem":"","location":"RESTAURANT","subLocation":"","corrected":"False","daysToCorrect":"10","correctedDate":null,"correctionDescription":null},{"violationCode":"4-302.14","violationDescription":"A test kit or other device that accurately measures the concentration in mg/L of SANITIZING solutions shall be provided. (Pf)\n","violationType":"Foundation","itemDescription":"Sanitizer test kit","subItem":"quaternary ammonia","problemDescription":"Not provided","subProblem":"","location":"RESTAURANT","subLocation":"","corrected":"False","daysToCorrect":"10","correctedDate":null,"correctionDescription":null},{"violationCode":"3-305.11","violationDescription":"FOOD shall be protected from contamination by storing the FOOD:\n(1)     In a clean, dry location;\n(2)     Where it is not exposed to splash, dust, or other contamination; and\n(3)     At least 15 cm (6 inches) above the floor, unless otherwise approved.\n","violationType":"Core","itemDescription":"Food item(s) in storage","subItem":"","problemDescription":"Exposed to dust, splash, or other contaminates","subProblem":"","location":"RESTAURANT","subLocation":"","corrected":"False","daysToCorrect":"30","correctedDate":null,"correctionDescription":null}]},{"inspectionid":"53524","inspectionDate":"2020-12-03T00:00:00","inspectionType":"Covid19 Positive ","inCompliance":"Yes","violationsByInspectionidList":[]},{"inspectionid":"52666","inspectionDate":"2020-08-17T00:00:00","inspectionType":"Outdoor cafe Eval","inCompliance":"Yes","violationsByInspectionidList":[]},{"inspectionid":"51391","inspectionDate":"2020-03-23T00:00:00","inspectionType":"COVID19-temp closed","inCompliance":"Yes","violationsByInspectionidList":[]},{"inspectionid":"50921","inspectionDate":"2020-02-25T00:00:00","inspectionType":"Preopening/New","inCompliance":"Yes","violationsByInspectionidList":[]}]}],"maxInspectionDate":[{"inspectionDate":"2023-04-13T00:00:00"}]}},"pageContext":{"eid":"51622902"}},"staticQueryHashes":["3649515864","63159454"]}