{"data":{"postgres":{"establishment":[{"establishmentid":"1963","name":"Plymouth Educational Center","address":"1460 E Forest Ave","zipcode":"48207","owner":"Jessie Kilgore","licenseNumber":"038632","licenseType":"Fixed Establishment","establishmentType":"Non-Public School","establishmentStatus":"Open","riskCategory":null,"reviewFrequencyDays":"210.0","coords":"-83.04891,42.36006","geojson":{"id":"1963","type":"Feature","geometry":{"type":"Point","coordinates":[-83.048905497,42.3600588140001]},"properties":{"name":"Plymouth Educational Center","owner":"Jessie Kilgore","address":"1460 E Forest Ave","zipcode":"48207","license_type":"Fixed Establishment","risk_category":null,"license_number":"038632","establishmentid":"1963","establishment_type":"Non-Public School","establishment_status":"Open","review_frequency_days":"210.0","most_recent_license_date":"5/29/2018"}},"nearbyList":[{"establishmentid":"3275","name":"Federal Reserve Bank Detroit Branch","address":"1600 E Warren Ave","zipcode":"48207"},{"establishmentid":"1884","name":"Friendship Meadows Senior Apt & Comm Crt","address":"3930 Rivard","zipcode":"48207"},{"establishmentid":"51622560","name":"Captain Jay's #120","address":"4851 St Antoine St","zipcode":"48201"},{"establishmentid":"51622681","name":"Detroit Fitness Foundation","address":"601 Mack Ave","zipcode":"48201"},{"establishmentid":"1700","name":"Friendship Baptist","address":"3900 Beaubien St","zipcode":"48201"},{"establishmentid":"4982","name":"Detroit Receiving Hospital","address":"4201 St Antoine","zipcode":"48201"},{"establishmentid":"5277","name":"Detroit Receiving Sub Shops LLC/Subway","address":"4201 St Antoine St","zipcode":"48202"},{"establishmentid":"5278","name":"Det Receiving Cafe Stores LLC/Biggby","address":"4201 St Antoine St","zipcode":"48201"},{"establishmentid":"51622467","name":"Hungry Howie's","address":"4201 St Antoine St","zipcode":"48201"},{"establishmentid":"1496","name":"McDonald's","address":"1000 Mack Ave","zipcode":"48207"},{"establishmentid":"3609","name":"You Name IT Cafe/Fresh Market and Grill","address":"4707 St Antoine","zipcode":"48207"},{"establishmentid":"4091","name":"University Prep Academy Middle School","address":"5310 St Antoine","zipcode":"48202"},{"establishmentid":"2779","name":"Louie's Ham & Corned Beef","address":"3570 Riopelle St","zipcode":"48207"},{"establishmentid":"900","name":"Spain Middle/Elementary School","address":"3700 Beaubien St","zipcode":"48201"},{"establishmentid":"330","name":"Raven Lounge & Restaurant","address":"5145 Chene St","zipcode":"48211"},{"establishmentid":"4296","name":"Dr. Benjamin Carson HS of Sci & Med","address":"571 Mack Ave","zipcode":"48201"},{"establishmentid":"2778","name":"Chen's China House INC","address":"550 E Warren Ave","zipcode":"48201"},{"establishmentid":"51622507","name":"Xus China House Inc","address":"550 E Warren Ave","zipcode":"48201"},{"establishmentid":"2392","name":"Royal Grill","address":"540 E Warren Ave","zipcode":"48201"},{"establishmentid":"5279","name":"Childrens Cafe Stores LLC/Biggby","address":"3901 Beaubien St","zipcode":"48201"}],"inspectionsByEstablishmentidList":[{"inspectionid":"44653","inspectionDate":"2018-11-19T00:00:00","inspectionType":"Routine Inspection","inCompliance":"Yes","violationsByInspectionidList":[{"violationCode":"6-501.18","violationDescription":"PLUMBING FIXTURES such as HANDWASHING SINKS, toilets, and urinals shall be cleaned as often as necessary to keep them clean. \r\n","violationType":"Core","itemDescription":"sink","subItem":"handwash","problemDescription":null,"subProblem":"","location":"HANDSINK(S)","subLocation":"","corrected":"Yes","daysToCorrect":"30.0","correctedDate":"2018-11-19T00:00:00","correctionDescription":"Clean"}]},{"inspectionid":"41940","inspectionDate":"2018-04-11T00:00:00","inspectionType":"Routine Inspection","inCompliance":"Yes","violationsByInspectionidList":[{"violationCode":"6-501.12","violationDescription":"(A) PHYSICAL FACILITIES shall be cleaned as often as necessary to keep them clean.\r\n(B) Except spill cleanup, cleaning shall be done during periods when the least amount of FOOD is exposed such as after closing. ","violationType":"Core","itemDescription":"Physical facilities/structures","subItem":"","problemDescription":"Not clean","subProblem":"","location":"KITCHEN","subLocation":"","corrected":"Not required","daysToCorrect":"30.0","correctedDate":null,"correctionDescription":"Clean"}]},{"inspectionid":"40838","inspectionDate":"2017-11-06T00:00:00","inspectionType":"Routine Inspection","inCompliance":"Yes","violationsByInspectionidList":[]},{"inspectionid":"38895","inspectionDate":"2017-05-11T00:00:00","inspectionType":"Routine Inspection","inCompliance":"Yes","violationsByInspectionidList":[]},{"inspectionid":"37133","inspectionDate":"2016-11-15T00:00:00","inspectionType":"Routine Inspection","inCompliance":"Yes","violationsByInspectionidList":[]}]}]}},"pageContext":{"eid":"1963"}}