{"data":{"postgres":{"establishment":[{"establishmentid":"51622709","name":"Wing Snob Detroit","address":"17101 E Warren Ave","zipcode":"48224","owner":"Wing Snob LLC","licenseNumber":"229401","licenseType":"Fixed Establishment","establishmentType":"Food Service Establishment","establishmentStatus":"Open","riskCategory":null,"reviewFrequencyDays":"180.0","coords":"-82.92981,42.40614","geojson":{"id":"51622709","type":"Feature","geometry":{"type":"Point","coordinates":[-82.929807847,42.406144182]},"properties":{"name":"Wing Snob Detroit","owner":"Wing Snob LLC","address":"17101 E Warren Ave","zipcode":"48224","license_type":"Fixed Establishment","risk_category":null,"license_number":"229401","establishmentid":"51622709","establishment_type":"Food Service Establishment","establishment_status":"Open","review_frequency_days":"180.0","most_recent_license_date":null}},"nearbyList":[{"establishmentid":"1992","name":"Domino's Pizza","address":"17140 E Warren Ave","zipcode":"48224"},{"establishmentid":"5172","name":"Danny's Diner","address":"17017 E Warren","zipcode":"48224"},{"establishmentid":"51622784","name":"York Sussex Partners","address":"17017 E Warren","zipcode":"48224"},{"establishmentid":"418","name":"East English Village Bar & Grill","address":"16915 E Warren Ave","zipcode":"48224"},{"establishmentid":"4412","name":"East English Village Preparatory Academy","address":"5020 Cadieux","zipcode":"48224"},{"establishmentid":"2466","name":"Pizza Hut #26290","address":"16835 E Warren Ave","zipcode":"48224"},{"establishmentid":"2268","name":"High Noon Saloon","address":"17339 E Warren Ave","zipcode":"48224"},{"establishmentid":"1068","name":"Burger King","address":"17440 E Warren Ave","zipcode":"48224"},{"establishmentid":"318","name":"Cadieux Cafe","address":"4300 Cadieux  Rd","zipcode":"48224"},{"establishmentid":"4467","name":"Big Burgzs","address":"17627 E Warren","zipcode":"48224"},{"establishmentid":"2861","name":"Jeanie's Lounge","address":"16200 E Warren Ave","zipcode":"48224"},{"establishmentid":"1902","name":"Nikki's Place & Lounge","address":"17200 Harper Ave","zipcode":"48224"},{"establishmentid":"1295","name":"McDonald's #5459 ","address":"16950 Harper Ave","zipcode":"48224"},{"establishmentid":"1797","name":"Wendy's Old Fashioned Hamburgers","address":"17010 Harper Ave","zipcode":"48226"},{"establishmentid":"51622597","name":"The Den Sports Grill and Bar","address":"17175 Harper Ave","zipcode":"48224"},{"establishmentid":"3571","name":"Papa's Pizza ","address":"17137 Harper Ave","zipcode":"48224"},{"establishmentid":"446","name":"Tubby's Sub Shop #37","address":"17195 Harper Ave","zipcode":"48224"},{"establishmentid":"511","name":"Champagnes Steak and Soul","address":"17323 Harper Ave","zipcode":"48224"},{"establishmentid":"2813","name":"Bogartz Food and Spirits","address":"17441 Mack Ave","zipcode":"48224"},{"establishmentid":"3184","name":"Trolley's","address":"17315 Mack Ave","zipcode":"48224"}],"inspectionsByEstablishmentidList":[{"inspectionid":"43826","inspectionDate":"2018-10-17T00:00:00","inspectionType":"Routine Inspection","inCompliance":"Yes","violationsByInspectionidList":[{"violationCode":"6-201.11","violationDescription":"Except otherwise approved, and except for antislip floor coverings or applications may be used for safety reasons, floors, floor coverings, walls, wall coverings, and ceilings shall be designed, constructed, and installed so they are SMOOTH and EASILY CLEANABLE.\r\n","violationType":"Core","itemDescription":"ceiling(s)","subItem":"","problemDescription":null,"subProblem":"","location":"KITCHEN","subLocation":"Missing Ceiling tile(s)","corrected":"Not required","daysToCorrect":"30.0","correctedDate":null,"correctionDescription":null},{"violationCode":"6-305.11","violationDescription":"(A) Dressing rooms or dressing areas shall be designated if EMPLOYEES routinely change their clothes in the establishment. \r\n(B) Lockers or other suitable facilities shall be provided for the orderly storage of EMPLOYEES' clothing and other possessions.\r\n","violationType":"Core","itemDescription":"Locker(s)/designated storage area(s)","subItem":"for employee belongings storage","problemDescription":null,"subProblem":"","location":"RESTAURANT","subLocation":"At the Outer wear","corrected":"Not required","daysToCorrect":"30.0","correctedDate":null,"correctionDescription":null},{"violationCode":"6-501.12","violationDescription":"(A) PHYSICAL FACILITIES shall be cleaned as often as necessary to keep them clean.\r\n(B) Except spill cleanup, cleaning shall be done during periods when the least amount of FOOD is exposed such as after closing. ","violationType":"Core","itemDescription":"Physical facilities/structures","subItem":"floors","problemDescription":"Soiled","subProblem":"","location":"WALK-IN COOLER","subLocation":"On the Floor","corrected":"Not required","daysToCorrect":"30.0","correctedDate":null,"correctionDescription":null},{"violationCode":"4-903.11","violationDescription":"Cleaned EQUIPMENT and UTENSILS, laundered LINENS, and SINGLE-SERVICE and SINGLE-USE ARTICLES shall be stored in an approved manner and location.\r\n","violationType":"Core","itemDescription":"Single-service/single-use article(s)","subItem":"","problemDescription":"Stored on floor or less than 6 inches above floor","subProblem":"","location":"KITCHEN","subLocation":"On the floor Single service items","corrected":"Not required","daysToCorrect":"30.0","correctedDate":null,"correctionDescription":"Store at least 6 inches above the floor."},{"violationCode":"6-202.11","violationDescription":"Except as otherwise approved, light bulbs shall be shielded, coated, or otherwise shatter-resistant in areas where there is exposed FOOD; clean EQUIPMENT, UTENSILS, and LINENS; or unwrapped SINGLE-SERVICE and SINGLE-USE ARTICLES.\r\n","violationType":"Core","itemDescription":"Light shielding","subItem":"","problemDescription":"Not provided","subProblem":"","location":"KITCHEN","subLocation":"Missing Light Shield(s)","corrected":"Not required","daysToCorrect":"30.0","correctedDate":null,"correctionDescription":"Provide adequate light shields and end caps or shatter-proof bulbs."}]},{"inspectionid":"43620","inspectionDate":"2018-09-26T00:00:00","inspectionType":"Plan Review/Final/Ap","inCompliance":"Yes","violationsByInspectionidList":[]},{"inspectionid":"43618","inspectionDate":"2018-09-24T00:00:00","inspectionType":"Plan Review/Pre-Open","inCompliance":"Yes","violationsByInspectionidList":[]}]}]}},"pageContext":{"eid":"51622709"}}