{"data":{"site":{"pathPrefix":"/restaurant-inspections"},"postgres":{"establishment":[{"establishmentid":"894","name":"Martin Luther King High School","address":"3200 E Lafayette St","zipcode":"48207","owner":"Detroit Board of Education","licenseNumber":"070685","licenseType":"Fixed Establishment","establishmentType":"Public School","establishmentStatus":"Open","riskCategory":null,"reviewFrequencyDays":"210","coords":"-83.01632,42.34303","geojson":{"id":"894","type":"Feature","geometry":{"type":"Point","coordinates":[-83.016323757,42.343031381]},"properties":{"name":"Martin Luther King High School","owner":"Detroit Board of Education","address":"3200 E Lafayette St","zipcode":"48207","license_type":"Fixed Establishment","risk_category":null,"license_number":"070685","establishmentid":"894","establishment_type":"Public School","establishment_status":"Open","review_frequency_days":"210","most_recent_license_date":null}},"nearbyList":[{"establishmentid":"51622568","name":"Bread Basket Deli Downtown Detroit","address":"3242 E Jefferson Ave","zipcode":"48207"},{"establishmentid":"206","name":"Rivertown Pizza Papalis ","address":"3171 E Jefferson Ave","zipcode":"48207"},{"establishmentid":"3733","name":"Tubby's Submarine","address":"3250 E Jefferson Ave","zipcode":"48207"},{"establishmentid":"513","name":"Subway Harbortown Detroit","address":"3424 E Jefferson Ave","zipcode":"48207"},{"establishmentid":"503","name":"Peking Express","address":"3444 E Jefferson Ave","zipcode":"48207"},{"establishmentid":"4387","name":"Detroit Academy of Arts & Sciences MS","address":"3100 E Jefferson Ave","zipcode":"48207"},{"establishmentid":"1743","name":"Detroit Academy of Arts & Sciences","address":"2985 E Jefferson Ave","zipcode":"48207"},{"establishmentid":"4410","name":"Detroit Affordable Assisted Living","address":"3103 Wight St","zipcode":"48207"},{"establishmentid":"51622756","name":"Detroit City Field House","address":"3401 E Lafayette St","zipcode":"48207"},{"establishmentid":"51622625","name":"Morrison Community Living @ Rivertown","address":"250 McDougall St","zipcode":"48207"}],"inspectionsByEstablishmentidList":[{"inspectionid":"53240","inspectionDate":"2020-10-28T00:00:00","inspectionType":"Routine Inspection","inCompliance":"Yes","violationsByInspectionidList":[{"violationCode":"4-501.11","violationDescription":"EQUIPMENT shall be maintained in a state of repair and condition that meets the requirements of the code.\r\n","violationType":"Core","itemDescription":"Equipment components","subItem":"","problemDescription":"In poor repair","subProblem":"","location":"WALK-IN COOLER","subLocation":"At the Condenser","corrected":"Not required","daysToCorrect":"30","correctedDate":null,"correctionDescription":null}]},{"inspectionid":"37318","inspectionDate":"2016-12-07T00:00:00","inspectionType":"Routine Inspection","inCompliance":"Yes","violationsByInspectionidList":[{"violationCode":"4-501.11","violationDescription":"EQUIPMENT shall be maintained in a state of repair and condition that meets the requirements of the code.\r\n","violationType":"Core","itemDescription":"Equipment components","subItem":"","problemDescription":"In poor repair","subProblem":"","location":"KITCHEN","subLocation":"At the Paper towel dispenser","corrected":"Not required","daysToCorrect":"30","correctedDate":null,"correctionDescription":null}]}]}],"maxInspectionDate":[{"inspectionDate":"2020-10-30T00:00:00"}]}},"pageContext":{"eid":"894"}}