{"data":{"site":{"pathPrefix":"/restaurant-inspections"},"postgres":{"establishment":[{"establishmentid":"1462","name":"Tubby's","address":"601 Schaefer Hwy S","zipcode":"48217","owner":"Ang Shaefer Inc","licenseNumber":"075151","licenseType":"Fixed Establishment","establishmentType":"Food Service Establishment","establishmentStatus":"Open","riskCategory":null,"reviewFrequencyDays":"180.0","coords":"-83.18108,42.44527","geojson":{"id":"1462","type":"Feature","geometry":{"type":"Point","coordinates":[-83.181077197,42.445265035]},"properties":{"name":"Tubby's","owner":"Ang Shaefer Inc","address":"601 Schaefer Hwy S","zipcode":"48217","license_type":"Fixed Establishment","risk_category":null,"license_number":"075151","establishmentid":"1462","establishment_type":"Food Service Establishment","establishment_status":"Open","review_frequency_days":"180.0","most_recent_license_date":"7/10/2015"}},"nearbyList":[{"establishmentid":"2074","name":"Church's Fried Chicken #976","address":"13611 W Eight Mile Rd","zipcode":"48235"},{"establishmentid":"4343","name":"Subway","address":"13541 W Eight Mile Rd","zipcode":"48235"},{"establishmentid":"5373","name":"Schaefer Fish Market LLC","address":"20449 Schaefer Hwy","zipcode":"48235"},{"establishmentid":"51622621","name":"Da Catch LLC","address":"20449 Schaefer Hwy","zipcode":"48235"},{"establishmentid":"5151","name":"Pop'n Smoke BBQ","address":"13849 W 8 Mile Rd","zipcode":"48235"},{"establishmentid":"5157","name":"44 Burrito","address":"14015 W Eight Mile Rd","zipcode":"48235"},{"establishmentid":"588","name":"Hot Tamales","address":"13109 W Eight Mile Rd","zipcode":"48235"},{"establishmentid":"849","name":"Vernor Elementary","address":"13726 Pembroke","zipcode":"48235"},{"establishmentid":"1991","name":"Mama's, Inc.","address":"14620 E Eight Mile Rd","zipcode":"48205"},{"establishmentid":"5286","name":"Rinor LLC / Mama's","address":"14620 E Eight Mile Rd","zipcode":"48205"},{"establishmentid":"4915","name":"The Jamaican Pot","address":"14615 W Eight Mile Rd","zipcode":"48235"},{"establishmentid":"5084","name":"Word In Action Christian Center","address":"19780 Meyers","zipcode":"48227"},{"establishmentid":"5116","name":"Subway","address":"15000 E Eight Mile Rd","zipcode":"48205"},{"establishmentid":"2776","name":"Nu Wave Fish & Chicken","address":"15030 E Eight Mile Rd","zipcode":"48205"},{"establishmentid":"5179","name":"Original T & J Coney Island","address":"13600 W Seven Mile Rd","zipcode":"48235"},{"establishmentid":"4286","name":"Jalen Rose Leadership Acadamy","address":"15000 Trojan St","zipcode":"48235"},{"establishmentid":"280","name":"New China One","address":"13611 W Seven Mile Rd","zipcode":"48235"},{"establishmentid":"5309","name":"Louisiana Creole Gumbo","address":"13505 W Seven Mile Ste A","zipcode":"48235"},{"establishmentid":"1352","name":"McDonald's #7025","address":"14204 W Seven Mile Rd","zipcode":"48235"},{"establishmentid":"4761","name":"David Ellis Academy Kindergarten","address":"18962 Schaefer Hwy","zipcode":"48235"}],"inspectionsByEstablishmentidList":[{"inspectionid":"39968","inspectionDate":"2017-09-15T00:00:00","inspectionType":"Routine Inspection","inCompliance":"Yes","violationsByInspectionidList":[{"violationCode":"4-501.11","violationDescription":"EQUIPMENT shall be maintained in a state of repair and condition that meets the requirements of the code.\r\n","violationType":"Core","itemDescription":"Equipment","subItem":"","problemDescription":"Broken","subProblem":"","location":"WALK-IN COOLER","subLocation":"","corrected":"Not required","daysToCorrect":"30.0","correctedDate":null,"correctionDescription":"Repair/replace."},{"violationCode":"6-301.14","violationDescription":"A sign or poster that notifies FOOD EMPLOYEES to wash their hands shall be provided at all HANDWASHING SINKS used by FOOD EMPLOYEES and shall be clearly visible to FOOD EMPLOYEES.\r\n","violationType":"Core","itemDescription":"Handwashing signage","subItem":"","problemDescription":"Not provided","subProblem":"","location":"ESTABLISHMENT","subLocation":"","corrected":"Not required","daysToCorrect":"30.0","correctedDate":null,"correctionDescription":"Provide."}]},{"inspectionid":"38431","inspectionDate":"2017-03-29T00:00:00","inspectionType":"Routine Inspection","inCompliance":"Yes","violationsByInspectionidList":[{"violationCode":"4-601.11","violationDescription":"(A) EQUIPMENT FOOD-CONTACT SURFACES and UTENSILS shall be clean to sight and touch. (Pf)\r\n(B) The FOOD-CONTACT SURFACES of cooking EQUIPMENT and pans shall be kept free of encrusted grease deposits and other soil accumulations. \r\n(C) NonFOOD-CONTACT SURFACES of EQUIPMENT shall be kept free of an accumulation of dust, dirt, FOOD residue, and other debris. \r\n","violationType":"Foundation","itemDescription":null,"subItem":"","problemDescription":null,"subProblem":"","location":"KITCHEN","subLocation":"","corrected":"Yes","daysToCorrect":"10.0","correctedDate":"2017-03-29T00:00:00","correctionDescription":null},{"violationCode":"5-501.17","violationDescription":"A toilet room used by females shall be provided with a covered receptacle for sanitary napkins.\r\n","violationType":"Core","itemDescription":null,"subItem":"","problemDescription":null,"subProblem":"","location":"KITCHEN","subLocation":"","corrected":"Not required","daysToCorrect":"30.0","correctedDate":null,"correctionDescription":null},{"violationCode":"4-602.11","violationDescription":"(A) Equipment FOOD-CONTACT SURFACES and UTENSILS shall be cleaned:     \r\n  (1) Except as specified in ¶ (B) of this section, before each use with a different   type of raw animal FOOD such as beef, FISH, lamb, pork, or POULTRY; (P)   \r\n  (2) Each time there is a change from working with raw FOODS to working with   READY-TO-EAT FOODS; (P)   \r\n  (3) Between uses with raw fruits and vegetables and with POTENTIALLY   HAZARDOUS FOOD (TIME/TEMPERATURE CONTROL FOR SAFETY FOOD);   (P)   \r\n  (4) Before using or storing a FOOD TEMPERATURE MEASURING   DEVICE; (P) and   \r\n  (5) At any time during the operation when contamination may have occurred. (P)\r\n(B) Subparagraph (A)(1) of this section does not apply if the FOOD-CONTACT SURFACE or UTENSIL is in contact with a succession of different raw animal FOODS each requiring a higher cooking temperature as specified under § 3-401.11 than the previous FOOD, such as preparing raw FISH followed by cutting raw poultry on the same cutting board.   \r\n(C) Except as specified in ¶ (D) of this section, if used with POTENTIALLY HAZARDOUS FOOD (TIME/TEMPERATURE CONTROL FOR SAFETY FOOD), EQUIPMENT FOOD-CONTACT SURFACES and UTENSILS shall be cleaned throughout the day at least every 4 hours. (P)   \r\n(D) Except when dry cleaning methods are used as specified under § 4-603.11, surfaces of UTENSILS and EQUIPMENT contacting FOOD that is not POTENTIALLY HAZARDOUS (TIME/TEMPERATURE CONTROL FOR SAFETY FOOD) shall be cleaned:     \r\n  (1)   At any time when contamination may have occurred;\r\n  (2)   At least every 24 hours for iced tea dispensers and CONSUMER self-service UTENSILS such as tongs, scoops, or ladles;\r\n  (3) Before restocking CONSUMER self-service EQUIPMENT and UTENSILS such as condiment dispensers and display containers; and\r\n  (4) In EQUIPMENT such as ice bins and BEVERAGE dispensing nozzles and   enclosed components of EQUIPMENT such as ice makers, cooking oil storage   tanks and distribution lines, BEVERAGE and syrup dispensing lines or tubes,   coffee bean grinders, and water vending EQUIPMENT:\r\n     (a) At a frequency specified by the manufacturer, or\r\n     (b) Absent manufacturer specifications, at a frequency necessary to preclude      accumulation of soil or mold.","violationType":"Core","itemDescription":null,"subItem":"","problemDescription":null,"subProblem":"","location":"KITCHEN","subLocation":"","corrected":"Not required","daysToCorrect":"10.0","correctedDate":null,"correctionDescription":null},{"violationCode":"6-301.14","violationDescription":"A sign or poster that notifies FOOD EMPLOYEES to wash their hands shall be provided at all HANDWASHING SINKS used by FOOD EMPLOYEES and shall be clearly visible to FOOD EMPLOYEES.\r\n","violationType":"Core","itemDescription":null,"subItem":"","problemDescription":null,"subProblem":"","location":"KITCHEN","subLocation":"","corrected":"Not required","daysToCorrect":"30.0","correctedDate":null,"correctionDescription":null},{"violationCode":"6-501.14","violationDescription":"(A) Intake and exhaust air ducts shall be cleaned and filters changed so they are not a source of contamination by dust, dirt, and other materials. \r\n(B) If vented to the outside, ventilation systems may not create a public health HAZARD or nuisance or unLAWful discharge.\r\n","violationType":"Core","itemDescription":null,"subItem":"","problemDescription":null,"subProblem":"","location":"KITCHEN","subLocation":"","corrected":"Not required","daysToCorrect":"30.0","correctedDate":null,"correctionDescription":null}]},{"inspectionid":"36715","inspectionDate":"2016-10-10T00:00:00","inspectionType":"Routine Inspection","inCompliance":"Yes","violationsByInspectionidList":[{"violationCode":"6-501.114","violationDescription":"The PREMISES shall be free of items that are unnecessary to the operation or maintenance of the establishment such as EQUIPMENT that is nonfunctional, no longer used and free of litter.\r\n","violationType":"Core","itemDescription":"Unnecessary item(s)","subItem":"","problemDescription":"Not removed from facility","subProblem":"","location":"BACK DOOR AREA","subLocation":"","corrected":"Not required","daysToCorrect":"30.0","correctedDate":null,"correctionDescription":"Remove from facility/premises."}]}]}]}},"pageContext":{"eid":"1462"}}