{"data":{"site":{"pathPrefix":"/restaurant-inspections"},"postgres":{"establishment":[{"establishmentid":"4370","name":"Fourteen East, LLC","address":"15 E Kirby St., Suite 113","zipcode":"48202","owner":"Joanne Czerny","licenseNumber":"072034","licenseType":"Fixed Establishment","establishmentType":"Food Service Establishment","establishmentStatus":"Open","riskCategory":"Medium","reviewFrequencyDays":"365.0","coords":"-83.06606,42.36049","geojson":{"id":"4370","type":"Feature","geometry":{"type":"Point","coordinates":[-83.066060084,42.3604947000001]},"properties":{"name":"Fourteen East, LLC","owner":"Joanne Czerny","address":"15 E Kirby St., Suite 113","zipcode":"48202","license_type":"Fixed Establishment","risk_category":"Medium","license_number":"072034","establishmentid":"4370","establishment_type":"Food Service Establishment","establishment_status":"Open","review_frequency_days":"365.0","most_recent_license_date":"5/7/2018"}},"nearbyList":[{"establishmentid":"2607","name":"International Kitchen","address":"111 E Kirby St","zipcode":"48202"},{"establishmentid":"51622770","name":"Small World Kitchen","address":"111 E Kirby","zipcode":"48202"},{"establishmentid":"3826","name":"Domino's Pizza","address":"5564 Woodward Ave","zipcode":"48201"},{"establishmentid":"2808","name":"College for Creative Studies","address":"201 E Kirby St","zipcode":"48202"},{"establishmentid":"5431","name":"Common Pub","address":"5440 Cass Ave ","zipcode":"48202"},{"establishmentid":"4248","name":"Detroit Institute of Arts-Kresge Court","address":"5200 Woodward Ave","zipcode":"48202"},{"establishmentid":"2330","name":"Detroit Institute of Arts -Cafe DIA","address":"5200 Woodward Ave","zipcode":"48202"},{"establishmentid":"4247","name":"Detroit Institute of Arts-Crystal Galler","address":"5200 Woodward Ave","zipcode":"48202"},{"establishmentid":"1440","name":"Campus Diner","address":"5470 Cass Ave","zipcode":"48202"},{"establishmentid":"573","name":"Circa 1890 Saloon","address":"5474 Cass Ave","zipcode":"48202"},{"establishmentid":"591","name":"Byblos Cafe & Grill","address":"87 W Palmer Ave","zipcode":"48202"},{"establishmentid":"611","name":"Scarab Club of Detroit","address":"217 Farnsworth","zipcode":"48202"},{"establishmentid":"4388","name":"The Potato Place","address":"107 W Warren Ave","zipcode":"48201-34"},{"establishmentid":"2411","name":"Epicurus Place","address":"111 W Warren Ave","zipcode":"48201"},{"establishmentid":"1161","name":"Olympic Grill","address":"119 W Warren Ave","zipcode":"48201"},{"establishmentid":"3909","name":"University Prep Math/Science 90/90","address":"5100 John R","zipcode":"48202"},{"establishmentid":"4857","name":"Tony V's Tavern","address":"5756 Cass Ave ","zipcode":"48202"},{"establishmentid":"51622814","name":"Tony V's Tavern","address":"5756 Cass Ave","zipcode":"48202"},{"establishmentid":"2126","name":"Michigan Science Center/Edibles Rex","address":"5020 John R Street","zipcode":"48202"},{"establishmentid":"5158","name":"Red Pepper Foods","address":"4800 Woodward Ave","zipcode":"48201"}],"inspectionsByEstablishmentidList":[{"inspectionid":"43101","inspectionDate":"2018-08-09T00:00:00","inspectionType":"Routine Inspection","inCompliance":"Yes","violationsByInspectionidList":[{"violationCode":"MFL289.2129","violationDescription":"Sec. 2129. (1) All of the following food establishments shall employ a minimum of 1 managerial employee who is currently certified under a personnel certification program accredited by the American national standards institute, utilizing the conference for food protection standards:  (a) A food service establishment that is not any of the following:    (i) Operating under a temporary food service establishment license.  (ii) A vending machine location.     (b) An extended retail food establishment.  (c) Operated within a retail grocery.  (2) An individual certified under subsection (1) shall be recognized with full faith and credit by the state and all local units of government throughout the state.  (3) The department may promulgate rules to do all of the following:  (a) Develop requirements for retail food establishments to follow when employing certified food safety managers or personnel.  (b) Set a reasonable date for compliance with the requirements under subdivision (a) taking into consideration existing local personnel certification requirements.  (c) Establish certification fees necessary to implement, maintain, and track certified individuals directly or by contract. The department may annually adjust the schedule of fees to provide that the fee charged is sufficient to cover the cost of the certification tracking program.  (d) Implement and enforce the requirements described in subdivision (a).    (4) The certification program developed by the American national standards institute, as it exists on April 1, 2008 , is incorporated by reference. The department may adopt updates to the certification program accreditation standards in subsection (1) by rule.     (5) This section does not prohibit any local legislative body from implementing a food handler program, an employee health certification program, or a manager certification program, if it is not in conflict with this section.","violationType":"Core","itemDescription":"Person-in-charge","subItem":"","problemDescription":null,"subProblem":"","location":"PERSON IN CHARGE","subLocation":"","corrected":"Not required","daysToCorrect":"30.0","correctedDate":null,"correctionDescription":"Provide"},{"violationCode":"6-501.12","violationDescription":"(A) PHYSICAL FACILITIES shall be cleaned as often as necessary to keep them clean.\r\n(B) Except spill cleanup, cleaning shall be done during periods when the least amount of FOOD is exposed such as after closing. ","violationType":"Core","itemDescription":"Physical facilities/structures","subItem":"walls","problemDescription":"Soiled","subProblem":"","location":"3 COMPARTMENT SINK AREA","subLocation":"","corrected":"Not required","daysToCorrect":"30.0","correctedDate":null,"correctionDescription":"Clean."}]},{"inspectionid":"39984","inspectionDate":"2017-09-13T00:00:00","inspectionType":"Routine Inspection","inCompliance":"Yes","violationsByInspectionidList":[{"violationCode":"4-302.12","violationDescription":"(A) FOOD TEMPERATURE MEASURING DEVICES shall be provided and readily accessible for use in ensuring attainment and maintenance of FOOD temperatures as specified under Chapter 3. (Pf)   \r\n(B) A TEMPERATURE MEASURING DEVICE with a suitable small-diameter probe that is designed to measure the temperature of thin masses shall be provided and readily accessible to accurately measure the temperature in thin FOODS such as MEAT patties and FISH filets. (Pf)\r\n","violationType":"Foundation","itemDescription":"Food thermometer(s)","subItem":"probe","problemDescription":"Not provided","subProblem":"","location":"FACILITY","subLocation":"","corrected":"Yes","daysToCorrect":"10.0","correctedDate":"2017-10-02T00:00:00","correctionDescription":"Provide as required"},{"violationCode":"MFL289.2129","violationDescription":"Sec. 2129. (1) All of the following food establishments shall employ a minimum of 1 managerial employee who is currently certified under a personnel certification program accredited by the American national standards institute, utilizing the conference for food protection standards:  (a) A food service establishment that is not any of the following:    (i) Operating under a temporary food service establishment license.  (ii) A vending machine location.     (b) An extended retail food establishment.  (c) Operated within a retail grocery.  (2) An individual certified under subsection (1) shall be recognized with full faith and credit by the state and all local units of government throughout the state.  (3) The department may promulgate rules to do all of the following:  (a) Develop requirements for retail food establishments to follow when employing certified food safety managers or personnel.  (b) Set a reasonable date for compliance with the requirements under subdivision (a) taking into consideration existing local personnel certification requirements.  (c) Establish certification fees necessary to implement, maintain, and track certified individuals directly or by contract. The department may annually adjust the schedule of fees to provide that the fee charged is sufficient to cover the cost of the certification tracking program.  (d) Implement and enforce the requirements described in subdivision (a).    (4) The certification program developed by the American national standards institute, as it exists on April 1, 2008 , is incorporated by reference. The department may adopt updates to the certification program accreditation standards in subsection (1) by rule.     (5) This section does not prohibit any local legislative body from implementing a food handler program, an employee health certification program, or a manager certification program, if it is not in conflict with this section.","violationType":"Core","itemDescription":"Person-in-charge","subItem":"","problemDescription":null,"subProblem":"","location":"PERSON IN CHARGE","subLocation":"","corrected":"Not required","daysToCorrect":"30.0","correctedDate":null,"correctionDescription":"Provide"}]},{"inspectionid":"36172","inspectionDate":"2016-08-16T00:00:00","inspectionType":"Routine Inspection","inCompliance":"Yes","violationsByInspectionidList":[{"violationCode":"3-501.16","violationDescription":"Except during preparation, cooking, or cooling, or when time is used as the public health control POTENTIALLY HAZARDOUS FOOD (TIME/TEMPERATURE CONTROL FOR SAFETY FOOD) shall be maintained:\r\n(A)  135ºF or above, except that roasts properly cooked and cooled may be held              at a temperature of 130ºF; or (P)\r\n(B)   At 41ºF or less (P)\r\n","violationType":"Priority","itemDescription":"Cold food item(s)","subItem":"","problemDescription":"Stored above 41 degrees F","subProblem":"","location":"COUNTER","subLocation":"IMPROPER Food Storage","corrected":"Yes","daysToCorrect":"10.0","correctedDate":"2016-08-16T00:00:00","correctionDescription":"Store below 41 degrees F."}]}]}]}},"pageContext":{"eid":"4370"}}