{"data":{"site":{"pathPrefix":"/restaurant-inspections"},"postgres":{"establishment":[{"establishmentid":"4876","name":"El Parian #3","address":"1064 London St","zipcode":"48146","owner":"Ms. Diaz","licenseNumber":"208155","licenseType":"Mobile Food Establishment","establishmentType":"LHD - Mobile Food Establishmen","establishmentStatus":"Seasonal","riskCategory":null,"reviewFrequencyDays":"395.0","coords":"-83.17814,42.23924","geojson":{"id":"4876","type":"Feature","geometry":{"type":"Point","coordinates":[-83.178140634,42.239235738]},"properties":{"name":"El Parian #3","owner":"Ms. Diaz","address":"1064 London St","zipcode":"48146","license_type":"Mobile Food Establishment","risk_category":null,"license_number":"208155","establishmentid":"4876","establishment_type":"LHD - Mobile Food Establishmen","establishment_status":"Seasonal","review_frequency_days":"395.0","most_recent_license_date":"4/23/2019"}},"nearbyList":[{"establishmentid":"4660","name":"El Parian #2","address":"1064 London St","zipcode":"48149"},{"establishmentid":"4246","name":"El Parian #1","address":"1064 London St","zipcode":"48149"},{"establishmentid":"3590","name":"Happy's Pizza #22","address":"3517 S Fort St","zipcode":"48217"},{"establishmentid":"51622686","name":"Detroit Police Athletic League","address":"1680 Michigan Ave","zipcode":"48216"},{"establishmentid":"5378","name":"Bobcat Bonnies","address":"1800 Michigan Ave","zipcode":"48216"},{"establishmentid":"1371","name":"The Works Bar & Grill","address":"1846 Michigan Ave","zipcode":"48216"},{"establishmentid":"2154","name":"White Castle #19","address":"1930-50  Michigan Ave","zipcode":"48216"},{"establishmentid":"539","name":"Motor City Wine Bar","address":"1949 Michigan Ave","zipcode":"48216"},{"establishmentid":"51622746","name":"Tacos El Rodeo","address":"1949 Michigan Ave","zipcode":"48216"},{"establishmentid":"592","name":"Gaelic League Irish American Club","address":"2066-68 Michigan Ave","zipcode":"48216"}],"inspectionsByEstablishmentidList":[{"inspectionid":"47723","inspectionDate":"2019-05-16T00:00:00","inspectionType":"Mobile Inspection","inCompliance":"Yes","violationsByInspectionidList":[{"violationCode":"4-204.11","violationDescription":"Exhaust ventilation hood systems in FOOD preparation and WAREWASHING areas including components such as hoods, fans, guards, and ducting shall be designed to prevent grease or condensation from draining or dripping onto FOOD, EQUIPMENT, UTENSILS, LINENS, and SINGLE-SERVICE and SINGLE-USE ARTICLES.\r\n","violationType":"Core","itemDescription":"Exhaust ventilation hood system(s)","subItem":"","problemDescription":"Designed to allow grease or condensation from draining/dripping onto","subProblem":"Equipment","location":"MOBILE UNIT","subLocation":"Missing Grease collection device","corrected":"Not required","daysToCorrect":"30.0","correctedDate":null,"correctionDescription":null},{"violationCode":"4-101.19","violationDescription":"NonFOOD-CONTACT SURFACES of EQUIPMENT that are exposed to splash, spillage, or other FOOD soiling or that require frequent cleaning shall be constructed of a CORROSION-RESISTANT, nonabsorbent, and SMOOTH material.\r\n","violationType":"Core","itemDescription":"Cardboard","subItem":"","problemDescription":"Constructed from materials that are not","subProblem":"Finished to be smooth & easily cleanable","location":"MOBILE UNIT","subLocation":"Under the Microwave Oven(s)","corrected":"Not required","daysToCorrect":"30.0","correctedDate":null,"correctionDescription":null}]},{"inspectionid":"42558","inspectionDate":"2018-06-13T00:00:00","inspectionType":"Routine Inspection","inCompliance":"Yes","violationsByInspectionidList":[]},{"inspectionid":"44709","inspectionDate":"2017-08-12T00:00:00","inspectionType":"Routine Inspection","inCompliance":"Yes","violationsByInspectionidList":[]},{"inspectionid":"39115","inspectionDate":"2017-05-16T00:00:00","inspectionType":"Routine Inspection","inCompliance":"Yes","violationsByInspectionidList":[]}]}],"maxInspectionDate":[{"inspectionDate":"2019-10-31T00:00:00"}]}},"pageContext":{"eid":"4876"}}