{"data":{"site":{"pathPrefix":"/restaurant-inspections"},"postgres":{"establishment":[{"establishmentid":"51623047","name":"Brush St. Stadium Deli","address":"2458 Brush St","zipcode":"48201","owner":"Mona Ross Gardner","licenseNumber":"070319JB","licenseType":"Fixed Establishment","establishmentType":"Food Service Establishment","establishmentStatus":"Open","riskCategory":null,"reviewFrequencyDays":"180.0","coords":"-83.04875,42.34241","geojson":{"id":"51623047","type":"Feature","geometry":{"type":"Point","coordinates":[-83.048752709,42.3424114860001]},"properties":{"name":"Brush St. Stadium Deli","owner":"Mona Ross Gardner","address":"2458 Brush St","zipcode":"48201","license_type":"Fixed Establishment","risk_category":null,"license_number":"070319JB","establishmentid":"51623047","establishment_type":"Food Service Establishment","establishment_status":"Open","review_frequency_days":"180.0","most_recent_license_date":null}},"nearbyList":[{"establishmentid":"5248","name":"234 Winder St. Inn Community Center","address":"2458 Brush St","zipcode":"48201"},{"establishmentid":"51622828","name":"Visions","address":"2458 Brush","zipcode":"48201"},{"establishmentid":"4221","name":"Comerica Park- Press Box Lounge","address":"2100 Woodward Ave","zipcode":"48201"},{"establishmentid":"4220","name":"Comerica Park- Champions Club","address":"2100 Woodward Ave ","zipcode":"48201"},{"establishmentid":"4218","name":"Comerica Park- Kitchens Upper/Lower","address":"2100 Woodward Ave","zipcode":"48201"},{"establishmentid":"4339","name":"Comerica Park- Mobile Venues","address":"2100 Woodward Ave","zipcode":"48201"},{"establishmentid":"4225","name":"Comerica Park- Concession Stands","address":"2100 Woodward Ave","zipcode":"48201"},{"establishmentid":"4222","name":"Comerica Park- Michigan Craft Beer","address":"2100 Woodward Ave","zipcode":"48201"},{"establishmentid":"4223","name":"Comerica Park- 300 Level Lounge","address":"2100 Woodward Ave","zipcode":"48201"},{"establishmentid":"51622520","name":"Comerica Park- Pitchers Pub","address":"2100 Woodward Ave","zipcode":"48226"}],"inspectionsByEstablishmentidList":[{"inspectionid":"49142","inspectionDate":"2019-09-18T00:00:00","inspectionType":"Routine Inspection","inCompliance":"Yes","violationsByInspectionidList":[{"violationCode":"4-904.11","violationDescription":"(A) SINGLE-SERVICE and SINGLE-USE ARTICLES and cleaned and SANITIZED UTENSILS shall be handled, displayed, and dispensed so that contamination of FOOD- and lip-contact surfaces is prevented.   \r\n(B) Knives, forks, and spoons that are not prewrapped shall be presented so that only the handles are touched by EMPLOYEES and by CONSUMERS if CONSUMER self-service is provided.   \r\n(C) Except as specified under Â¶ (B) of this section, SINGLE-SERVICE ARTICLES that are intended for FOOD- or lip-contact shall be furnished for CONSUMER self-service with the original individual wrapper intact or from an APPROVED dispenser.","violationType":"Core","itemDescription":"Utensil(s)","subItem":"","problemDescription":"Stored with food-contact portion exposed","subProblem":"","location":"SERVICE AREA","subLocation":"","corrected":"Yes","daysToCorrect":"30.0","correctedDate":"2019-09-18T00:00:00","correctionDescription":null},{"violationCode":"4-903.11","violationDescription":"Cleaned EQUIPMENT and UTENSILS, laundered LINENS, and SINGLE-SERVICE and SINGLE-USE ARTICLES shall be stored in an approved manner and location.\r\n","violationType":"Core","itemDescription":"Clean equipment/utensil(s)","subItem":"","problemDescription":"Not stored in self-draining position","subProblem":"","location":"SERVICE AREA","subLocation":"","corrected":"Yes","daysToCorrect":"30.0","correctedDate":"2019-09-18T00:00:00","correctionDescription":null}]}]}],"maxInspectionDate":[{"inspectionDate":"2019-10-31T00:00:00"}]}},"pageContext":{"eid":"51623047"}}