{"data":{"site":{"pathPrefix":"/restaurant-inspections"},"postgres":{"establishment":[{"establishmentid":"51622728","name":"Good Krispy Fish & Chicken","address":"5001 Trumbull St","zipcode":"48208","owner":"Ali Almikhlafi","licenseNumber":"229382","licenseType":"Fixed Establishment","establishmentType":"Food Service Establishment","establishmentStatus":"Open","riskCategory":"High","reviewFrequencyDays":"180.0","coords":"-83.07940,42.35227","geojson":{"id":"51622728","type":"Feature","geometry":{"type":"Point","coordinates":[-83.0793980449999,42.3522675200001]},"properties":{"name":"Good Krispy Fish & Chicken","owner":"Ali Almikhlafi","address":"5001 Trumbull St","zipcode":"48208","license_type":"Fixed Establishment","risk_category":"High","license_number":"229382","establishmentid":"51622728","establishment_type":"Food Service Establishment","establishment_status":"Open","review_frequency_days":"180.0","most_recent_license_date":"4/26/2019"}},"nearbyList":[{"establishmentid":"51622874","name":"Katsu Detroit","address":"5069 Trumbull Ave","zipcode":"48208"},{"establishmentid":"5156","name":"Pie-Sci Pizza","address":"5163 Trumbull Ave","zipcode":"48208"},{"establishmentid":"3801","name":"Woodbridge Pub","address":"5169 Trumbull Ave","zipcode":"48208"},{"establishmentid":"952","name":"Douglass Academy For Young Men","address":"2001 W Warren Ave","zipcode":"48208"},{"establishmentid":"493","name":"Dynasty Chinese Food","address":"1115 W Warren Ave","zipcode":"48201"},{"establishmentid":"1733","name":"WSU Sub Shops LLC/Subway","address":"1113 W Warren Ave","zipcode":"48201"},{"establishmentid":"966","name":"Edmonson Elementary School","address":"1300 W Canfield St","zipcode":"48201"},{"establishmentid":"2442","name":"George Crockett Academy","address":"4851 Fourteenth St","zipcode":"48208"},{"establishmentid":"1411","name":"St. Leo's","address":"4860 Fifteenth St","zipcode":"48208"},{"establishmentid":"4216","name":"Harmoni Garden","address":"4704 Anthony Wayne Dr","zipcode":"48201"}],"inspectionsByEstablishmentidList":[{"inspectionid":"48914","inspectionDate":"2019-08-28T00:00:00","inspectionType":"Routine Inspection","inCompliance":"Yes","violationsByInspectionidList":[]},{"inspectionid":"45307","inspectionDate":"2019-02-25T00:00:00","inspectionType":"Routine Inspection","inCompliance":"Yes","violationsByInspectionidList":[{"violationCode":"4-302.14","violationDescription":"A test kit or other device that accurately measures the concentration in mg/L of SANITIZING solutions shall be provided. (Pf)\r\n","violationType":"Foundation","itemDescription":"Sanitizer test kit","subItem":"quaternary ammonia","problemDescription":"Not provided","subProblem":"","location":"3 COMPARTMENT SINK AREA","subLocation":"","corrected":"Yes","daysToCorrect":"10.0","correctedDate":"2019-04-09T00:00:00","correctionDescription":"Provide as required"}]},{"inspectionid":"42908","inspectionDate":"2018-07-18T00:00:00","inspectionType":"Routine Inspection","inCompliance":"Yes","violationsByInspectionidList":[{"violationCode":"5-205.11","violationDescription":"(A) A HANDWASHING SINK shall be maintained so that it is accessible at all times for EMPLOYEE use and used for no other purpose. (Pf)\r\n(B)  An automatic handwashing facility shall be used in accordance with manufacturer's instructions. (Pf)\r\n","violationType":"Foundation","itemDescription":"Handwashing sink(s)","subItem":"","problemDescription":"Not easily accessible","subProblem":"Items stored In front of","location":"ESTABLISHMENT","subLocation":"At the Handsink","corrected":"Yes","daysToCorrect":"10.0","correctedDate":"2018-07-18T00:00:00","correctionDescription":"Remove items from handsink.  Do not store items at handsink."},{"violationCode":"4-501.11","violationDescription":"EQUIPMENT shall be maintained in a state of repair and condition that meets the requirements of the code.\r\n","violationType":"Core","itemDescription":"Equipment components","subItem":"seals","problemDescription":"In poor repair","subProblem":"","location":"WALK-IN COOLER","subLocation":"At the gasket/rubber lining","corrected":"Not required","daysToCorrect":"30.0","correctedDate":null,"correctionDescription":null}]},{"inspectionid":"42213","inspectionDate":"2018-05-15T00:00:00","inspectionType":"Routine Inspection","inCompliance":"Yes","violationsByInspectionidList":[{"violationCode":"4-204.11","violationDescription":"Exhaust ventilation hood systems in FOOD preparation and WAREWASHING areas including components such as hoods, fans, guards, and ducting shall be designed to prevent grease or condensation from draining or dripping onto FOOD, EQUIPMENT, UTENSILS, LINENS, and SINGLE-SERVICE and SINGLE-USE ARTICLES.\r\n","violationType":"Core","itemDescription":"Exhaust ventilation hood system(s)","subItem":"","problemDescription":"Designed to allow grease or condensation from draining/dripping onto","subProblem":"Equipment","location":"FRONT PREP AREA","subLocation":"Missing Spacer","corrected":"Not required","daysToCorrect":"30.0","correctedDate":null,"correctionDescription":"Repair/replace to prevent grease accumulation/dripping/draining."}]}]}],"maxInspectionDate":[{"inspectionDate":"2019-10-31T00:00:00"}]}},"pageContext":{"eid":"51622728"}}