{"data":{"site":{"pathPrefix":"/restaurant-inspections"},"postgres":{"establishment":[{"establishmentid":"2023","name":"La Sierra","address":"5400 Chopin","zipcode":"4821","owner":"Corral","licenseNumber":"076390","licenseType":"Fixed Establishment","establishmentType":"Food Service Establishment","establishmentStatus":"Open","riskCategory":null,"reviewFrequencyDays":"90.0","coords":"-83.13620,42.33548","geojson":{"id":"2023","type":"Feature","geometry":{"type":"Point","coordinates":[-83.13620097,42.335475398]},"properties":{"name":"La Sierra","owner":"Corral","address":"5400 Chopin","zipcode":"4821","license_type":"Fixed Establishment","risk_category":null,"license_number":"076390","establishmentid":"2023","establishment_type":"Food Service Establishment","establishment_status":"Open","review_frequency_days":"90.0","most_recent_license_date":"9/5/2014"}},"nearbyList":[{"establishmentid":"51622564","name":"La Nueva Sierra","address":"5400 Chopin St","zipcode":"4821"},{"establishmentid":"51622525","name":"El Brasero","address":"5546 Chopin St","zipcode":"4821"},{"establishmentid":"5426","name":"Asty Time Inc.","address":"7340 McGraw Ave","zipcode":"4821"},{"establishmentid":"3481","name":"Cecil Center--Matrix","address":"5690 Cecil St","zipcode":"4821"},{"establishmentid":"1275","name":"Munger PK-8","address":"5525 Martin St","zipcode":"48238"},{"establishmentid":"1009","name":"General George Patton Post #11","address":"4930 Central","zipcode":"4821"},{"establishmentid":"2285","name":"Little Caesar's Pizza","address":"7633 Michigan Ave","zipcode":"4821"},{"establishmentid":"5050","name":"El Rey De Las Arepas","address":"7701 McGraw St","zipcode":"4821"},{"establishmentid":"758","name":"Alaskan Bar Homestead #3","address":"7625 Michigan Ave","zipcode":"4821"},{"establishmentid":"3914","name":"Subway #29822","address":"7300 Michigan Ave","zipcode":"4821"}],"inspectionsByEstablishmentidList":[{"inspectionid":"37508","inspectionDate":"2016-12-02T00:00:00","inspectionType":"Routine Inspection","inCompliance":"No","violationsByInspectionidList":[{"violationCode":"5-203.11","violationDescription":"(A)  A HANDWASHING SINK or an approved automatic handwashing unit shall be provided as necessary for their convenient use by EMPLOYEES in areas specified and not fewer than the number of HANDWASHING SINKS required by LAW shall be provided. (Pf)\r\n(B)  If APPROVED, when FOOD exposure is limited and HANDWASHING SINKS are not conveniently available, such as in some mobile or TEMPORARY FOOD ESTABLISHMENTS or at some VENDING MACHINE LOCATIONS, EMPLOYEES may use chemically treated towelettes for handwashing.\r\n","violationType":"Foundation","itemDescription":null,"subItem":"","problemDescription":null,"subProblem":"","location":"BAR","subLocation":"","corrected":"Yes","daysToCorrect":"10","correctedDate":"2017-01-11T00:00:00","correctionDescription":null},{"violationCode":"4-302.14","violationDescription":"A test kit or other device that accurately measures the concentration in mg/L of SANITIZING solutions shall be provided. (Pf)\r\n","violationType":"Foundation","itemDescription":"Sanitizer test kit","subItem":"","problemDescription":"Not provided","subProblem":"","location":"BAR","subLocation":"","corrected":"No","daysToCorrect":"10","correctedDate":null,"correctionDescription":"Provide."}]}]}],"maxInspectionDate":[{"inspectionDate":"2020-10-30T00:00:00"}]}},"pageContext":{"eid":"2023"}}