{"data":{"site":{"pathPrefix":"/restaurant-inspections"},"postgres":{"establishment":[{"establishmentid":"4613","name":"El Taco Veloz #1","address":"6170 Toledo","zipcode":"48209","owner":"Hector Hernandez","licenseNumber":"038375","licenseType":"Mobile Food Establishment","establishmentType":"LHD - Mobile Food Establishmen","establishmentStatus":"Seasonal","riskCategory":"Medium","reviewFrequencyDays":"395","coords":"-83.10986,42.31904","geojson":{"id":"4613","type":"Feature","geometry":{"type":"Point","coordinates":[-83.109862778,42.31903615]},"properties":{"name":"El Taco Veloz #1","owner":"Hector Hernandez","address":"6170 Toledo","zipcode":"48209","license_type":"Mobile Food Establishment","risk_category":"Medium","license_number":"038375","establishmentid":"4613","establishment_type":"LHD - Mobile Food Establishmen","establishment_status":"Seasonal","review_frequency_days":"395","most_recent_license_date":"5/12/2016"}},"nearbyList":[{"establishmentid":"51622920","name":"El Taco Veloz #3","address":"6170 Toledo St","zipcode":"48209"},{"establishmentid":"4342","name":"El Taco Veloz","address":"6170 Toledo St","zipcode":"48209"},{"establishmentid":"51622911","name":"El Taco Veloz #1","address":"6170 Toledo St","zipcode":"48209"},{"establishmentid":"4668","name":"El Taco Veloz #2","address":"6170 Toledo Rd","zipcode":"48209"},{"establishmentid":"3143","name":"Tacos El Taquito Mexican Food","address":"1985 Military St","zipcode":"48209"},{"establishmentid":"931","name":"Neinas Elementary","address":"6021 McMillan St","zipcode":"48209"},{"establishmentid":"1052","name":"Blue Diamond","address":"2453 Campbell St N","zipcode":"48209"},{"establishmentid":"51623062","name":"Wing Stop","address":"6166 W Vernor","zipcode":"48209"},{"establishmentid":"4848","name":"Subway","address":"6166 W Vernor","zipcode":"48209"},{"establishmentid":"5104","name":"Bella's Coffee House ","address":"2303 Campbell St","zipcode":"48209"}],"inspectionsByEstablishmentidList":[{"inspectionid":"42692","inspectionDate":"2018-06-21T00:00:00","inspectionType":"Routine Inspection","inCompliance":"Yes","violationsByInspectionidList":[{"violationCode":"3-501.17","violationDescription":"(A)  READY-TO-EAT, POTENTIALLY HAZARDOUS FOOD (TIME/TEMPERATURE CONTROL FOR SAFETY FOOD)  prepared and held refrigerated for more than 24 hours in a FOOD ESTABLISHMENT  shall be clearly marked at the time of preparation to indicate the date or day by which the FOOD shall be consumed. (Pf)\r\n(B)  A container of refrigerated, commercially prepared READY-TO-EAT POTENTIALLY HAZARDOUS FOOD (TIME/TEMPERATURE CONTROL FOR SAFETY FOOD)  shall be clearly marked, at the time the original container is opened in a FOOD ESTABLISHMENT, to indicate the date or day by which the FOOD shall be consumed. (Pf)\r\n\r\nA date marking system that does not exceed 7 days, including date of preparation, or opening is to be used. (Pf)\r\n","violationType":"Foundation","itemDescription":"In house prepared ready-to-eat potentially hazardous  food(s)","subItem":"","problemDescription":"Improperly date marked","subProblem":"","location":"Refrigerator","subLocation":"Above the","corrected":"Yes","daysToCorrect":"10","correctedDate":"2018-06-21T00:00:00","correctionDescription":"Establishment shall provide a clear date marking system."}]},{"inspectionid":"41706","inspectionDate":"2018-01-24T00:00:00","inspectionType":"Routine Inspection","inCompliance":"Yes","violationsByInspectionidList":[{"violationCode":"5-104.12","violationDescription":"Water meeting the requirements shall be made available for a mobile facility, for a TEMPORARY FOOD ESTABLISHMENT without a permanent water supply, and for a FOOD ESTABLISHMENT with a temporary interruption of its water supply through an approved method. (Pf)\r\n","violationType":"Foundation","itemDescription":"Alternative water supply","subItem":"","problemDescription":"Not approved for use","subProblem":"","location":"TRUCK","subLocation":"Above the ACCESS","corrected":"Yes","daysToCorrect":"10","correctedDate":"2018-01-24T00:00:00","correctionDescription":"Discontinue use.  Provide approved distribution system."}]},{"inspectionid":"39326","inspectionDate":"2017-07-19T00:00:00","inspectionType":"Routine Inspection","inCompliance":"Yes","violationsByInspectionidList":[]}]}],"maxInspectionDate":[{"inspectionDate":"2020-05-29T00:00:00"}]}},"pageContext":{"eid":"4613"}}