{"data":{"site":{"pathPrefix":"/restaurant-inspections"},"postgres":{"establishment":[{"establishmentid":"51622948","name":"Krispy Chicken","address":"1140 Clay St","zipcode":"48211","owner":"WSM Group LLC","licenseNumber":"237190","licenseType":"Fixed Establishment","establishmentType":"Food Service Establishment","establishmentStatus":"Open","riskCategory":"High","reviewFrequencyDays":"180","coords":"-83.06389,42.37784","geojson":{"id":"51622948","type":"Feature","geometry":{"type":"Point","coordinates":[-83.063893011,42.377840157]},"properties":{"name":"Krispy Chicken","owner":"WSM Group LLC","address":"1140 Clay St","zipcode":"48211","license_type":"Fixed Establishment","risk_category":"High","license_number":"237190","establishmentid":"51622948","establishment_type":"Food Service Establishment","establishment_status":"Open","review_frequency_days":"180","most_recent_license_date":"3/11/2019"}},"nearbyList":[{"establishmentid":"1871","name":"Clay Super Coney Island","address":"1141 Clay St","zipcode":"48211"},{"establishmentid":"4411","name":"Triumph Church","address":"2760 E Grand Blvd","zipcode":"48211"},{"establishmentid":"2404","name":"The Schvitz ","address":"8295 Oakland Ave","zipcode":"48211"},{"establishmentid":"4173","name":"Hastings Street Ballroom & DBA Tangent G","address":"715 E Milwaukee Ave","zipcode":"48202"},{"establishmentid":"5346","name":"Clay Street Entertainment","address":"1680 Clay St","zipcode":"48211"},{"establishmentid":"785","name":"Parks Old Style Bar-B-Q ","address":"7444 Beaubien St","zipcode":"48202"},{"establishmentid":"51622949","name":"Upfront Hospitality LLC dba Oak and Reel","address":"2921 E Grand Blvd","zipcode":"48202"},{"establishmentid":"51622696","name":"Kiesling","address":"449 E Milwaukee Ave","zipcode":"48202"},{"establishmentid":"696","name":"Grandy's Coney Island","address":"1200 Holbrook Rd","zipcode":"48211"},{"establishmentid":"5204","name":"Miss Virginia's Ice Cream Parlor","address":"8801 Oakland Ave","zipcode":"48211"}],"inspectionsByEstablishmentidList":[{"inspectionid":"49178","inspectionDate":"2019-09-16T00:00:00","inspectionType":"Routine Inspection","inCompliance":"Yes","violationsByInspectionidList":[{"violationCode":"3-501.16","violationDescription":"Except during preparation, cooking, or cooling, or when time is used as the public health control POTENTIALLY HAZARDOUS FOOD (TIME/TEMPERATURE CONTROL FOR SAFETY FOOD) shall be maintained:\r\n(A)  135ºF or above, except that roasts properly cooked and cooled may be held              at a temperature of 130ºF; or (P)\r\n(B)   At 41ºF or less (P)\r\n","violationType":"Priority","itemDescription":"Cold food item(s)","subItem":"","problemDescription":"Stored above 41 degrees F","subProblem":"","location":"WALK-IN COOLER","subLocation":"","corrected":"Yes","daysToCorrect":"10","correctedDate":"2019-09-16T00:00:00","correctionDescription":null},{"violationCode":"2-301.14","violationDescription":"FOOD EMPLOYEES shall clean their hands and exposed portions of their arms as specified under § 2-301.12 immediately before engaging in FOOD preparation including working with exposed FOOD, clean EQUIPMENT and UTENSILS, and unwrapped SINGLE-SERVICE and SINGLE-USE ARTICLES (P) and:\r\n(A)     After touching bare human body parts other than clean hands and clean, exposed portions of arms; (P)\r\n(B)     After using the toilet room; (P)\r\n(C)     After caring for or handling SERVICE ANIMALS or aquatic animals as specified in ¶ 2-403.11(B); (P).\r\n(D)     Except as specified in ¶ 2-401.11(B), after coughing, sneezing, using a handkerchief or disposable tissue, using tobacco, eating, or drinking; (P)\r\n(E)     After handling soiled EQUIPMENT or UTENSILS; (P)\r\n(F)     During FOOD preparation, as often as necessary to remove soil and contamination and to prevent cross contamination when changing tasks; (P)\r\n(G)     When switching between working with raw FOOD and working with READY-TO-EAT FOOD; (P)\r\n(H)     Before donning gloves for working with FOOD; (P) and\r\n(I)      After engaging in other activities that contaminate the hands. (P)","violationType":"Priority","itemDescription":"Employee(s)","subItem":"","problemDescription":"Did not wash hands","subProblem":" after handling soiled equipment, surfaces, utensils","location":"PERSON IN CHARGE","subLocation":"","corrected":"Yes","daysToCorrect":"10","correctedDate":"2019-09-16T00:00:00","correctionDescription":null},{"violationCode":"6-501.12","violationDescription":"(A) PHYSICAL FACILITIES shall be cleaned as often as necessary to keep them clean.\r\n(B) Except spill cleanup, cleaning shall be done during periods when the least amount of FOOD is exposed such as after closing. ","violationType":"Core","itemDescription":"Physical facilities/structures","subItem":"","problemDescription":"Soiled","subProblem":"","location":"FLOOR","subLocation":"","corrected":"Yes","daysToCorrect":"30","correctedDate":"2019-10-04T00:00:00","correctionDescription":null}]}]}],"maxInspectionDate":[{"inspectionDate":"2020-10-30T00:00:00"}]}},"pageContext":{"eid":"51622948"}}