{"data":{"site":{"pathPrefix":"/restaurant-inspections"},"postgres":{"establishment":[{"establishmentid":"5079","name":"Diversified Members Credit Union","address":"1480 E Jefferson Ave","zipcode":"48207","owner":"Diversified Members Credit Uni","licenseNumber":"202830","licenseType":"Fixed Establishment","establishmentType":"Food Service Establishment","establishmentStatus":"Open","riskCategory":"Medium","reviewFrequencyDays":"365","coords":"-83.03084,42.33432","geojson":{"id":"5079","type":"Feature","geometry":{"type":"Point","coordinates":[-83.030841609,42.334319823]},"properties":{"name":"Diversified Members Credit Union","owner":"Diversified Members Credit Uni","address":"1480 E Jefferson Ave","zipcode":"48207","license_type":"Fixed Establishment","risk_category":"Medium","license_number":"202830","establishmentid":"5079","establishment_type":"Food Service Establishment","establishment_status":"Open","review_frequency_days":"365","most_recent_license_date":"4/29/2019"}},"nearbyList":[{"establishmentid":"775","name":"Yondotega Club","address":"1450 E Jefferson Ave","zipcode":"48207"},{"establishmentid":"2357","name":"Steve's Soul Food Det/The Key Club","address":"1440 Franklin St #200","zipcode":"48207"},{"establishmentid":"5297","name":"Papa's Pizza","address":"1405 E Jefferson Ave","zipcode":"48207"},{"establishmentid":"449","name":"Clique Restaurant","address":"1326 E Jefferson Ave","zipcode":"48207"},{"establishmentid":"5199","name":"Riverwalk Cafe Carousel","address":"1340 E Atwater St","zipcode":"48207"},{"establishmentid":"1618","name":"Bai Mai Thai Lafayette","address":"1541 E Lafayette Ave","zipcode":"48207"},{"establishmentid":"2752","name":"Society Detroit","address":"1995 Woodbridge St","zipcode":"48207"},{"establishmentid":"4756","name":"Urban Soul Restaurant","address":"1535 E Lafayette Ave","zipcode":"48207"},{"establishmentid":"5313","name":"Chill","address":"2000 Woodbridge St","zipcode":"48207"},{"establishmentid":"1953","name":"Main Street Grill and Coney Island","address":"1985 E Jefferson Ave","zipcode":"48207"}],"inspectionsByEstablishmentidList":[{"inspectionid":"48466","inspectionDate":"2019-07-19T00:00:00","inspectionType":"Routine Inspection","inCompliance":"Yes","violationsByInspectionidList":[{"violationCode":"MFL289.2129","violationDescription":"Sec. 2129. (1) All food establishments shall employ a minimum of 1 managerial employee as a food safety manager, who must be an individual who is currently certified under a personnel certification program accredited by the American National Standards Institute, utilizing the Conference for Food Protection standards:\r\n(2) Beginning January 14, 2017 and every 5 years thereafter, a certified  food safety manager who supervises the operations of a food service establishment shall have completed a food safety training program\r\ncontaining an allergen awareness  component that has been approved by  the department. A food service establishment shall retain records on the  site of the food service establishment documenting compliance of its  certified food safety managers with this subsection. ","violationType":"Core","itemDescription":"Person-in-charge","subItem":"","problemDescription":null,"subProblem":"","location":"ESTABLISHMENT","subLocation":"","corrected":"Not required","daysToCorrect":"30","correctedDate":null,"correctionDescription":null}]},{"inspectionid":"43769","inspectionDate":"2018-07-23T00:00:00","inspectionType":"Routine Inspection","inCompliance":"Yes","violationsByInspectionidList":[{"violationCode":"MFL289.2129","violationDescription":"Sec. 2129. (1) All food establishments shall employ a minimum of 1 managerial employee as a food safety manager, who must be an individual who is currently certified under a personnel certification program accredited by the American National Standards Institute, utilizing the Conference for Food Protection standards:\r\n(2) Beginning January 14, 2017 and every 5 years thereafter, a certified  food safety manager who supervises the operations of a food service establishment shall have completed a food safety training program\r\ncontaining an allergen awareness  component that has been approved by  the department. A food service establishment shall retain records on the  site of the food service establishment documenting compliance of its  certified food safety managers with this subsection. ","violationType":"Core","itemDescription":"Person-in-charge","subItem":"","problemDescription":null,"subProblem":"","location":"ESTABLISHMENT","subLocation":"","corrected":"Not required","daysToCorrect":"30","correctedDate":null,"correctionDescription":null}]}]}],"maxInspectionDate":[{"inspectionDate":"2020-05-29T00:00:00"}]}},"pageContext":{"eid":"5079"}}