{"data":{"site":{"pathPrefix":"/restaurant-inspections"},"postgres":{"establishment":[{"establishmentid":"3695","name":"MGM Grand Casino-Int Ice","address":"1777 Third St","zipcode":"48226","owner":"MGM Grand Detroit Casino","licenseNumber":"060169","licenseType":"Fixed Establishment","establishmentType":"Food Service Establishment","establishmentStatus":"Open","riskCategory":null,"reviewFrequencyDays":"365.0","coords":"-83.06068,42.33472","geojson":{"id":"3695","type":"Feature","geometry":{"type":"Point","coordinates":[-83.0606819449999,42.334723771]},"properties":{"name":"MGM Grand Casino-Int Ice","owner":"MGM Grand Detroit Casino","address":"1777 Third St","zipcode":"48226","license_type":"Fixed Establishment","risk_category":null,"license_number":"060169","establishmentid":"3695","establishment_type":"Food Service Establishment","establishment_status":"Open","review_frequency_days":"365.0","most_recent_license_date":"4/30/2019"}},"nearbyList":[{"establishmentid":"3679","name":"MGM Grand Casino- Main Kitchen","address":"1777 Third St","zipcode":"48226"},{"establishmentid":"3685","name":"MGM Grand Casino- Palette","address":"1777 Third St","zipcode":"48226"},{"establishmentid":"51622798","name":"MGM Grand Casino Concierge Lounge","address":"1777 Third Street ","zipcode":"48226"},{"establishmentid":"3696","name":"MGM Grand Casino-Ignite","address":"1777 Third St","zipcode":"48226"},{"establishmentid":"3681","name":"MGM Grand Casino- High Limit Lounge","address":"1777 Third St","zipcode":"48226"},{"establishmentid":"4980","name":"MGM Grand Casino- Axis","address":"1777 Third St","zipcode":"48226"},{"establishmentid":"51622843","name":"MGM Grand Casino 32 Bar","address":"1777 Third St","zipcode":"48226"},{"establishmentid":"3686","name":"MGM Grand Casino-Breeze","address":"1777 Third St","zipcode":"48226"},{"establishmentid":"3684","name":"MGM Grand Casino- Banquet Pantry Kitchen","address":"1777 Third St","zipcode":"48226"},{"establishmentid":"51622524","name":"MGM Grand Casino Poker Room","address":"1777 Third Street","zipcode":"48226"}],"inspectionsByEstablishmentidList":[{"inspectionid":"45832","inspectionDate":"2019-04-06T00:00:00","inspectionType":"Routine Inspection","inCompliance":"No","violationsByInspectionidList":[{"violationCode":"5-205.11","violationDescription":"(A) A HANDWASHING SINK shall be maintained so that it is accessible at all times for EMPLOYEE use and used for no other purpose. (Pf)\r\n(B)  An automatic handwashing facility shall be used in accordance with manufacturer's instructions. (Pf)\r\n","violationType":"Foundation","itemDescription":"Handwashing sink(s)","subItem":"","problemDescription":"Not easily accessible","subProblem":"Items stored In","location":"HANDSINK(S)","subLocation":"","corrected":"No","daysToCorrect":"10.0","correctedDate":null,"correctionDescription":null},{"violationCode":"4-602.13","violationDescription":"NonFOOD-CONTACT SURFACES of EQUIPMENT shall be cleaned at a frequency necessary to preclude accumulation of soil residues.\r\n","violationType":"Core","itemDescription":"Nonfood contact surface(s)","subItem":"","problemDescription":"Soiled","subProblem":"","location":"BAR","subLocation":"","corrected":"Not required","daysToCorrect":"30.0","correctedDate":null,"correctionDescription":null},{"violationCode":"6-501.18","violationDescription":"PLUMBING FIXTURES such as HANDWASHING SINKS, toilets, and urinals shall be cleaned as often as necessary to keep them clean. \r\n","violationType":"Core","itemDescription":"Handwashing facility","subItem":"","problemDescription":"Not clean","subProblem":"","location":"BAR","subLocation":"","corrected":"Not required","daysToCorrect":"30.0","correctedDate":null,"correctionDescription":"Clean"}]},{"inspectionid":"38253","inspectionDate":"2017-03-02T00:00:00","inspectionType":"Routine Inspection","inCompliance":"Yes","violationsByInspectionidList":[]}]}],"maxInspectionDate":[{"inspectionDate":"2019-05-31T00:00:00"}]}},"pageContext":{"eid":"3695"}}