{"data":{"site":{"pathPrefix":"/restaurant-inspections"},"postgres":{"establishment":[{"establishmentid":"51622693","name":"Sea World Fish Market","address":"15084 Gratiot Ave","zipcode":"48205","owner":"Mohamed Namer","licenseNumber":"226509","licenseType":"Fixed Establishment","establishmentType":"Food Service Establishment","establishmentStatus":"Open","riskCategory":null,"reviewFrequencyDays":"90.0","coords":"-82.97120,42.44481","geojson":{"id":"51622693","type":"Feature","geometry":{"type":"Point","coordinates":[-82.971199998,42.4448070670001]},"properties":{"name":"Sea World Fish Market","owner":"Mohamed Namer","address":"15084 Gratiot Ave","zipcode":"48205","license_type":"Fixed Establishment","risk_category":null,"license_number":"226509","establishmentid":"51622693","establishment_type":"Food Service Establishment","establishment_status":"Open","review_frequency_days":"90.0","most_recent_license_date":"7/26/2018"}},"nearbyList":[{"establishmentid":"3669","name":"Stonecrest Center","address":"15000 Gratiot Ave","zipcode":"48224"},{"establishmentid":"5213","name":"Embassy","address":"14987 Gratiot","zipcode":"48205"},{"establishmentid":"701","name":"Peking Chinese Restaurant","address":"14855 Gratiot Ave","zipcode":"48205"},{"establishmentid":"4640","name":"Little Caesar's #149","address":"15405 Gratiot Ave","zipcode":"48209"},{"establishmentid":"1726","name":"Golden Spice Catering","address":"14720 E Eight Mile Rd","zipcode":"48205"},{"establishmentid":"308","name":"Capers","address":"14726 Gratiot Ave","zipcode":"48205"},{"establishmentid":"1396","name":"Dunkin Donuts/Baskin Robbins","address":"14900 E Eight Mile Rd","zipcode":"48205"},{"establishmentid":"1083","name":"Chan's  Chinese Restaurant","address":"14537 Gratiot Ave","zipcode":"48205"},{"establishmentid":"5166","name":"Detroit Blues Cafe","address":"14493 Gratiot","zipcode":"48205"},{"establishmentid":"5287","name":"Mary Lee's Carryout","address":"14901 E 7mile","zipcode":"48205"}],"inspectionsByEstablishmentidList":[{"inspectionid":"42459","inspectionDate":"2018-06-05T00:00:00","inspectionType":"Routine Inspection","inCompliance":"No","violationsByInspectionidList":[{"violationCode":"6-301.12","violationDescription":"Each HANDWASHING SINK or group of adjacent HANDWASHING SINKS shall be provided with:\r\n(A) Individual, disposable towels; (Pf)\r\n(B) A continuous towel system that supplies the user with a clean towel;(Pf) or \r\n(C) A heated-air hand drying device.(Pf)\r\n(D) A hand drying device that employs an air-knife system that delivers high velocity pressurized air at ambient temperatures.(Pf)\r\n","violationType":"Foundation","itemDescription":"Sanitary hand drying provisions","subItem":"disposable, paper towels","problemDescription":"Not provided","subProblem":"","location":"HANDSINK(S)","subLocation":"","corrected":"No","daysToCorrect":"10.0","correctedDate":null,"correctionDescription":"Provide as required"},{"violationCode":"3-302.12","violationDescription":"Except for containers holding FOOD that can be readily and unmistakably recognized such as dry pasta, working containers holding FOOD or FOOD ingredients that are removed from their original packages for use in the FOOD ESTABLISHMENT, such as cooking oils, flour, herbs, potato flakes, salt, spices, and sugar shall be identified with the common name of the FOOD.","violationType":"Core","itemDescription":"Food item(s)","subItem":"","problemDescription":"Not identified","subProblem":"","location":"DRY STORAGE AREA","subLocation":"","corrected":"Not required","daysToCorrect":"30.0","correctedDate":null,"correctionDescription":"Label containers with common name."},{"violationCode":"4-602.13","violationDescription":"NonFOOD-CONTACT SURFACES of EQUIPMENT shall be cleaned at a frequency necessary to preclude accumulation of soil residues.\r\n","violationType":"Core","itemDescription":"Nonfood contact surface(s)","subItem":"","problemDescription":"Soiled","subProblem":"","location":"DRY STORAGE AREA","subLocation":"","corrected":"Not required","daysToCorrect":"30.0","correctedDate":null,"correctionDescription":"Clean."}]}]}],"maxInspectionDate":[{"inspectionDate":"2019-03-31T00:00:00"}]}},"pageContext":{"eid":"51622693"}}