{"data":{"site":{"pathPrefix":"/restaurant-inspections"},"postgres":{"establishment":[{"establishmentid":"51622825","name":"Pembroke Academy","address":"19940 Mansfield St","zipcode":"48235","owner":"National Heritage Academy","licenseNumber":"229273","licenseType":"Fixed Establishment","establishmentType":"Charter School","establishmentStatus":"Open","riskCategory":"High","reviewFrequencyDays":"210","coords":"-83.20585,42.43942","geojson":{"id":"51622825","type":"Feature","geometry":{"type":"Point","coordinates":[-83.20584928,42.439416622]},"properties":{"name":"Pembroke Academy","owner":"National Heritage Academy","address":"19940 Mansfield St","zipcode":"48235","license_type":"Fixed Establishment","risk_category":"High","license_number":"229273","establishmentid":"51622825","establishment_type":"Charter School","establishment_status":"Open","review_frequency_days":"210","most_recent_license_date":"4/26/2019"}},"nearbyList":[{"establishmentid":"2037","name":"Michigan Technical Academy","address":"19940 Mansfield Ave","zipcode":"48235"},{"establishmentid":"1118","name":"Bow Elementary School","address":"19801 Prevost Ave","zipcode":"48235"},{"establishmentid":"5395","name":"Mighty Wings","address":"20131 Greenfield Rd","zipcode":"48235"},{"establishmentid":"2130","name":"White Castle #38","address":"20409 James Couzens","zipcode":"48235"},{"establishmentid":"51622885","name":"Detroit Christian School of Excellence","address":"19370 Greenfield Rd","zipcode":"48235"},{"establishmentid":"4414","name":"Saucebar","address":"15838 W Seven Mile Rd","zipcode":"48235"},{"establishmentid":"5009","name":"Uncle Big John's Fresh Fish Mkt.","address":"15834 W Seven Mile Rd","zipcode":"48235"},{"establishmentid":"3537","name":"Fat Boyz Steak and Chicken","address":"15917 W Seven Mile Rd","zipcode":"48235"},{"establishmentid":"4974","name":"Motor City Sweet Shop","address":"16311 W Seven Mile Rd","zipcode":"48235"},{"establishmentid":"3199","name":"Detroit Fish & Shrimp III","address":"20030 James Couzens Fwy","zipcode":"48235"}],"inspectionsByEstablishmentidList":[{"inspectionid":"44044","inspectionDate":"2018-10-09T00:00:00","inspectionType":"Routine Inspection","inCompliance":"Yes","violationsByInspectionidList":[{"violationCode":"2-402.11","violationDescription":"FOOD EMPLOYEES shall wear hair restraints such as hats, hair coverings or nets, beard restraints, and clothing that covers body hair, that are designed and worn to effectively keep their hair from contacting exposed FOOD; clean EQUIPMENT, UTENSILS, and LINENS; or unwrapped SINGLE-SERVICE or SINGLE-USE ARTICLES.","violationType":"Core","itemDescription":"Hair restraint","subItem":"","problemDescription":"Not worn on head/hair","subProblem":"","location":"KITCHEN","subLocation":"","corrected":"Not required","daysToCorrect":"30","correctedDate":null,"correctionDescription":"Provide hat or hair net."},{"violationCode":"MFL289.2129","violationDescription":"Sec. 2129. (1) All food establishments shall employ a minimum of 1 managerial employee as a food safety manager, who must be an individual who is currently certified under a personnel certification program accredited by the American National Standards Institute, utilizing the Conference for Food Protection standards:\r\n(2) Beginning January 14, 2017 and every 5 years thereafter, a certified  food safety manager who supervises the operations of a food service establishment shall have completed a food safety training program\r\ncontaining an allergen awareness  component that has been approved by  the department. A food service establishment shall retain records on the  site of the food service establishment documenting compliance of its  certified food safety managers with this subsection. ","violationType":"Core","itemDescription":"Person-in-charge","subItem":"","problemDescription":null,"subProblem":"","location":"KITCHEN","subLocation":"","corrected":"Not required","daysToCorrect":"30","correctedDate":null,"correctionDescription":null}]}]}],"maxInspectionDate":[{"inspectionDate":"2020-05-29T00:00:00"}]}},"pageContext":{"eid":"51622825"}}