{"data":{"postgres":{"establishment":[{"establishmentid":"51622619","name":"Detroit Prep","address":"2411 Iroquois St","zipcode":"48214","owner":"Kyle Smitley","licenseNumber":"220249","licenseType":"Fixed Establishment","establishmentType":"Charter School","establishmentStatus":"Open","riskCategory":"Medium","reviewFrequencyDays":"365.0","coords":"-82.99789,42.36225","geojson":{"id":"51622619","type":"Feature","geometry":{"type":"Point","coordinates":[-82.997890849,42.362251176]},"properties":{"name":"Detroit Prep","owner":"Kyle Smitley","address":"2411 Iroquois St","zipcode":"48214","license_type":"Fixed Establishment","risk_category":"Medium","license_number":"220249","establishmentid":"51622619","establishment_type":"Charter School","establishment_status":"Open","review_frequency_days":"365.0","most_recent_license_date":"8/20/2018"}},"nearbyList":[{"establishmentid":"5284","name":"Conventional Missionary Baptist Church","address":"2255 Seminole","zipcode":"48214"},{"establishmentid":"1006","name":"John Nichols Elementary","address":"3000 Burns","zipcode":"48214"},{"establishmentid":"833","name":"Marcus Garvey","address":"2301 Van Dyke Ave","zipcode":"48207"},{"establishmentid":"1336","name":"Indian Village Tennis Club","address":"1502 Parker Ave","zipcode":"48214"},{"establishmentid":"1099","name":"Butzel Recreation Center","address":"7737 Kercheval Ave","zipcode":"48214"},{"establishmentid":"51622473","name":"Yum Village Food Truck Works Detroit","address":"1415 Parker #867 ","zipcode":"48214"},{"establishmentid":"4817","name":"Craft Work","address":"8047 Agnes St","zipcode":"48214"},{"establishmentid":"4765","name":"Detroit Vegan Soul, LLC","address":"8029 Agnes St","zipcode":"48214"},{"establishmentid":"4953","name":"The Red Hook, Detroit, LLC","address":"8025 Agnes St","zipcode":"48214"},{"establishmentid":"1158","name":"Franklin Gourmet Dairy Bar","address":"8405 Mack Ave","zipcode":"48214"},{"establishmentid":"4233","name":"St. Charles","address":"1491 Baldwin","zipcode":"48214"},{"establishmentid":"51622465","name":"The Commons","address":"7900 Mack Ave","zipcode":"48214"},{"establishmentid":"3874","name":"Covenant East /Lifeskills","address":"7600 Goethe St","zipcode":"48214"},{"establishmentid":"2593","name":"Moses Field School","address":"1100 Sheridan","zipcode":"48214"},{"establishmentid":"3658","name":"Spiritual Israel Church","address":"9375 Amity St","zipcode":"48214"},{"establishmentid":"1870","name":"Belle Isle Pizza (fka) Garalino's Pizza","address":"7869 E Jefferson Ave","zipcode":"48214"},{"establishmentid":"4831","name":"Cesar Chavez Academy - East","address":"4130 Maxwell","zipcode":"48214"},{"establishmentid":"2370","name":"McDonald's #2285","address":"8825 E Jefferson Ave","zipcode":"48214"},{"establishmentid":"1559","name":"Tai Hing Carry Out","address":"1114 Holcomb St","zipcode":"48214"},{"establishmentid":"51622626","name":"The Whittier Tower Bar","address":"415 Burns Drive","zipcode":"48217"}],"inspectionsByEstablishmentidList":[{"inspectionid":"44563","inspectionDate":"2018-12-20T00:00:00","inspectionType":"Routine Inspection","inCompliance":"Yes","violationsByInspectionidList":[]},{"inspectionid":"42603","inspectionDate":"2018-06-21T00:00:00","inspectionType":"Routine Inspection","inCompliance":"No","violationsByInspectionidList":[{"violationCode":"4-302.14","violationDescription":"A test kit or other device that accurately measures the concentration in mg/L of SANITIZING solutions shall be provided. (Pf)\r\n","violationType":"Foundation","itemDescription":"Sanitizer test kit","subItem":"","problemDescription":"Not provided","subProblem":"","location":"SCHOOL","subLocation":"No Test strips","corrected":"No","daysToCorrect":"10.0","correctedDate":null,"correctionDescription":"Provide as required"},{"violationCode":"4-501.11","violationDescription":"EQUIPMENT shall be maintained in a state of repair and condition that meets the requirements of the code.\r\n","violationType":"Core","itemDescription":"Equipment","subItem":"","problemDescription":"In poor repair","subProblem":"","location":"KITCHEN","subLocation":"Inside the Refrigerator/freezers","corrected":"Not required","daysToCorrect":"30.0","correctedDate":null,"correctionDescription":null}]},{"inspectionid":"39825","inspectionDate":"2017-09-06T00:00:00","inspectionType":"Routine Inspection","inCompliance":"Yes","violationsByInspectionidList":[{"violationCode":"4-602.13","violationDescription":"NonFOOD-CONTACT SURFACES of EQUIPMENT shall be cleaned at a frequency necessary to preclude accumulation of soil residues.\r\n","violationType":"Core","itemDescription":"Nonfood contact surface(s)","subItem":"","problemDescription":"With accumulation of debris","subProblem":"","location":"CAFETERIA","subLocation":"Inside the Refrigerator/freezers","corrected":"Not required","daysToCorrect":"30.0","correctedDate":null,"correctionDescription":"Keep clean."}]}]}]}},"pageContext":{"eid":"51622619"}}