{"data":{"site":{"pathPrefix":"/restaurant-inspections"},"postgres":{"establishment":[{"establishmentid":"2343","name":"Cesar Chavez Academy High School","address":"1761 Waterman St","zipcode":"48209","owner":"LEONA GROUP LLC","licenseNumber":"081275","licenseType":"Fixed Establishment","establishmentType":"Non-Public School","establishmentStatus":"Open","riskCategory":null,"reviewFrequencyDays":"280.0","coords":"-83.11489,42.31234","geojson":{"id":"2343","type":"Feature","geometry":{"type":"Point","coordinates":[-83.11489349,42.3123376950001]},"properties":{"name":"Cesar Chavez Academy High School","owner":"LEONA GROUP LLC","address":"1761 Waterman St","zipcode":"48209","license_type":"Fixed Establishment","risk_category":null,"license_number":"081275","establishmentid":"2343","establishment_type":"Non-Public School","establishment_status":"Open","review_frequency_days":"280.0","most_recent_license_date":"4/29/2019"}},"nearbyList":[{"establishmentid":"3304","name":"Cesar Chavez Middle School","address":"6782 Goldsmith St","zipcode":"48209"},{"establishmentid":"1650","name":"Dino's Cafe Inc.","address":"1601 Waterman St","zipcode":"48209"},{"establishmentid":"703","name":"Roberto Clemente Elementary","address":"1551 Beard St","zipcode":"48209"},{"establishmentid":"732","name":"Sidekicks Saloon","address":"7023 Chatsfield St","zipcode":"48209"},{"establishmentid":"51623131","name":"Ice Cream & Cafe La Ni√±a","address":"2257 Waterman","zipcode":"48209"},{"establishmentid":"51622712","name":"Tacos Regios Mexican Grill","address":"2257 Waterman St","zipcode":"48209"},{"establishmentid":"4792","name":"Las Palmas Neveria Y Cafeteria","address":"7009 Vernor Hwy","zipcode":"48209"},{"establishmentid":"5070","name":"Mi Lindo Sanblas","address":"1807 Livernois Ave","zipcode":"48209"},{"establishmentid":"735","name":"Happy Bar","address":"1247 Green St N","zipcode":"48209"},{"establishmentid":"51622836","name":"Burger King #1190","address":"6251 W Vernor Highway","zipcode":"48209"}],"inspectionsByEstablishmentidList":[{"inspectionid":"49434","inspectionDate":"2019-10-04T00:00:00","inspectionType":"Routine Inspection","inCompliance":"Yes","violationsByInspectionidList":[{"violationCode":"4-501.114","violationDescription":"A chemical SANITIZER used in a SANITIZING solution for a manual or\r\nmechanical operation shall meet these limits or as otherwise approved: (P)\r\n\tChlorine        ppm           pH<10             pH<8\r\n\t\t      25              120 F              120 F\r\n\t\t      50              100 F              75 F\r\n\t\t     100              55 F               55 F\r\n                 Iodine           a concentration of between 12.5 and 25 ppm and minimum temp of 75 F and pH of 5 or less or meets manufacturer's specifications. (P)\r\n\r\n                Quats            minimum temperature of 75 F, hardness of 500 ppm or less and meet manufacturers use directions. (P)\r\n","violationType":"Priority","itemDescription":"Other chemical sanitizing solution concentration(s)","subItem":"","problemDescription":"Not used according to manufacturer's label instructions","subProblem":"","location":"3 COMPARTMENT SINK AREA","subLocation":"Sanitizer","corrected":"Yes","daysToCorrect":"10.0","correctedDate":"2019-10-04T00:00:00","correctionDescription":"Use according to manufacturer label directions."},{"violationCode":"4-501.11","violationDescription":"EQUIPMENT shall be maintained in a state of repair and condition that meets the requirements of the code.\r\n","violationType":"Core","itemDescription":"Equipment","subItem":"","problemDescription":"Broken","subProblem":"","location":"KITCHEN","subLocation":"COOLER GASKETING","corrected":"Not required","daysToCorrect":"30.0","correctedDate":null,"correctionDescription":"Repair/replace."}]},{"inspectionid":"47985","inspectionDate":"2019-06-06T00:00:00","inspectionType":"Routine Inspection","inCompliance":"Yes","violationsByInspectionidList":[{"violationCode":"4-501.11","violationDescription":"EQUIPMENT shall be maintained in a state of repair and condition that meets the requirements of the code.\r\n","violationType":"Core","itemDescription":"Equipment","subItem":"","problemDescription":"Broken","subProblem":"","location":"KITCHEN","subLocation":"COOLER GASKETING","corrected":"Not required","daysToCorrect":"30.0","correctedDate":null,"correctionDescription":"Repair/replace."}]},{"inspectionid":"44177","inspectionDate":"2018-11-20T00:00:00","inspectionType":"Routine Inspection","inCompliance":"Yes","violationsByInspectionidList":[]},{"inspectionid":"42087","inspectionDate":"2018-04-26T00:00:00","inspectionType":"Routine Inspection","inCompliance":"Yes","violationsByInspectionidList":[]},{"inspectionid":"39961","inspectionDate":"2017-09-13T00:00:00","inspectionType":"Routine Inspection","inCompliance":"Yes","violationsByInspectionidList":[]},{"inspectionid":"38593","inspectionDate":"2017-04-19T00:00:00","inspectionType":"Routine Inspection","inCompliance":"Yes","violationsByInspectionidList":[]},{"inspectionid":"36711","inspectionDate":"2016-10-10T00:00:00","inspectionType":"Routine Inspection","inCompliance":"Yes","violationsByInspectionidList":[]}]}],"maxInspectionDate":[{"inspectionDate":"2019-10-31T00:00:00"}]}},"pageContext":{"eid":"2343"}}