{"data":{"site":{"pathPrefix":"/restaurant-inspections"},"postgres":{"establishment":[{"establishmentid":"3692","name":"MGM Grand Casino-Video Poker Bar","address":"1777 Third St","zipcode":"48226","owner":"MGM Grand Detroit Casino","licenseNumber":"060172","licenseType":"Fixed Establishment","establishmentType":"Food Service Establishment","establishmentStatus":"Open","riskCategory":null,"reviewFrequencyDays":"365.0","coords":"-83.06068,42.33472","geojson":{"id":"3692","type":"Feature","geometry":{"type":"Point","coordinates":[-83.0606819449999,42.334723771]},"properties":{"name":"MGM Grand Casino-Video Poker Bar","owner":"MGM Grand Detroit Casino","address":"1777 Third St","zipcode":"48226","license_type":"Fixed Establishment","risk_category":null,"license_number":"060172","establishmentid":"3692","establishment_type":"Food Service Establishment","establishment_status":"Open","review_frequency_days":"365.0","most_recent_license_date":"5/2/2018"}},"nearbyList":[{"establishmentid":"3617","name":"DTE Energy Town Square C-Store313","address":"2000 Second Ave","zipcode":"48226"},{"establishmentid":"429","name":"PJ's Lager House","address":"1254 Michigan Ave","zipcode":"48226"},{"establishmentid":"3598","name":"Cass Technical High School","address":"2501 Second Ave","zipcode":"48201-34"},{"establishmentid":"2675","name":"Brooklyn Street Local","address":"1266 Michigan Ave","zipcode":"48226"},{"establishmentid":"1405","name":"Mariner's Inn","address":"445 Ledyard","zipcode":"48201"},{"establishmentid":"3966","name":"Bookies Bar and Grille","address":"2208 Cass Ave","zipcode":"48226"},{"establishmentid":"545","name":"Nemos","address":"1378 Michigan Ave","zipcode":"48226"},{"establishmentid":"4916","name":"Republic Tavern","address":"1942 Grand River","zipcode":"48226"},{"establishmentid":"1349","name":"Mudgie's","address":"1300 Porter St","zipcode":"48226"},{"establishmentid":"4648","name":"Ottava Via","address":"1400 Michigan Ave","zipcode":"48226"},{"establishmentid":"918","name":"Most Holy Trinity School","address":"1229 LaBrosse St","zipcode":"48226"},{"establishmentid":"5416","name":"Lady of the House, LLC","address":"1426 Bagley Ave","zipcode":"48216"},{"establishmentid":"4655","name":"Leland House","address":"400 Bagley Ave","zipcode":"48226"},{"establishmentid":"720","name":"Lucy & Ethel's Diner","address":"400 Bagley Ave","zipcode":"48226"},{"establishmentid":"3173","name":"Harry's Detroit","address":"2482 Clifford","zipcode":"48201"},{"establishmentid":"1409","name":"Manna Meals","address":"1950 Trumbull","zipcode":"48216"},{"establishmentid":"500","name":"McShane's","address":"1460 Michigan Ave","zipcode":"48216"},{"establishmentid":"4939","name":"Batch Brewing Company","address":"1408 Porter St","zipcode":"48216"},{"establishmentid":"4938","name":"UFO Factory","address":"2110 Trumbull St","zipcode":"48207"},{"establishmentid":"1140","name":"Masonic Temple","address":"500 Temple","zipcode":"48201"}],"inspectionsByEstablishmentidList":[{"inspectionid":"44370","inspectionDate":"2018-10-24T00:00:00","inspectionType":"Routine Inspection","inCompliance":"Yes","violationsByInspectionidList":[{"violationCode":"3-305.11","violationDescription":"FOOD shall be protected from contamination by storing the FOOD:\r\n(1)     In a clean, dry location;\r\n(2)     Where it is not exposed to splash, dust, or other contamination; and\r\n(3)     At least 15 cm (6 inches) above the floor, unless otherwise approved.\r\n","violationType":"Core","itemDescription":"Food item(s) in storage","subItem":"","problemDescription":"Exposed to dust, splash, or other contaminates","subProblem":"","location":"ICE BIN","subLocation":"","corrected":"Not required","daysToCorrect":"30.0","correctedDate":null,"correctionDescription":"Store in manner that does not contaminate items"},{"violationCode":"4-602.13","violationDescription":"NonFOOD-CONTACT SURFACES of EQUIPMENT shall be cleaned at a frequency necessary to preclude accumulation of soil residues.\r\n","violationType":"Core","itemDescription":"Nonfood contact surface(s)","subItem":"","problemDescription":"Soiled","subProblem":"","location":"BEVERAGE AREA","subLocation":"","corrected":"Not required","daysToCorrect":"30.0","correctedDate":null,"correctionDescription":"Clean."},{"violationCode":"3-304.12","violationDescription":"During pauses in FOOD preparation or dispensing, UTENSILS shall be stored:\r\n(A) In the FOOD with their handles above the top of the FOOD and the container;\r\n(B) In FOOD that is not POTENTIALLY HAZARDOUS with their handles above the      top of the FOOD within containers or EQUIPMENT that can be closed, such as      bins of sugar, flour, or cinnamon;\r\n(C) On a clean portion of the FOOD preparation table or cooking EQUIPMENT\r\n(D)  In running water, such as dipper well.\r\n(E)  In a clean, protected location if the UTENSILS, such as ice scoops, are   used only with a FOOD that is not POTENTIALLY HAZARDOUS; or\r\n(F)  In a container of water maintained at a temperature of at least 135Â° F.\r\n","violationType":"Core","itemDescription":"Dispensing utensil(s)","subItem":"","problemDescription":"Improperly stored","subProblem":"With handle in product","location":"BAR","subLocation":"","corrected":"Not required","daysToCorrect":"30.0","correctedDate":null,"correctionDescription":"Store with handle extended out of product."}]},{"inspectionid":"40698","inspectionDate":"2017-11-07T00:00:00","inspectionType":"Routine Inspection","inCompliance":"No","violationsByInspectionidList":[{"violationCode":"4-501.114","violationDescription":"A chemical SANITIZER used in a SANITIZING solution for a manual or\r\nmechanical operation shall meet these limits or as otherwise approved: (P)\r\n\tChlorine        ppm           pH<10             pH<8\r\n\t\t      25              120 F              120 F\r\n\t\t      50              100 F              75 F\r\n\t\t     100              55 F               55 F\r\n                 Iodine           a concentration of between 12.5 and 25 ppm and minimum temp of 75 F and pH of 5 or less or meets manufacturer's specifications. (P)\r\n\r\n                Quats            minimum temperature of 75 F, hardness of 500 ppm or less and meet manufacturers use directions. (P)\r\n","violationType":"Priority","itemDescription":"Quaternary ammonia solution","subItem":"","problemDescription":"Below 100 ppm","subProblem":"","location":"SANITIZER BUCKETS","subLocation":"","corrected":"Yes","daysToCorrect":"10.0","correctedDate":"2017-11-07T00:00:00","correctionDescription":"Provide correct concentration as stated above."},{"violationCode":"5-205.11","violationDescription":"(A) A HANDWASHING SINK shall be maintained so that it is accessible at all times for EMPLOYEE use and used for no other purpose. (Pf)\r\n(B)  An automatic handwashing facility shall be used in accordance with manufacturer's instructions. (Pf)\r\n","violationType":"Foundation","itemDescription":"Handwashing sink(s)","subItem":"","problemDescription":"Not easily accessible","subProblem":"Items stored In","location":"HANDSINK(S)","subLocation":"","corrected":"No","daysToCorrect":"10.0","correctedDate":null,"correctionDescription":"Remove items from handsink.  Do not store items at handsink."}]},{"inspectionid":"40902","inspectionDate":"2017-03-02T00:00:00","inspectionType":"Routine Inspection","inCompliance":"Yes","violationsByInspectionidList":[{"violationCode":"4-501.114","violationDescription":"A chemical SANITIZER used in a SANITIZING solution for a manual or\r\nmechanical operation shall meet these limits or as otherwise approved: (P)\r\n\tChlorine        ppm           pH<10             pH<8\r\n\t\t      25              120 F              120 F\r\n\t\t      50              100 F              75 F\r\n\t\t     100              55 F               55 F\r\n                 Iodine           a concentration of between 12.5 and 25 ppm and minimum temp of 75 F and pH of 5 or less or meets manufacturer's specifications. (P)\r\n\r\n                Quats            minimum temperature of 75 F, hardness of 500 ppm or less and meet manufacturers use directions. (P)\r\n","violationType":"Priority","itemDescription":"Quaternary ammonia solution","subItem":"","problemDescription":"Below 100 ppm","subProblem":"","location":"SANITIZER BUCKETS","subLocation":"","corrected":"Yes","daysToCorrect":"10.0","correctedDate":"2017-03-02T00:00:00","correctionDescription":"Provide correct concentration as stated above."},{"violationCode":"5-205.11","violationDescription":"(A) A HANDWASHING SINK shall be maintained so that it is accessible at all times for EMPLOYEE use and used for no other purpose. (Pf)\r\n(B)  An automatic handwashing facility shall be used in accordance with manufacturer's instructions. (Pf)\r\n","violationType":"Foundation","itemDescription":"Handwashing sink(s)","subItem":"","problemDescription":"Not easily accessible","subProblem":"Items stored In","location":"HANDSINK(S)","subLocation":"","corrected":"Yes","daysToCorrect":"10.0","correctedDate":"2017-03-14T00:00:00","correctionDescription":"Remove items from handsink.  Do not store items at handsink."}]}]}]}},"pageContext":{"eid":"3692"}}