{"componentChunkName":"component---src-templates-establishment-page-js","path":"/establishment/51622981","result":{"data":{"site":{"pathPrefix":"/restaurant-inspections"},"postgres":{"establishment":[{"establishmentid":"51622981","name":"Happys Pizza","address":"2742 E. Seven Mile","zipcode":"48234","owner":"Gloria Patrice James","licenseNumber":"249501","licenseType":"Fixed Establishment","establishmentType":"Food Service Establishment","establishmentStatus":"Open","riskCategory":"High","reviewFrequencyDays":"150","coords":"-83.07511,42.43270","geojson":{"id":"51622981","type":"Feature","geometry":{"type":"Point","coordinates":[-83.075109309,42.432703]},"properties":{"name":"Happys Pizza","owner":"Gloria Patrice James","address":"2742 E. Seven Mile","zipcode":"48234","license_type":"Fixed Establishment","risk_category":"High","license_number":"249501","establishmentid":"51622981","establishment_type":"Food Service Establishment","establishment_status":"Open","review_frequency_days":"150","most_recent_license_date":null}},"nearbyList":[{"establishmentid":"543","name":"Miley & Miley","address":"2700 Seven Mile Rd. E.","zipcode":"48234"},{"establishmentid":"4079","name":"Supreme Seafood","address":"2700 Seven Mile Rd. E.","zipcode":"48201"},{"establishmentid":"249","name":"Fay's Place","address":"19160 Conant","zipcode":"48234"},{"establishmentid":"1383","name":"NUNNS BAR-B-Q RESTAURANT","address":"19196 CONANT","zipcode":"48234"},{"establishmentid":"3621","name":"Nunn's Bar-B-Que Restaurant II","address":"19196 Conant","zipcode":"48234"},{"establishmentid":"488","name":"Deluxe Coney Island","address":"2923 Seven Mile Rd. E.","zipcode":"48234"},{"establishmentid":"51623198","name":"New Deluxe Coney Island","address":"2923 Seven Mile E.","zipcode":"48234"},{"establishmentid":"51623369","name":"Deluxe Coney Island","address":"2923 Seven E. ","zipcode":"48234"},{"establishmentid":"1139","name":"Church's Fried Chicken #648","address":"2928 Seven Mile Rd. E.","zipcode":"48211"},{"establishmentid":"3272","name":"PC3's Grill & Home Cooking","address":"2440 Seven Mile Rd. E","zipcode":"48234"}],"inspectionsByEstablishmentidList":[{"inspectionid":"56493","inspectionDate":"2021-09-14T00:00:00","inspectionType":"Routine Inspection","inCompliance":"Yes","violationsByInspectionidList":[{"violationCode":"6-301.11","violationDescription":"Each HANDWASHING SINK or group of 2 adjacent HANDWASHING SINKS shall be provided with a supply of hand cleaning liquid, powder, or bar soap. (Pf)\n","violationType":"Foundation","itemDescription":"Soap","subItem":"","problemDescription":"Not provided","subProblem":"","location":"HANDSINK(S)","subLocation":"","corrected":"True","daysToCorrect":"10","correctedDate":"2021-09-15T00:00:00","correctionDescription":null},{"violationCode":"6-501.14","violationDescription":"(A) Intake and exhaust air ducts shall be cleaned and filters changed so they are not a source of contamination by dust, dirt, and other materials. \n(B) If vented to the outside, ventilation systems may not create a public health HAZARD or nuisance or unLAWful discharge.\n","violationType":"Core","itemDescription":"Ventilation system","subItem":"","problemDescription":"Not clean","subProblem":"","location":"HOOD","subLocation":"","corrected":"False","daysToCorrect":"30","correctedDate":null,"correctionDescription":null},{"violationCode":"6-202.11","violationDescription":"Except as otherwise approved, light bulbs shall be shielded, coated, or otherwise shatter-resistant in areas where there is exposed FOOD; clean EQUIPMENT, UTENSILS, and LINENS; or unwrapped SINGLE-SERVICE and SINGLE-USE ARTICLES.\n","violationType":"Core","itemDescription":"Light shielding","subItem":"","problemDescription":"Missing","subProblem":"","location":"HOOD","subLocation":"","corrected":"False","daysToCorrect":"30","correctedDate":null,"correctionDescription":null}]},{"inspectionid":"51331","inspectionDate":"2020-03-31T00:00:00","inspectionType":"Preopening/New","inCompliance":"Yes","violationsByInspectionidList":[]}]}],"maxInspectionDate":[{"inspectionDate":"2023-04-25T00:00:00"}]}},"pageContext":{"eid":"51622981"}},"staticQueryHashes":["3649515864","63159454"]}