{"data":{"postgres":{"establishment":[{"establishmentid":"1419","name":"Domino's Pizza #1027","address":"16005 W McNichols Rd","zipcode":"48235","owner":"Detroit Pizza #1027 LLC","licenseNumber":"064076","licenseType":"Fixed Establishment","establishmentType":"Food Service Establishment","establishmentStatus":"Open","riskCategory":null,"reviewFrequencyDays":"365.0","coords":"-83.20496,42.41564","geojson":{"id":"1419","type":"Feature","geometry":{"type":"Point","coordinates":[-83.204957087,42.4156395620001]},"properties":{"name":"Domino's Pizza #1027","owner":"Detroit Pizza #1027 LLC","address":"16005 W McNichols Rd","zipcode":"48235","license_type":"Fixed Establishment","risk_category":null,"license_number":"064076","establishmentid":"1419","establishment_type":"Food Service Establishment","establishment_status":"Open","review_frequency_days":"365.0","most_recent_license_date":"4/27/2018"}},"nearbyList":[{"establishmentid":"4553","name":"Royal Grill and Deli","address":"16031 W McNichols Rd","zipcode":"48235"},{"establishmentid":"4271","name":"Sweetwater Express","address":"15640 W McNichols Rd","zipcode":"48235"},{"establishmentid":"1199","name":"Taco Bell #24449","address":"15624 W McNichols Rd","zipcode":"48235"},{"establishmentid":"4435","name":"Spud Headz","address":"16400 W McNichols Rd","zipcode":"48235"},{"establishmentid":"1413","name":"Lady Louisa's Place","address":"15535 W McNichols Rd","zipcode":"48235"},{"establishmentid":"51622870","name":"Wild Wild West Wings","address":"15535 W McNichols","zipcode":"48066"},{"establishmentid":"1330","name":"McDonald's #6799","address":"15550 W McNichols Rd","zipcode":"48235"},{"establishmentid":"51622632","name":"Detroit Achievement Academy","address":"7000 W Outer Drive","zipcode":"48235"},{"establishmentid":"2026","name":"Palushaj's Olympia Coney Island","address":"15425 W McNichols Rd","zipcode":"48235"},{"establishmentid":"3971","name":"Hood Kafe","address":"15349 W McNichols Rd","zipcode":"48235"},{"establishmentid":"4044","name":"Oriental Meat Market","address":"15349 W McNichols Rd","zipcode":"48235"},{"establishmentid":"51622633","name":"Fellowship Chapel","address":"7707 W Outer Drive","zipcode":"48235"},{"establishmentid":"1131","name":"Clara Rutherford/Winans Academy","address":"16411 Curtis Ave","zipcode":"48235"},{"establishmentid":"5077","name":"Pasta Bowl","address":"17301 W McNichols Rd","zipcode":"48235"},{"establishmentid":"748","name":"Renaissance High School","address":"6565 W Outer Dr","zipcode":"48235"},{"establishmentid":"5015","name":"Mr. B's Soul Food Truck #1","address":"17600 W McNichols","zipcode":"48235"},{"establishmentid":"5016","name":"Mr. B's Soul Food Truck #2","address":"17600 W McNichols","zipcode":"48235"},{"establishmentid":"4442","name":"Mr. B's Soul Food","address":"17600 W McNichols Rd","zipcode":"48235"},{"establishmentid":"2464","name":"Subway #24532","address":"7950 W Outer Dr","zipcode":"48235"},{"establishmentid":"1543","name":"Foreign Language Immersion","address":"6501 W Outer Dr","zipcode":"48235"}],"inspectionsByEstablishmentidList":[{"inspectionid":"42301","inspectionDate":"2018-05-23T00:00:00","inspectionType":"Routine Inspection","inCompliance":"No","violationsByInspectionidList":[{"violationCode":"7-204.11","violationDescription":"Chemical SANITIZERS and other chemical antimicrobials applied to FOOD-CONTACT SURFACES shall meet the requirements specified in this code. (P)\r\n","violationType":"Priority","itemDescription":"Sanitizer(s)","subItem":"","problemDescription":"Not approved for use","subProblem":"","location":"3 COMPARTMENT SINK AREA","subLocation":"","corrected":"Yes","daysToCorrect":"10.0","correctedDate":"2018-05-23T00:00:00","correctionDescription":"Discontinue use."},{"violationCode":"4-302.14","violationDescription":"A test kit or other device that accurately measures the concentration in mg/L of SANITIZING solutions shall be provided. (Pf)\r\n","violationType":"Foundation","itemDescription":"Sanitizer test kit","subItem":"quaternary ammonia","problemDescription":"Not provided","subProblem":"","location":"3 COMPARTMENT SINK AREA","subLocation":"","corrected":"No","daysToCorrect":"10.0","correctedDate":null,"correctionDescription":"Provide."}]},{"inspectionid":"41702","inspectionDate":"2018-02-28T00:00:00","inspectionType":"Complaint","inCompliance":"Yes","violationsByInspectionidList":[]},{"inspectionid":"38962","inspectionDate":"2017-06-02T00:00:00","inspectionType":"Routine Inspection","inCompliance":"No","violationsByInspectionidList":[{"violationCode":"7-102.11","violationDescription":"Working containers used for storing POISONOUS OR TOXIC MATERIALS such as cleaners and SANITIZERS taken from bulk supplies shall be clearly and individually identified with the common name of the material. (Pf)\r\n","violationType":"Foundation","itemDescription":"Working containers-toxics","subItem":"sanitizer","problemDescription":"Not labeled as to content","subProblem":"","location":"KITCHEN","subLocation":"","corrected":"Yes","daysToCorrect":"10.0","correctedDate":"2017-06-02T00:00:00","correctionDescription":"Label containers with common name."},{"violationCode":"4-302.14","violationDescription":"A test kit or other device that accurately measures the concentration in mg/L of SANITIZING solutions shall be provided. (Pf)\r\n","violationType":"Foundation","itemDescription":"Sanitizer test kit","subItem":"quaternary ammonia","problemDescription":"Damaged","subProblem":"","location":"KITCHEN","subLocation":"","corrected":"No","daysToCorrect":"10.0","correctedDate":null,"correctionDescription":"Replace."}]}]}]}},"pageContext":{"eid":"1419"}}