{"data":{"postgres":{"establishment":[{"establishmentid":"4221","name":"Comerica Park- Press Box Lounge","address":"2100 Woodward Ave","zipcode":"48201","owner":"Detroit Sportservice Inc","licenseNumber":"069239","licenseType":"Fixed Establishment","establishmentType":"Food Service Establishment","establishmentStatus":"Open","riskCategory":null,"reviewFrequencyDays":"365.0","coords":"-83.04880,42.33918","geojson":{"id":"4221","type":"Feature","geometry":{"type":"Point","coordinates":[-83.04879849,42.339180497]},"properties":{"name":"Comerica Park- Press Box Lounge","owner":"Detroit Sportservice Inc","address":"2100 Woodward Ave","zipcode":"48201","license_type":"Fixed Establishment","risk_category":null,"license_number":"069239","establishmentid":"4221","establishment_type":"Food Service Establishment","establishment_status":"Open","review_frequency_days":"365.0","most_recent_license_date":"4/25/2017"}},"nearbyList":[{"establishmentid":"3475","name":"Chelis Chili Bar","address":"47 E Adams Ave","zipcode":"48226"},{"establishmentid":"2048","name":"Elwood Bar & Grill","address":"300 E Adams","zipcode":"48226"},{"establishmentid":"355","name":"Detroit Athletic Club","address":"241 Madison Ave","zipcode":"48226"},{"establishmentid":"1265","name":"Central Methodist Church","address":"23 E Adams","zipcode":"48226"},{"establishmentid":"322","name":"Twentieth Century Club, (Gem Theatre)","address":"333 Madison","zipcode":"48226"},{"establishmentid":"2637","name":"The Fillmore Detroit (State Bar/Theatre)","address":"2101-2115 Woodward Ste 971","zipcode":"48201"},{"establishmentid":"1680","name":"Michigan Opera Theater","address":"1526 Broadway St","zipcode":"48226"},{"establishmentid":"5189","name":"Dilla's Delight's LLC","address":"242 John R","zipcode":"48226"},{"establishmentid":"3706","name":"Angelina Italian Bistro","address":"1565 Broadway","zipcode":"48226"},{"establishmentid":"4694","name":"Madison Building ","address":"1555 Broadway","zipcode":"48226"},{"establishmentid":"5152","name":"Ashe Supply Co.","address":"1555 Broadway St","zipcode":"48226"},{"establishmentid":"5132","name":"Vertical Detroit","address":"1538 Centre St","zipcode":"48226"},{"establishmentid":"296","name":"Da Edoardo Foxtown Grille","address":"2203 Woodward Ave","zipcode":"48201"},{"establishmentid":"5248","name":"234 Winder St. Inn Community Center","address":"2458 Brush St","zipcode":"48201"},{"establishmentid":"4262","name":"Ford Field- Bar Portables","address":"2000 Brush St","zipcode":"48226"},{"establishmentid":"4884","name":"Ford Field- Detroit Lions Tunnel Club","address":"2000 Brush St","zipcode":"48201"},{"establishmentid":"4260","name":"Ford Field- Employee Lounge","address":"2000 Brush St","zipcode":"48226"},{"establishmentid":"51622506","name":"Ford Field- South Club (Hall of Legends)","address":"2000 Brush St","zipcode":"48201"},{"establishmentid":"51622504","name":"Ford Field- Terrace Club","address":"2000 Brush St","zipcode":"48201"},{"establishmentid":"4255","name":"Ford Field- Levy Rest. (Main Kitchen)","address":"2000 Brush St","zipcode":"48226"}],"inspectionsByEstablishmentidList":[{"inspectionid":"42345","inspectionDate":"2018-05-02T00:00:00","inspectionType":"Routine Inspection","inCompliance":"Yes","violationsByInspectionidList":[{"violationCode":"3-304.15","violationDescription":"(A) SINGLE-USE gloves shall be used for one task only and discarded when      damaged, soiled, or when interruptions occur in the operation. (P)\r\n\r\n(B) Slash-resistant and cloth gloves shall be used in direct contact only with FOOD that is subsequently cooked. Gloves used with ready-to-eat foods shall be smooth,   durable and non-absorbant.\r\n","violationType":"Priority","itemDescription":"Single-use glove(s)","subItem":"","problemDescription":"Used for multiple purposes","subProblem":"","location":"EMPLOYEE(S)","subLocation":"At the Glove usage","corrected":"Yes","daysToCorrect":"10.0","correctedDate":"2018-05-02T00:00:00","correctionDescription":"Gloves shall only be used for one purpose and then disposed."},{"violationCode":"3-501.16","violationDescription":"Except during preparation, cooking, or cooling, or when time is used as the public health control POTENTIALLY HAZARDOUS FOOD (TIME/TEMPERATURE CONTROL FOR SAFETY FOOD) shall be maintained:\r\n(A)  135ºF or above, except that roasts properly cooked and cooled may be held              at a temperature of 130ºF; or (P)\r\n(B)   At 41ºF or less (P)\r\n","violationType":"Priority","itemDescription":"Cold food item(s)","subItem":"","problemDescription":"Stored above 41 degrees F","subProblem":"","location":"COOLER","subLocation":"At the COLD HOLDING TEMPERATURES","corrected":"Yes","daysToCorrect":"10.0","correctedDate":"2018-05-02T00:00:00","correctionDescription":"Store below 41 degrees F."},{"violationCode":"3-302.11","violationDescription":"(A) FOOD shall be protected from cross contamination by:  \r\n(1) Except as specified in (1)(c) below, separating raw animal FOODS during         storage, preparation, holding, and display from:\r\n(a) Raw READY-TO-EAT FOOD including other raw animal FOOD such as FISH for sushi or MOLLUSCAN SHELLFISH, or other raw READY-TO-EAT FOOD such as fruits and vegetables,(P) and\r\n(b) Cooked READY-TO-EAT FOOD; (P)\r\n(c) Frozen, commercially processed and packaged raw animal FOOD may be          stored or displayed with or above frozen, commercially processed and           packaged, ready-to-eat food.\r\n(2) Except when combined as ingredients, separating types of raw animal FOODS    from each other such as beef, FISH, lamb, pork, and POULTRY during storage,        preparation, holding, and display by:\r\n(a) Using separate EQUIPMENT for each type, (P) or\r\n(b) Arranging each type of FOOD in EQUIPMENT so that cross contamination of one type with another is prevented, (P) and\r\n(c) Preparing each type of FOOD at different times or in separate areas; (P)\r\n","violationType":"Priority","itemDescription":"Raw animal food(s)","subItem":"","problemDescription":"Stored over/next to","subProblem":"Ready-to-eat food(s)","location":"COOLER","subLocation":"At the RAW FOOD STORAGE","corrected":"Yes","daysToCorrect":"10.0","correctedDate":"2018-05-02T00:00:00","correctionDescription":"Store raw animal foods below and away from foods needing little or no further prep."}]},{"inspectionid":"38487","inspectionDate":"2017-04-13T00:00:00","inspectionType":"Routine Inspection","inCompliance":"Yes","violationsByInspectionidList":[{"violationCode":"3-501.16","violationDescription":"Except during preparation, cooking, or cooling, or when time is used as the public health control POTENTIALLY HAZARDOUS FOOD (TIME/TEMPERATURE CONTROL FOR SAFETY FOOD) shall be maintained:\r\n(A)  135ºF or above, except that roasts properly cooked and cooled may be held              at a temperature of 130ºF; or (P)\r\n(B)   At 41ºF or less (P)\r\n","violationType":"Priority","itemDescription":"Cold food item(s)","subItem":"","problemDescription":"Stored above 41 degrees F","subProblem":"","location":"SALAD BAR","subLocation":"At the COLD HOLDING TEMPERATURES","corrected":"Yes","daysToCorrect":"10.0","correctedDate":"2017-04-13T00:00:00","correctionDescription":"Store below 41 degrees F."}]}]}]}},"pageContext":{"eid":"4221"}}