{"data":{"site":{"pathPrefix":"/restaurant-inspections"},"postgres":{"establishment":[{"establishmentid":"51623095","name":"New Paradigm Loving Elementary","address":"1000 Lynn Ave","zipcode":"48202","owner":"Keys Grace Academy","licenseNumber":"241571","licenseType":"Fixed Establishment","establishmentType":"Charter School","establishmentStatus":"Open","riskCategory":"Medium","reviewFrequencyDays":"210","coords":"-83.07541,42.39125","geojson":{"id":"51623095","type":"Feature","geometry":{"type":"Point","coordinates":[-83.075406689,42.3912549]},"properties":{"name":"New Paradigm Loving Elementary","owner":"Keys Grace Academy","address":"1000 Lynn Ave","zipcode":"48202","license_type":"Fixed Establishment","risk_category":"Medium","license_number":"241571","establishmentid":"51623095","establishment_type":"Charter School","establishment_status":"Open","review_frequency_days":"210","most_recent_license_date":"9/5/2019"}},"nearbyList":[{"establishmentid":"1317","name":"Loving Elementary","address":"1000 Lynn Ave","zipcode":"48202"},{"establishmentid":"4015","name":"Greater New Mount Moriah Banquet","address":"586 Owens St","zipcode":"48202"},{"establishmentid":"5204","name":"Miss Virginia's Ice Cream Parlor","address":"8801 Oakland Ave","zipcode":"48211"},{"establishmentid":"696","name":"Grandy's Coney Island","address":"1200 Holbrook Rd","zipcode":"48211"},{"establishmentid":"3650","name":"American Axle","address":"1 Dauch Dr","zipcode":"48211"},{"establishmentid":"949","name":"DIA (Northern) Detroit Int Academy","address":"9026 Woodward Ave","zipcode":"48202"},{"establishmentid":"2006","name":"Subway","address":"9320 Woodward Ave","zipcode":"48202"},{"establishmentid":"4881","name":"Cleary University","address":"8904 Woodward Ave","zipcode":"48202"},{"establishmentid":"51622757","name":"Supa Flavor ","address":"11514 St Aubin St","zipcode":"48212"},{"establishmentid":"5314","name":"Fresh Soft Serve","address":"11516 Saint Aubin St","zipcode":"48212"}],"inspectionsByEstablishmentidList":[{"inspectionid":"49015","inspectionDate":"2019-09-05T00:00:00","inspectionType":"Routine Inspection","inCompliance":"Yes","violationsByInspectionidList":[{"violationCode":"3-501.16","violationDescription":"Except during preparation, cooking, or cooling, or when time is used as the public health control POTENTIALLY HAZARDOUS FOOD (TIME/TEMPERATURE CONTROL FOR SAFETY FOOD) shall be maintained:\r\n(A)  135ºF or above, except that roasts properly cooked and cooled may be held              at a temperature of 130ºF; or (P)\r\n(B)   At 41ºF or less (P)\r\n","violationType":"Priority","itemDescription":"Cold food item(s)","subItem":"","problemDescription":"Stored above 41 degrees F","subProblem":"","location":"COOLER","subLocation":"","corrected":"Yes","daysToCorrect":"10","correctedDate":"2019-09-05T00:00:00","correctionDescription":null},{"violationCode":"5-205.11","violationDescription":"(A) A HANDWASHING SINK shall be maintained so that it is accessible at all times for EMPLOYEE use and used for no other purpose. (Pf)\r\n(B)  An automatic handwashing facility shall be used in accordance with manufacturer's instructions. (Pf)\r\n","violationType":"Foundation","itemDescription":"Handwashing sink(s)","subItem":"","problemDescription":"Not easily accessible","subProblem":"Items stored In front of","location":"KITCHEN","subLocation":"Hand sink(s)","corrected":"Yes","daysToCorrect":"10","correctedDate":"2019-09-05T00:00:00","correctionDescription":null},{"violationCode":"4-203.11","violationDescription":"(A)     FOOD TEMPERATURE MEASURING DEVICES that are scaled only in Celsius or dually scaled in Celsius and Fahrenheit shall be accurate to ±1C in the intended range of use. (Pf)\r\n(B)     FOOD TEMPERATURE MEASURING DEVICES that are scaled only in Fahrenheit shall be accurate to ±2F in the intended range of use. (Pf)\r\n\r\n","violationType":"Foundation","itemDescription":"Thermometer(s)","subItem":"","problemDescription":"Not accurate","subProblem":"To plus or minus 2 degrees f","location":"KITCHEN","subLocation":"Dial Thermometer","corrected":"Yes","daysToCorrect":"10","correctedDate":"2019-09-30T00:00:00","correctionDescription":null},{"violationCode":"8-301.11","violationDescription":"A PERSON may not operate a FOOD ESTABLISHMENT without a valid PERMIT to operate issued by the REGULATORY AUTHORITY.","violationType":"Foundation","itemDescription":"Retail food service establishment","subItem":"","problemDescription":"Did not receive health dept approval prior to opening","subProblem":"","location":"FACILITY","subLocation":"","corrected":"Yes","daysToCorrect":"10","correctedDate":"2019-09-05T00:00:00","correctionDescription":null},{"violationCode":"4-501.11","violationDescription":"EQUIPMENT shall be maintained in a state of repair and condition that meets the requirements of the code.\r\n","violationType":"Core","itemDescription":"Equipment","subItem":"","problemDescription":"Broken","subProblem":"","location":"KITCHEN","subLocation":"Equipment","corrected":"Not required","daysToCorrect":"30","correctedDate":null,"correctionDescription":null},{"violationCode":"6-501.112","violationDescription":"Dead or trapped birds, insects, rodents, and other pests shall be removed from control devices and the PREMISES at a frequency that prevents their accumulation,  decomposition, or the attraction of pests.\r\n","violationType":"Core","itemDescription":"Dead/trapped pest(s)","subItem":"insects","problemDescription":"Not removed from facility","subProblem":"","location":"THROUGHOUT FACILITY","subLocation":"","corrected":"Not required","daysToCorrect":"30","correctedDate":null,"correctionDescription":null}]}]}],"maxInspectionDate":[{"inspectionDate":"2020-05-29T00:00:00"}]}},"pageContext":{"eid":"51623095"}}