{"data":{"site":{"pathPrefix":null},"postgres":{"establishment":[{"establishmentid":"897","name":"Nolan Junior High School","address":"1150 E Lantz St","zipcode":"48238","owner":"Detroit Board of Education","licenseNumber":"034931","licenseType":"Fixed Establishment","establishmentType":"Public School","establishmentStatus":"Open","riskCategory":null,"reviewFrequencyDays":"210.0","coords":"-83.09174,42.43663","geojson":{"id":"897","type":"Feature","geometry":{"type":"Point","coordinates":[-83.0917369169999,42.4366292720001]},"properties":{"name":"Nolan Junior High School","owner":"Detroit Board of Education","address":"1150 E Lantz St","zipcode":"48238","license_type":"Fixed Establishment","risk_category":null,"license_number":"034931","establishmentid":"897","establishment_type":"Public School","establishment_status":"Open","review_frequency_days":"210.0","most_recent_license_date":"5/15/2015"}},"nearbyList":[{"establishmentid":"5339","name":"Liangs Beijing","address":"1136 E Seven Mile Rd","zipcode":"48203"},{"establishmentid":"5281","name":"Davison Fish N Seafood LLC","address":"1520 E Seven Mile","zipcode":"48203"},{"establishmentid":"682","name":"Mr. Mapps Lounge","address":"1627 E Seven Mile Rd","zipcode":"48203"},{"establishmentid":"2724","name":"Grinder 2","address":"1648 E Seven Mile Rd","zipcode":"48203"},{"establishmentid":"4637","name":"Bert's Market Place--Outdoor Cafe","address":"2727-39 Russell St","zipcode":"48207"},{"establishmentid":"1461","name":"Bert's Market Place -Jazz Bar/Food Court","address":"2727-31 Russell St","zipcode":"48207"},{"establishmentid":"4635","name":"Bert's Warehouse Theater","address":"2739 Russell St","zipcode":"48207"},{"establishmentid":"4636","name":"Bert's Market Place--Commissary","address":"2739 Russell St","zipcode":"48207"},{"establishmentid":"2377","name":"Pete's Grill","address":"1400 E Outer Dr","zipcode":"48234"},{"establishmentid":"210","name":"Domino's Pizza #1169","address":"1636 E Eight Mile Rd","zipcode":"48203"}],"inspectionsByEstablishmentidList":[{"inspectionid":"44512","inspectionDate":"2018-12-17T00:00:00","inspectionType":"Routine Inspection","inCompliance":"Yes","violationsByInspectionidList":[]},{"inspectionid":"42184","inspectionDate":"2018-05-09T00:00:00","inspectionType":"Routine Inspection","inCompliance":"Yes","violationsByInspectionidList":[]},{"inspectionid":"39877","inspectionDate":"2017-09-07T00:00:00","inspectionType":"Routine Inspection","inCompliance":"No","violationsByInspectionidList":[{"violationCode":"5-103.12","violationDescription":"Water under pressure shall be provided to all fixtures, EQUIPMENT, and nonFOOD EQUIPMENT that are required to use water unless otherwise approved. (Pf)\r\n","violationType":"Foundation","itemDescription":"Water under pressure","subItem":"","problemDescription":"Insufficient to meet demands","subProblem":"","location":"HANDSINK(S)","subLocation":"","corrected":"No","daysToCorrect":"10.0","correctedDate":null,"correctionDescription":"Provide sufficient water pressure to meet demand of use."},{"violationCode":"3-501.13","violationDescription":"POTENTIALLY HAZARDOUS FOOD (TIME/TEMPERATURE CONTROL FOR SAFETY FOOD)  shall be thawed:  Under refrigeration, or under cool running water (<70° F), or as part of cooking process, and total accumulated time above 41° F, for thawed portions, shall not exceed 4 hours.  Any thawing procedure may be used for immediate service for individual consumers order of READY-TO-EAT foods.\r\n","violationType":"Core","itemDescription":"Frozen food(s) for thawing","subItem":"","problemDescription":"Stored in water","subProblem":"","location":"PREP SINK","subLocation":"","corrected":"Yes","daysToCorrect":"30.0","correctedDate":"2017-09-07T00:00:00","correctionDescription":null}]},{"inspectionid":"37119","inspectionDate":"2016-11-16T00:00:00","inspectionType":"Routine Inspection","inCompliance":"Yes","violationsByInspectionidList":[]}]}]}},"pageContext":{"eid":"897"}}