{"componentChunkName":"component---src-templates-establishment-page-js","path":"/establishment/4484","result":{"data":{"site":{"pathPrefix":"/restaurant-inspections"},"postgres":{"establishment":[{"establishmentid":"4484","name":"Krispy Krunchy Chicken","address":"579 Monroe","zipcode":"48226","owner":"","licenseNumber":"031319ML","licenseType":"Fixed Establishment","establishmentType":"Food Service Establishment","establishmentStatus":"Community Industrial Hygiene","riskCategory":"High","reviewFrequencyDays":"150","coords":"-83.04135,42.33567","geojson":{"id":"4484","type":"Feature","geometry":{"type":"Point","coordinates":[-83.041352441,42.335672667]},"properties":{"name":"Krispy Krunchy Chicken","owner":"","address":"579 Monroe","zipcode":"48226","license_type":"Fixed Establishment","risk_category":"High","license_number":"031319ML","establishmentid":"4484","establishment_type":"Food Service Establishment","establishment_status":"Community Industrial Hygiene","review_frequency_days":"150","most_recent_license_date":null}},"nearbyList":[{"establishmentid":"1526","name":"Cyprus Taverna","address":"579 Monroe St.","zipcode":"48226"},{"establishmentid":"4110","name":"Red Smoke","address":"573 Monroe St.","zipcode":"48226"},{"establishmentid":"4743","name":"Red Smoke Barbeque","address":"573 Monroe","zipcode":"48226"},{"establishmentid":"530","name":"New Hellas Cafe","address":"583 Monroe","zipcode":"48226"},{"establishmentid":"5245","name":"Wahlburgers","address":"569 Monroe","zipcode":"48226"},{"establishmentid":"512","name":"Laikon Restaurant","address":"569 Monroe St.","zipcode":"48226"},{"establishmentid":"1447","name":"Monroe Street Cafe","address":"561 Monroe St.","zipcode":"48226"},{"establishmentid":"1403","name":"Pizza Papalis Taverna","address":"553 Monroe St.","zipcode":"48226"},{"establishmentid":"1261","name":"Pegasus Taverna","address":"558 Monroe St.","zipcode":"48226"},{"establishmentid":"1488","name":"New Parthenon","address":"547 Monroe St.","zipcode":"48226"}],"inspectionsByEstablishmentidList":[{"inspectionid":"45608","inspectionDate":"2019-03-15T00:00:00","inspectionType":"Routine Inspection","inCompliance":"Yes","violationsByInspectionidList":[{"violationCode":"3-302.11","violationDescription":"(A) FOOD shall be protected from cross contamination by:  \n(1) Except as specified in (1)(c) below, separating raw animal FOODS during         storage, preparation, holding, and display from:\n(a) Raw READY-TO-EAT FOOD including other raw animal FOOD such as FISH for sushi or MOLLUSCAN SHELLFISH, or other raw READY-TO-EAT FOOD such as fruits and vegetables,(P) and\n(b) Cooked READY-TO-EAT FOOD; (P)\n(c) Frozen, commercially processed and packaged raw animal FOOD may be          stored or displayed with or above frozen, commercially processed and           packaged, ready-to-eat food.\n(2) Except when combined as ingredients, separating types of raw animal FOODS    from each other such as beef, FISH, lamb, pork, and POULTRY during storage,        preparation, holding, and display by:\n(a) Using separate EQUIPMENT for each type, (P) or\n(b) Arranging each type of FOOD in EQUIPMENT so that cross contamination of one type with another is prevented, (P) and\n(c) Preparing each type of FOOD at different times or in separate areas; (P)\n","violationType":"Priority","itemDescription":null,"subItem":"","problemDescription":null,"subProblem":"","location":"","subLocation":"","corrected":"True","daysToCorrect":"10","correctedDate":"2019-03-16T00:00:00","correctionDescription":null},{"violationCode":"6-501.12","violationDescription":"(A) PHYSICAL FACILITIES shall be cleaned as often as necessary to keep them clean.\n(B) Except spill cleanup, cleaning shall be done during periods when the least amount of FOOD is exposed such as after closing. ","violationType":"Core","itemDescription":"Physical facilities/structures","subItem":"floors","problemDescription":"With accumulation of debris","subProblem":"","location":"COOK LINE AREA","subLocation":"and the Prep area","corrected":"False","daysToCorrect":"30","correctedDate":null,"correctionDescription":null}]}]}],"maxInspectionDate":[{"inspectionDate":"2023-04-25T00:00:00"}]}},"pageContext":{"eid":"4484"}},"staticQueryHashes":["3649515864","63159454"]}