{"componentChunkName":"component---src-templates-establishment-page-js","path":"/establishment/51622548","result":{"data":{"site":{"pathPrefix":"/restaurant-inspections"},"postgres":{"establishment":[{"establishmentid":"51622548","name":"Table No. 2 Restaurant","address":"18925 Livernois ","zipcode":"48219","owner":"Shimar Mitchell","licenseNumber":"236366","licenseType":"Fixed Establishment","establishmentType":"Food Service Establishment","establishmentStatus":"Permanently Closed","riskCategory":"High","reviewFrequencyDays":"150","coords":"-83.14169,42.42992","geojson":{"id":"51622548","type":"Feature","geometry":{"type":"Point","coordinates":[-83.141689655,42.429920325]},"properties":{"name":"Table No. 2 Restaurant","owner":"Shimar Mitchell","address":"18925 Livernois ","zipcode":"48219","license_type":"Fixed Establishment","risk_category":"High","license_number":"236366","establishmentid":"51622548","establishment_type":"Food Service Establishment","establishment_status":"Permanently Closed","review_frequency_days":"150","most_recent_license_date":"26/5/2017"}},"nearbyList":[{"establishmentid":"51623576","name":"Detroit Finger Licken ","address":"18925 Livernois ","zipcode":"48221"},{"establishmentid":"459","name":"Sheppard's Soul Food","address":"18925 Livernois Ave.","zipcode":"48221"},{"establishmentid":"51623964","name":"Big Moe's Kitchen","address":"18925 Livernois","zipcode":"48221"},{"establishmentid":"51622673","name":"Biggby Coffee","address":"18685 Livernois","zipcode":"48221"},{"establishmentid":"51623010","name":"Toss & Sauce","address":"18673 Livernois","zipcode":"48221"},{"establishmentid":"51622468","name":"Social Sushi","address":"18663 Livernois","zipcode":"48221"},{"establishmentid":"2469","name":"Pizza Hut #26313","address":"18680 Livernois Ave.","zipcode":"48221"},{"establishmentid":"51623883","name":"Tang 168 China Wok LLC","address":"18670 Livernois","zipcode":"48221"},{"establishmentid":"2467","name":"China Wok","address":"18670 Livernois Ave.","zipcode":"48221"},{"establishmentid":"1656","name":"Boston Market #976","address":"18610 Livernois Ave.","zipcode":"48221"}],"inspectionsByEstablishmentidList":[{"inspectionid":"49055","inspectionDate":"2019-09-12T00:00:00","inspectionType":"Routine Inspection","inCompliance":"Yes","violationsByInspectionidList":[{"violationCode":"7-204.11","violationDescription":"Chemical SANITIZERS and other chemical antimicrobials applied to FOOD-CONTACT SURFACES shall meet the requirements specified in this code. (P)\n","violationType":"Priority","itemDescription":"Sanitizer(s)","subItem":"","problemDescription":"Not approved for use","subProblem":"","location":"3 COMPARTMENT SINK AREA","subLocation":"","corrected":"True","daysToCorrect":"10","correctedDate":"0001-01-01T00:00:00","correctionDescription":null},{"violationCode":"3-501.17","violationDescription":"(A)  READY-TO-EAT, POTENTIALLY HAZARDOUS FOOD (TIME/TEMPERATURE CONTROL FOR SAFETY FOOD)  prepared and held refrigerated for more than 24 hours in a FOOD ESTABLISHMENT  shall be clearly marked at the time of preparation to indicate the date or day by which the FOOD shall be consumed. (Pf)\n(B)  A container of refrigerated, commercially prepared READY-TO-EAT POTENTIALLY HAZARDOUS FOOD (TIME/TEMPERATURE CONTROL FOR SAFETY FOOD)  shall be clearly marked, at the time the original container is opened in a FOOD ESTABLISHMENT, to indicate the date or day by which the FOOD shall be consumed. (Pf)\n\nA date marking system that does not exceed 7 days, including date of preparation, or opening is to be used. (Pf)\n","violationType":"Foundation","itemDescription":"In house prepared ready-to-eat potentially hazardous  food(s)","subItem":"","problemDescription":"Without date of consumption marking","subProblem":"","location":"COOLER","subLocation":"","corrected":"True","daysToCorrect":"10","correctedDate":"0001-01-01T00:00:00","correctionDescription":null},{"violationCode":"5-205.11","violationDescription":"(A) A HANDWASHING SINK shall be maintained so that it is accessible at all times for EMPLOYEE use and used for no other purpose. (Pf)\n(B)  An automatic handwashing facility shall be used in accordance with manufacturer's instructions. (Pf)\n","violationType":"Foundation","itemDescription":"Handwashing sink(s)","subItem":"","problemDescription":"Used for culinary purposes","subProblem":"Cleaning","location":"HANDSINK(S)","subLocation":"","corrected":"True","daysToCorrect":"10","correctedDate":"0001-01-01T00:00:00","correctionDescription":null}]},{"inspectionid":"45629","inspectionDate":"2019-03-15T00:00:00","inspectionType":"Plan Review/Pre-Open","inCompliance":"Yes","violationsByInspectionidList":[]}]}],"maxInspectionDate":[{"inspectionDate":"2023-04-13T00:00:00"}]}},"pageContext":{"eid":"51622548"}},"staticQueryHashes":["3649515864","63159454"]}