{"componentChunkName":"component---src-templates-establishment-page-js","path":"/establishment/5084","result":{"data":{"site":{"pathPrefix":"/restaurant-inspections"},"postgres":{"establishment":[{"establishmentid":"5084","name":"Word In Action Christian Center","address":"19780 Meyers","zipcode":"48227","owner":"Word In Action Christain C.","licenseNumber":"200047","licenseType":"Fixed Establishment","establishmentType":"Food Service Establishment","establishmentStatus":"Open","riskCategory":"Medium","reviewFrequencyDays":"335","coords":"-83.17040,42.43765","geojson":{"id":"5084","type":"Feature","geometry":{"type":"Point","coordinates":[-83.170398255,42.437651704]},"properties":{"name":"Word In Action Christian Center","owner":"Word In Action Christain C.","address":"19780 Meyers","zipcode":"48227","license_type":"Fixed Establishment","risk_category":"Medium","license_number":"200047","establishmentid":"5084","establishment_type":"Food Service Establishment","establishment_status":"Open","review_frequency_days":"335","most_recent_license_date":"2023-04-14"}},"nearbyList":[{"establishmentid":"1550","name":"Michigan Technical Academy/Meyers","address":"19780 Meyers Ave.","zipcode":"48235"},{"establishmentid":"51623188","name":"Gridiron Taco","address":"19780 Meyers","zipcode":"48227"},{"establishmentid":"723","name":"Motor City Soul Food","address":"12700 Seven Mile Rd. W.","zipcode":"48235"},{"establishmentid":"51623192","name":"Motor City Soul Food","address":"12730 W. Seven Mile Rd.","zipcode":"48235"},{"establishmentid":"51622575","name":"Capital Hook Fish & Chicken Inc","address":"10600 W. Seven Mile Rd.","zipcode":"48221"},{"establishmentid":"51623840","name":"Hook Market Inc.","address":"10600 Seven Mile W.","zipcode":"48221"},{"establishmentid":"51623544","name":"Capital Hook Fish & Chicken Plus Inc.","address":"10600 Seven Mile W.","zipcode":"48221"},{"establishmentid":"5280","name":"Capital Hook Fish & Chicken Inc","address":"10600 W. Seven MIle Rd.","zipcode":"48221"},{"establishmentid":"3357","name":"Hook Fish & Chicken","address":"10600 Seven Mile Rd. W.","zipcode":"48221"},{"establishmentid":"669","name":"Lotus Gardens","address":"12832 Seven Mile Rd. W.","zipcode":"48235"}],"inspectionsByEstablishmentidList":[{"inspectionid":"58383","inspectionDate":"2022-04-17T00:00:00","inspectionType":"Routine Inspection","inCompliance":"Yes","violationsByInspectionidList":[]},{"inspectionid":"55970","inspectionDate":"2021-03-08T00:00:00","inspectionType":"Routine Inspection","inCompliance":"Yes","violationsByInspectionidList":[]},{"inspectionid":"50737","inspectionDate":"2020-03-10T00:00:00","inspectionType":"Routine Inspection","inCompliance":"Yes","violationsByInspectionidList":[]},{"inspectionid":"44792","inspectionDate":"2019-01-08T00:00:00","inspectionType":"Routine Inspection","inCompliance":"Yes","violationsByInspectionidList":[{"violationCode":"MFL289.2129","violationDescription":"Sec. 2129. (1) All food establishments shall employ a minimum of 1 managerial employee as a food safety manager, who must be an individual who is currently certified under a personnel certification program accredited by the American National Standards Institute, utilizing the Conference for Food Protection standards:\n(2) Beginning January 14, 2017 and every 5 years thereafter, a certified  food safety manager who supervises the operations of a food service establishment shall have completed a food safety training program\ncontaining an allergen awareness  component that has been approved by  the department. A food service establishment shall retain records on the  site of the food service establishment documenting compliance of its  certified food safety managers with this subsection. ","violationType":"Core","itemDescription":"Person-in-charge","subItem":"","problemDescription":null,"subProblem":"","location":"FACILITY","subLocation":"","corrected":"False","daysToCorrect":"30","correctedDate":null,"correctionDescription":null},{"violationCode":"5-501.17","violationDescription":"A toilet room used by females shall be provided with a covered receptacle for sanitary napkins.\n","violationType":"Core","itemDescription":"Covered waste receptacle(s)","subItem":"","problemDescription":"Not provided","subProblem":"","location":"RESTROOM (UNISEX)","subLocation":"","corrected":"False","daysToCorrect":"30","correctedDate":null,"correctionDescription":"Provide."}]},{"inspectionid":"40594","inspectionDate":"2017-10-25T00:00:00","inspectionType":"Routine Inspection","inCompliance":"Yes","violationsByInspectionidList":[]},{"inspectionid":"36916","inspectionDate":"2016-10-26T00:00:00","inspectionType":"Routine Inspection","inCompliance":"Yes","violationsByInspectionidList":[]}]}],"maxInspectionDate":[{"inspectionDate":"2023-04-25T00:00:00"}]}},"pageContext":{"eid":"5084"}},"staticQueryHashes":["3649515864","63159454"]}