{"data":{"site":{"pathPrefix":"/restaurant-inspections"},"postgres":{"establishment":[{"establishmentid":"51622920","name":"El Taco Veloz #3","address":"6170 Toledo St","zipcode":"48209","owner":"Hector Hernandez","licenseNumber":"236351","licenseType":"Mobile Food Establishment","establishmentType":"LHD - Mobile Food Establishmen","establishmentStatus":"Seasonal","riskCategory":"Medium","reviewFrequencyDays":"210","coords":"-83.10986,42.31904","geojson":{"id":"51622920","type":"Feature","geometry":{"type":"Point","coordinates":[-83.109862778,42.31903615]},"properties":{"name":"El Taco Veloz #3","owner":"Hector Hernandez","address":"6170 Toledo St","zipcode":"48209","license_type":"Mobile Food Establishment","risk_category":"Medium","license_number":"236351","establishmentid":"51622920","establishment_type":"LHD - Mobile Food Establishmen","establishment_status":"Seasonal","review_frequency_days":"210","most_recent_license_date":"3/6/2019"}},"nearbyList":[{"establishmentid":"4668","name":"El Taco Veloz #2","address":"6170 Toledo Rd","zipcode":"48209"},{"establishmentid":"4342","name":"El Taco Veloz","address":"6170 Toledo St","zipcode":"48209"},{"establishmentid":"51622911","name":"El Taco Veloz #1","address":"6170 Toledo St","zipcode":"48209"},{"establishmentid":"4613","name":"El Taco Veloz #1","address":"6170 Toledo","zipcode":"48209"},{"establishmentid":"3143","name":"Tacos El Taquito Mexican Food","address":"1985 Military St","zipcode":"48209"},{"establishmentid":"931","name":"Neinas Elementary","address":"6021 McMillan St","zipcode":"48209"},{"establishmentid":"1052","name":"Blue Diamond","address":"2453 Campbell St N","zipcode":"48209"},{"establishmentid":"51623062","name":"Wing Stop","address":"6166 W Vernor","zipcode":"48209"},{"establishmentid":"4848","name":"Subway","address":"6166 W Vernor","zipcode":"48209"},{"establishmentid":"5104","name":"Bella's Coffee House ","address":"2303 Campbell St","zipcode":"48209"}],"inspectionsByEstablishmentidList":[{"inspectionid":"48391","inspectionDate":"2019-07-17T00:00:00","inspectionType":"Routine Inspection","inCompliance":"Yes","violationsByInspectionidList":[{"violationCode":"6-301.12","violationDescription":"Each HANDWASHING SINK or group of adjacent HANDWASHING SINKS shall be provided with:\r\n(A) Individual, disposable towels; (Pf)\r\n(B) A continuous towel system that supplies the user with a clean towel;(Pf) or \r\n(C) A heated-air hand drying device.(Pf)\r\n(D) A hand drying device that employs an air-knife system that delivers high velocity pressurized air at ambient temperatures.(Pf)\r\n","violationType":"Foundation","itemDescription":"Sanitary hand drying provisions","subItem":"","problemDescription":"Not provided","subProblem":"","location":"HANDSINK(S)","subLocation":"Hand-drying towels","corrected":"Yes","daysToCorrect":"10","correctedDate":"2019-07-17T00:00:00","correctionDescription":"Provide."}]},{"inspectionid":"45467","inspectionDate":"2019-03-06T00:00:00","inspectionType":"Plan Review/Pre-Open","inCompliance":"Yes","violationsByInspectionidList":[{"violationCode":"5-103.11","violationDescription":"(A) The water source and system shall be of sufficient capacity to meet the peak water demands of the FOOD ESTABLISHMENT. (Pf)\r\n(B) Hot water generation and distribution systems shall be sufficient to meet the peak hot water demands throughout the FOOD ESTABLISHMENT. (Pf)\r\n","violationType":"Foundation","itemDescription":"Hot water supply","subItem":"","problemDescription":"Insufficient to meet demands","subProblem":"","location":"MOBILE UNIT","subLocation":"HOT WATER","corrected":"Yes","daysToCorrect":"10","correctedDate":"2019-03-13T00:00:00","correctionDescription":"Provide sufficient supply if hot water such as a larger or additional hot water heater."},{"violationCode":"4-204.112","violationDescription":"(A)  In a mechanically refrigerated or hot FOOD storage unit, the sensor of a TEMPERATURE MEASURING DEVICE shall be located to measure the air temperature in the warmest part of a mechanically refrigerated unit and in the coolest part of a hot FOOD storage unit.\r\n(B)  Cold or hot holding EQUIPMENT used for POTENTIALLY HAZARDOUS FOOD shall be designed to include and shall be equipped with at least one integral or permanently affixed TEMPERATURE MEASURING DEVICE that is located to allow easy viewing of the device's temperature display (EXCEPT, heat lamps, cold plates, steam tables, or other equipment where it is not practical).\r\n(C)  TEMPERATURE MEASURING DEVICES shall be designed to be easily readable.\r\n(D)  FOOD TEMPERATURE MEASURING DEVICES and water TEMPERATURE MEASURING DEVICES on WAREWASHING machines shall have a numerical scale, printed record, or digital readout in increments no greater than 1C or 2F in the intended range of use. (Pf)\r\n\r\n","violationType":"Core","itemDescription":"Thermometer(s)","subItem":"refrigeration","problemDescription":"Not provided","subProblem":"","location":"MOBILE UNIT","subLocation":"Thermometer(s)","corrected":"Yes","daysToCorrect":"10","correctedDate":"2019-03-13T00:00:00","correctionDescription":"Provide as required"}]}]}],"maxInspectionDate":[{"inspectionDate":"2020-05-29T00:00:00"}]}},"pageContext":{"eid":"51622920"}}