{"data":{"site":{"pathPrefix":"/restaurant-inspections"},"postgres":{"establishment":[{"establishmentid":"51622743","name":"Diamond Hospitality LLC","address":"4777 E Outer Drive","zipcode":"48234","owner":null,"licenseNumber":"229385","licenseType":"Fixed Establishment","establishmentType":null,"establishmentStatus":null,"riskCategory":"High","reviewFrequencyDays":"180.0","coords":"-83.01991,42.44227","geojson":{"id":"51622743","type":"Feature","geometry":{"type":"Point","coordinates":[-83.0199059129999,42.4422723000001]},"properties":{"name":"Diamond Hospitality LLC","owner":null,"address":"4777 E Outer Drive","zipcode":"48234","license_type":"Fixed Establishment","risk_category":"High","license_number":"229385","establishmentid":"51622743","establishment_type":null,"establishment_status":null,"review_frequency_days":"180.0","most_recent_license_date":null}},"nearbyList":[{"establishmentid":"564","name":"American Serbian Memorial Hall","address":"19940 Van Dyke Ave","zipcode":"48234"},{"establishmentid":"1657","name":"McDonald's #14217","address":"19840 Van Dyke Ave","zipcode":"48234"},{"establishmentid":"1478","name":"Nortown Dairy Bar","address":"20018 Van Dyke Ave","zipcode":"48234"},{"establishmentid":"5249","name":"Motown Cafe Grill","address":"19638 Van Dyke Street","zipcode":"48234"},{"establishmentid":"1864","name":"Hec's Stables","address":"20005 Van Dyke Ave","zipcode":"48234"},{"establishmentid":"763","name":"Bel Air 10 Theater","address":"10100 E Eight Mile Rd","zipcode":"48234"},{"establishmentid":"51622683","name":"Detroit Grill & Deli","address":"20216 Van Dyke Ave","zipcode":"48234"},{"establishmentid":"1576","name":"Burger King Corp #6796","address":"19901 Van Dyke Ave","zipcode":"48234"},{"establishmentid":"643","name":"UAW Local Union #1700","address":"8230 E Eight Mile Rd","zipcode":"48234"},{"establishmentid":"5335","name":"Great Lakes Fish & Chicken Market","address":"20445 Van Dyke Ave","zipcode":"48234"}],"inspectionsByEstablishmentidList":[{"inspectionid":"45212","inspectionDate":"2019-02-15T00:00:00","inspectionType":"Routine Inspection","inCompliance":"Yes","violationsByInspectionidList":[{"violationCode":"6-501.12","violationDescription":"(A) PHYSICAL FACILITIES shall be cleaned as often as necessary to keep them clean.\r\n(B) Except spill cleanup, cleaning shall be done during periods when the least amount of FOOD is exposed such as after closing. ","violationType":"Core","itemDescription":"Physical facilities/structures","subItem":"","problemDescription":"With accumulation of debris","subProblem":"","location":"THROUGHOUT FACILITY","subLocation":"","corrected":"Not required","daysToCorrect":"30.0","correctedDate":null,"correctionDescription":"Keep clean."},{"violationCode":"3-302.12","violationDescription":"Except for containers holding FOOD that can be readily and unmistakably recognized such as dry pasta, working containers holding FOOD or FOOD ingredients that are removed from their original packages for use in the FOOD ESTABLISHMENT, such as cooking oils, flour, herbs, potato flakes, salt, spices, and sugar shall be identified with the common name of the FOOD.","violationType":"Core","itemDescription":"Food item(s)","subItem":"","problemDescription":"Not identified","subProblem":"","location":"DRY STORAGE AREA","subLocation":"","corrected":"Not required","daysToCorrect":"30.0","correctedDate":null,"correctionDescription":"Label containers with common name."}]},{"inspectionid":"45122","inspectionDate":"2019-02-07T00:00:00","inspectionType":"Routine Inspection","inCompliance":"Yes","violationsByInspectionidList":[]},{"inspectionid":"43018","inspectionDate":"2018-07-19T00:00:00","inspectionType":"Routine Inspection","inCompliance":"Yes","violationsByInspectionidList":[{"violationCode":"6-301.12","violationDescription":"Each HANDWASHING SINK or group of adjacent HANDWASHING SINKS shall be provided with:\r\n(A) Individual, disposable towels; (Pf)\r\n(B) A continuous towel system that supplies the user with a clean towel;(Pf) or \r\n(C) A heated-air hand drying device.(Pf)\r\n(D) A hand drying device that employs an air-knife system that delivers high velocity pressurized air at ambient temperatures.(Pf)\r\n","violationType":"Foundation","itemDescription":null,"subItem":"","problemDescription":null,"subProblem":"","location":null,"subLocation":"","corrected":"Yes","daysToCorrect":"10.0","correctedDate":"2018-07-19T00:00:00","correctionDescription":null}]}]}],"maxInspectionDate":[{"inspectionDate":"2019-05-31T00:00:00"}]}},"pageContext":{"eid":"51622743"}}