{"data":{"postgres":{"establishment":[{"establishmentid":"682","name":"Mr. Mapps Lounge","address":"1627 E Seven Mile Rd","zipcode":"48203","owner":"Mapps Robert L","licenseNumber":"034627","licenseType":"Fixed Establishment","establishmentType":"Food Service Establishment","establishmentStatus":"Temporarily Closed","riskCategory":"Low","reviewFrequencyDays":"365.0","coords":"-83.08709,42.43299","geojson":{"id":"682","type":"Feature","geometry":{"type":"Point","coordinates":[-83.0870914069999,42.4329879380001]},"properties":{"name":"Mr. Mapps Lounge","owner":"Mapps Robert L","address":"1627 E Seven Mile Rd","zipcode":"48203","license_type":"Fixed Establishment","risk_category":"Low","license_number":"034627","establishmentid":"682","establishment_type":"Food Service Establishment","establishment_status":"Temporarily Closed","review_frequency_days":"365.0","most_recent_license_date":"4/27/2017"}},"nearbyList":[{"establishmentid":"2724","name":"Grinder 2","address":"1648 E Seven Mile Rd","zipcode":"48203"},{"establishmentid":"5281","name":"Davison Fish N Seafood LLC","address":"1520 E Seven Mile","zipcode":"48203"},{"establishmentid":"5339","name":"Liangs Beijing","address":"1136 E Seven Mile Rd","zipcode":"48203"},{"establishmentid":"686","name":"West Indian Amerian Assn","address":"2015 E Seven Mile Rd","zipcode":"48234"},{"establishmentid":"897","name":"Nolan Junior High School","address":"1150 E Lantz St","zipcode":"48238"},{"establishmentid":"2377","name":"Pete's Grill","address":"1400 E Outer Dr","zipcode":"48234"},{"establishmentid":"1197","name":"Yiu Chan Restaurant","address":"2415 E Seven Mile Rd","zipcode":"48234"},{"establishmentid":"51622598","name":"Clarks Smokehouse Grill","address":"2440 E Seven Mile Rd","zipcode":"48234"},{"establishmentid":"1919","name":"L & L Adult Day Care","address":"1485 E Outer Dr","zipcode":"48234"},{"establishmentid":"1899","name":"Inuendo","address":"744 E Savannah St","zipcode":"48203"},{"establishmentid":"4486","name":"Christian Guidance Center","address":"19211 Anglin St","zipcode":"48234"},{"establishmentid":"3220","name":"Hash Brown Cafe","address":"19458 Conant Ave","zipcode":"48234"},{"establishmentid":"250","name":"Erotic City","address":"19326 Conant Ave","zipcode":"48234"},{"establishmentid":"3072","name":"Munchee's Mania","address":"19310 Conant Ave","zipcode":"48234"},{"establishmentid":"4636","name":"Bert's Market Place--Commissary","address":"2739 Russell St","zipcode":"48207"},{"establishmentid":"4635","name":"Bert's Warehouse Theater","address":"2739 Russell St","zipcode":"48207"},{"establishmentid":"1461","name":"Bert's Market Place -Jazz Bar/Food Court","address":"2727-31 Russell St","zipcode":"48207"},{"establishmentid":"4637","name":"Bert's Market Place--Outdoor Cafe","address":"2727-39 Russell St","zipcode":"48207"},{"establishmentid":"1398","name":"Asian Corned Beef","address":"2847 E Seven Mile Rd","zipcode":"48234"},{"establishmentid":"1502","name":"Fish King Restaurant","address":"20351 Conant Ave","zipcode":"48234"}],"inspectionsByEstablishmentidList":[{"inspectionid":"42202","inspectionDate":"2018-04-25T00:00:00","inspectionType":"Routine Inspection","inCompliance":"Yes","violationsByInspectionidList":[{"violationCode":"5-501.17","violationDescription":"A toilet room used by females shall be provided with a covered receptacle for sanitary napkins.\r\n","violationType":"Core","itemDescription":"Covered waste receptacle(s)","subItem":"","problemDescription":"Not provided","subProblem":"","location":"RESTROOM (WOMEN'S PUBLIC)","subLocation":"","corrected":"Not required","daysToCorrect":"30.0","correctedDate":null,"correctionDescription":"Provide as required"},{"violationCode":"4-501.11","violationDescription":"EQUIPMENT shall be maintained in a state of repair and condition that meets the requirements of the code.\r\n","violationType":"Core","itemDescription":"Equipment","subItem":"","problemDescription":"In poor repair","subProblem":"","location":"MICROWAVE","subLocation":"","corrected":"Not required","daysToCorrect":"30.0","correctedDate":null,"correctionDescription":null}]},{"inspectionid":"41745","inspectionDate":"2017-11-10T00:00:00","inspectionType":"Closed - left messag","inCompliance":"Yes","violationsByInspectionidList":[]},{"inspectionid":"41744","inspectionDate":"2017-11-08T00:00:00","inspectionType":"Closed - left messag","inCompliance":"Yes","violationsByInspectionidList":[]},{"inspectionid":"41743","inspectionDate":"2017-11-02T00:00:00","inspectionType":"Closed - left messag","inCompliance":"Yes","violationsByInspectionidList":[]},{"inspectionid":"37141","inspectionDate":"2016-11-16T00:00:00","inspectionType":"Routine Inspection","inCompliance":"Yes","violationsByInspectionidList":[{"violationCode":"6-501.12","violationDescription":"(A) PHYSICAL FACILITIES shall be cleaned as often as necessary to keep them clean.\r\n(B) Except spill cleanup, cleaning shall be done during periods when the least amount of FOOD is exposed such as after closing. ","violationType":"Core","itemDescription":"Physical facilities/structures","subItem":"floors","problemDescription":"With accumulation of debris","subProblem":"","location":"BASEMENT","subLocation":"On the floor Debris","corrected":"Not required","daysToCorrect":"30.0","correctedDate":null,"correctionDescription":"Keep clean."},{"violationCode":"6-501.11","violationDescription":"PHYSICAL FACILITIES shall be maintained in good repair.\r\n","violationType":"Core","itemDescription":"Physical facilities","subItem":"Floor(s)","problemDescription":"In poor repair","subProblem":"Broken","location":"COAT CHECK/CLOAK ROOM","subLocation":"At the Floor","corrected":"Not required","daysToCorrect":"30.0","correctedDate":null,"correctionDescription":"Repair/replace."},{"violationCode":"6-304.11","violationDescription":"If necessary to keep rooms free of excessive heat, steam, condensation, vapors, obnoxious odors, smoke, and fumes, mechanical ventilation of sufficient capacity shall be provided.\r\n","violationType":"Core","itemDescription":"Mechanical ventilation","subItem":"","problemDescription":"Not provided","subProblem":"","location":"RESTROOM (WOMEN'S PUBLIC)","subLocation":"At the Mechanical ventilation","corrected":"Not required","daysToCorrect":"30.0","correctedDate":null,"correctionDescription":"Provide as required"},{"violationCode":"4-602.12","violationDescription":"(A) The FOOD-CONTACT SURFACES of cooking and baking EQUIPMENT shall be cleaned at least every 24 hours. This section does not apply to hot oil cooking and filtering EQUIPMENT if it is cleaned as specified in Subparagraph 4-602.11(D)(6).   \r\n(B) The cavities and door seals of microwave ovens shall be cleaned at least every 24 hours by using the manufacturer's recommended cleaning procedure.","violationType":"Core","itemDescription":"Microwave oven door seals and cavities","subItem":"","problemDescription":"Not cleaned","subProblem":"Through out the day as necessary","location":"FRONT PREP AREA","subLocation":"Inside the Microwave Oven(s)","corrected":"Not required","daysToCorrect":"30.0","correctedDate":null,"correctionDescription":"Clean as specified above."}]}]}]}},"pageContext":{"eid":"682"}}