{"componentChunkName":"component---src-templates-establishment-page-js","path":"/establishment/4013","result":{"data":{"site":{"pathPrefix":"/restaurant-inspections"},"postgres":{"establishment":[{"establishmentid":"4013","name":"Le Petit Zinc","address":"1055 Trumbull","zipcode":"48216","owner":"Karima Sorel","licenseNumber":"069230","licenseType":"Fixed Establishment","establishmentType":"Food Service Establishment","establishmentStatus":"Open","riskCategory":null,"reviewFrequencyDays":"150","coords":"-83.06312,42.32597","geojson":{"id":"4013","type":"Feature","geometry":{"type":"Point","coordinates":[-83.063118415,42.325967879]},"properties":{"name":"Le Petit Zinc","owner":"Karima Sorel","address":"1055 Trumbull","zipcode":"48216","license_type":"Fixed Establishment","risk_category":null,"license_number":"069230","establishmentid":"4013","establishment_type":"Food Service Establishment","establishment_status":"Open","review_frequency_days":"150","most_recent_license_date":"5/18/2017"}},"nearbyList":[{"establishmentid":"5124","name":"Mercy Education Project","address":"1450 Howard","zipcode":"48216"},{"establishmentid":"497","name":"Steak Hut","address":"1551 Lafayette W.","zipcode":"48216"},{"establishmentid":"51623551","name":"Reef Kitchens #10 (Fixed Trailer)","address":"1551 Lafayette W.","zipcode":"48216"},{"establishmentid":"51622835","name":"Burger King #1191","address":"1425  W. Lafayette Blvd.","zipcode":"48216"},{"establishmentid":"1134","name":"Burger King #4724","address":"1425 Lafayette W.","zipcode":"48216"},{"establishmentid":"51622727","name":"Lafayette West LLC.","address":"1625 Lafayette W.","zipcode":"48216"},{"establishmentid":"3041","name":"Sodexho Management","address":"1600 Howard","zipcode":"48216"},{"establishmentid":"391","name":"McCarthy's","address":"1600 Fort St. W.","zipcode":"48216"},{"establishmentid":"51622514","name":"Burroughs","address":"1331 Trumbull","zipcode":"48216"},{"establishmentid":"2256","name":"Corktown Inn","address":"1331 Trumbull","zipcode":"48216"}],"inspectionsByEstablishmentidList":[{"inspectionid":"39163","inspectionDate":"2017-07-06T00:00:00","inspectionType":"Routine Inspection","inCompliance":"Yes","violationsByInspectionidList":[{"violationCode":"MFL289.2129","violationDescription":"Sec. 2129. (1) All food establishments shall employ a minimum of 1 managerial employee as a food safety manager, who must be an individual who is currently certified under a personnel certification program accredited by the American National Standards Institute, utilizing the Conference for Food Protection standards:\n(2) Beginning January 14, 2017 and every 5 years thereafter, a certified  food safety manager who supervises the operations of a food service establishment shall have completed a food safety training program\ncontaining an allergen awareness  component that has been approved by  the department. A food service establishment shall retain records on the  site of the food service establishment documenting compliance of its  certified food safety managers with this subsection. ","violationType":"Core","itemDescription":"Person-in-charge","subItem":null,"problemDescription":"Missing","subProblem":null,"location":"RESTAURANT","subLocation":"At the PERSON IN CHARGE","corrected":"False","daysToCorrect":"30","correctedDate":null,"correctionDescription":"Provide."}]},{"inspectionid":"37582","inspectionDate":"2017-01-10T00:00:00","inspectionType":"Routine Inspection","inCompliance":"No","violationsByInspectionidList":[{"violationCode":"4-302.14","violationDescription":"A test kit or other device that accurately measures the concentration in mg/L of SANITIZING solutions shall be provided. (Pf)\n","violationType":"Foundation","itemDescription":"Sanitizer test kit","subItem":null,"problemDescription":"Not provided","subProblem":null,"location":"KITCHEN","subLocation":"Missing Test strips","corrected":"True","daysToCorrect":"10","correctedDate":"2017-01-31T00:00:00","correctionDescription":"Provide as required"},{"violationCode":"4-204.112","violationDescription":"(A)  In a mechanically refrigerated or hot FOOD storage unit, the sensor of a TEMPERATURE MEASURING DEVICE shall be located to measure the air temperature in the warmest part of a mechanically refrigerated unit and in the coolest part of a hot FOOD storage unit.\n(B)  Cold or hot holding EQUIPMENT used for POTENTIALLY HAZARDOUS FOOD shall be designed to include and shall be equipped with at least one integral or permanently affixed TEMPERATURE MEASURING DEVICE that is located to allow easy viewing of the device's temperature display (EXCEPT, heat lamps, cold plates, steam tables, or other equipment where it is not practical).\n(C)  TEMPERATURE MEASURING DEVICES shall be designed to be easily readable.\n(D)  FOOD TEMPERATURE MEASURING DEVICES and water TEMPERATURE MEASURING DEVICES on WAREWASHING machines shall have a numerical scale, printed record, or digital readout in increments no greater than 1C or 2F in the intended range of use. (Pf)\n\n","violationType":"Core","itemDescription":"Thermometer(s)","subItem":"refrigeration","problemDescription":"Not provided","subProblem":null,"location":"KITCHEN","subLocation":"In the Cooler (2 door)","corrected":"False","daysToCorrect":"10","correctedDate":null,"correctionDescription":"Provide as required"},{"violationCode":"4-501.11","violationDescription":"EQUIPMENT shall be maintained in a state of repair and condition that meets the requirements of the code.\n","violationType":"Core","itemDescription":"Equipment","subItem":null,"problemDescription":"In poor repair","subProblem":null,"location":"KITCHEN","subLocation":"In the Cooler (2 door)","corrected":"False","daysToCorrect":"30","correctedDate":null,"correctionDescription":null}]}]}],"maxInspectionDate":[{"inspectionDate":"2022-07-25T00:00:00"}]}},"pageContext":{"eid":"4013"}},"staticQueryHashes":["3649515864","63159454"]}