{"componentChunkName":"component---src-templates-establishment-page-js","path":"/establishment/51622941","result":{"data":{"site":{"pathPrefix":"/restaurant-inspections"},"postgres":{"establishment":[{"establishmentid":"51622941","name":"Michigan & Trumbull","address":"1441 Elizabeth","zipcode":"48216","owner":"Kristen Calverley","licenseNumber":"247261","licenseType":"Fixed Establishment","establishmentType":"Food Service Establishment","establishmentStatus":"Open","riskCategory":"High","reviewFrequencyDays":"150","coords":"-83.06651,42.33192","geojson":{"id":"51622941","type":"Feature","geometry":{"type":"Point","coordinates":[-83.066509995,42.331922045]},"properties":{"name":"Michigan & Trumbull","owner":"Kristen Calverley","address":"1441 Elizabeth","zipcode":"48216","license_type":"Fixed Establishment","risk_category":"High","license_number":"247261","establishmentid":"51622941","establishment_type":"Food Service Establishment","establishment_status":"Open","review_frequency_days":"150","most_recent_license_date":"2022-04-13"}},"nearbyList":[{"establishmentid":"500","name":"McShane's","address":"1460 Michigan Ave.","zipcode":"48216"},{"establishmentid":"4938","name":"UFO Factory","address":"2110  Trumbull","zipcode":"48207"},{"establishmentid":"51623349","name":"Momento Gelato And Coffee","address":"2120 Trumbull","zipcode":"48216"},{"establishmentid":"4648","name":"Ottava Via","address":"1400 Michigan Ave.","zipcode":"48226"},{"establishmentid":"1409","name":"Manna Meals","address":"1950 Trumbull Ave.","zipcode":"48216"},{"establishmentid":"545","name":"Nemos","address":"1378 Michigan Ave.","zipcode":"48226"},{"establishmentid":"4105","name":"Onassis Coney Island","address":"1501 Michigan Ave.","zipcode":"48226"},{"establishmentid":"51623946","name":"Godfrey Hotel Det. Lobby Bar & Banquets","address":"1401 Michigan Ave.","zipcode":"48216"},{"establishmentid":"51623947","name":"Godfrey Hotel Det 7th Floor Bar & Pantry","address":"1401 Michigan Ave","zipcode":"48216"},{"establishmentid":"51623948","name":"Godfrey Hotel-The Hamilton @ Godfrey","address":"1401 Michigan","zipcode":"48216"}],"inspectionsByEstablishmentidList":[{"inspectionid":"61551","inspectionDate":"2023-01-30T00:00:00","inspectionType":"Routine Inspection","inCompliance":"Yes","violationsByInspectionidList":[{"violationCode":"4-602.13","violationDescription":"NonFOOD-CONTACT SURFACES of EQUIPMENT shall be cleaned at a frequency necessary to preclude accumulation of soil residues.\n","violationType":"Core","itemDescription":"Nonfood contact surface(s)","subItem":"","problemDescription":"Soiled","subProblem":"","location":"COOLER","subLocation":"","corrected":"False","daysToCorrect":"30","correctedDate":null,"correctionDescription":null}]},{"inspectionid":"57248","inspectionDate":"2022-02-15T00:00:00","inspectionType":"Routine Inspection","inCompliance":"Yes","violationsByInspectionidList":[{"violationCode":"5-205.11","violationDescription":"(A) A HANDWASHING SINK shall be maintained so that it is accessible at all times for EMPLOYEE use and used for no other purpose. (Pf)\n(B)  An automatic handwashing facility shall be used in accordance with manufacturer's instructions. (Pf)\n","violationType":"Foundation","itemDescription":"Handwashing sink(s)","subItem":"","problemDescription":"Not easily accessible","subProblem":"Items stored In front of","location":"HANDSINK(S)","subLocation":"","corrected":"True","daysToCorrect":"10","correctedDate":"2022-02-16T00:00:00","correctionDescription":null},{"violationCode":"3-305.11","violationDescription":"FOOD shall be protected from contamination by storing the FOOD:\n(1)     In a clean, dry location;\n(2)     Where it is not exposed to splash, dust, or other contamination; and\n(3)     At least 15 cm (6 inches) above the floor, unless otherwise approved.\n","violationType":"Core","itemDescription":"Food item(s) in storage","subItem":"","problemDescription":"Stored on floor or less than 6 inches above floor","subProblem":"","location":"WALK-IN COOLER","subLocation":"","corrected":"True","daysToCorrect":"30","correctedDate":"2022-02-16T00:00:00","correctionDescription":null}]},{"inspectionid":"55776","inspectionDate":"2021-08-08T00:00:00","inspectionType":"Routine Inspection","inCompliance":"Yes","violationsByInspectionidList":[]},{"inspectionid":"52642","inspectionDate":"2020-09-01T00:00:00","inspectionType":"Routine Inspection","inCompliance":"Yes","violationsByInspectionidList":[]},{"inspectionid":"50483","inspectionDate":"2020-01-21T00:00:00","inspectionType":"Routine Inspection","inCompliance":"Yes","violationsByInspectionidList":[]},{"inspectionid":"50366","inspectionDate":"2019-12-18T00:00:00","inspectionType":"Plan Review/Pre-Open","inCompliance":"Yes","violationsByInspectionidList":[]}]}],"maxInspectionDate":[{"inspectionDate":"2023-04-25T00:00:00"}]}},"pageContext":{"eid":"51622941"}},"staticQueryHashes":["3649515864","63159454"]}