{"data":{"site":{"pathPrefix":"/restaurant-inspections"},"postgres":{"establishment":[{"establishmentid":"993","name":"Palmer Park Golf Course 3216","address":"19013 Woodward Ave","zipcode":"48203","owner":"Vargo Golf Detroit","licenseNumber":"070303","licenseType":"Fixed Establishment","establishmentType":"Food Service Establishment","establishmentStatus":"Permanently Closed","riskCategory":null,"reviewFrequencyDays":"365","coords":"-83.11664,42.43128","geojson":{"id":"993","type":"Feature","geometry":{"type":"Point","coordinates":[-83.116644298,42.431284277]},"properties":{"name":"Palmer Park Golf Course 3216","owner":"Vargo Golf Detroit","address":"19013 Woodward Ave","zipcode":"48203","license_type":"Fixed Establishment","risk_category":null,"license_number":"070303","establishmentid":"993","establishment_type":"Food Service Establishment","establishment_status":"Permanently Closed","review_frequency_days":"365","most_recent_license_date":"4/26/2016"}},"nearbyList":[{"establishmentid":"51622929","name":"Asian Corned Beef","address":"19102 Woodward Ave","zipcode":"48203"},{"establishmentid":"5032","name":"Tasty World","address":"19102 Woodward","zipcode":"48201"},{"establishmentid":"2742","name":"Golden Gate Cafe","address":"18700 Woodward Ave","zipcode":"48203"},{"establishmentid":"3191","name":"Sullaf Restaurant","address":"814 W Seven Mile Rd","zipcode":"48203"},{"establishmentid":"225","name":"Renaissance Bowling Center","address":"19600 Woodward Ave","zipcode":"48203"},{"establishmentid":"270","name":"Stonehouse Bar","address":"19803 Ralston","zipcode":"48203"},{"establishmentid":"1122","name":"Greenfield Union Annex","address":"19150 Blake St","zipcode":"48238"},{"establishmentid":"292","name":"Detroit Golf Club Inc.","address":"17911 Hamilton  St","zipcode":"48203"},{"establishmentid":"2718","name":"Bread Basket Wholesale","address":"17740 Woodward Ave ","zipcode":"48203"},{"establishmentid":"1087","name":"Menjo's","address":"928 W McNichols Rd","zipcode":"48203"}],"inspectionsByEstablishmentidList":[{"inspectionid":"39446","inspectionDate":"2017-08-01T00:00:00","inspectionType":"Routine Inspection","inCompliance":"Yes","violationsByInspectionidList":[{"violationCode":"5-205.11","violationDescription":"(A) A HANDWASHING SINK shall be maintained so that it is accessible at all times for EMPLOYEE use and used for no other purpose. (Pf)\r\n(B)  An automatic handwashing facility shall be used in accordance with manufacturer's instructions. (Pf)\r\n","violationType":"Foundation","itemDescription":"Handwashing sink(s)","subItem":"","problemDescription":"Not used according to manufacturer's label instructions","subProblem":"","location":"KITCHEN","subLocation":"","corrected":"Yes","daysToCorrect":"10","correctedDate":"2017-08-01T00:00:00","correctionDescription":"Use according to manufacturer label directions."},{"violationCode":"MFL289.2129","violationDescription":"Sec. 2129. (1) All food establishments shall employ a minimum of 1 managerial employee as a food safety manager, who must be an individual who is currently certified under a personnel certification program accredited by the American National Standards Institute, utilizing the Conference for Food Protection standards:\r\n(2) Beginning January 14, 2017 and every 5 years thereafter, a certified  food safety manager who supervises the operations of a food service establishment shall have completed a food safety training program\r\ncontaining an allergen awareness  component that has been approved by  the department. A food service establishment shall retain records on the  site of the food service establishment documenting compliance of its  certified food safety managers with this subsection. ","violationType":"Core","itemDescription":"Person-in-charge","subItem":"","problemDescription":"Missing","subProblem":"","location":"PERSON IN CHARGE","subLocation":"","corrected":"Not required","daysToCorrect":"30","correctedDate":null,"correctionDescription":"Provide."}]}]}],"maxInspectionDate":[{"inspectionDate":"2020-05-29T00:00:00"}]}},"pageContext":{"eid":"993"}}