{"data":{"site":{"pathPrefix":"/restaurant-inspections"},"postgres":{"establishment":[{"establishmentid":"5404","name":"Bozii Restaurant","address":"100 Renaissance Dr Ste. A102 ","zipcode":"48226","owner":"Dave Bachtold","licenseNumber":"217926","licenseType":"Fixed Establishment","establishmentType":"Food Service Establishment","establishmentStatus":"Permanently Closed","riskCategory":"High","reviewFrequencyDays":"365.0","coords":"-83.03977,42.32903","geojson":{"id":"5404","type":"Feature","geometry":{"type":"Point","coordinates":[-83.0397650579999,42.3290278800001]},"properties":{"name":"Bozii Restaurant","owner":"Dave Bachtold","address":"100 Renaissance Dr Ste. A102 ","zipcode":"48226","license_type":"Fixed Establishment","risk_category":"High","license_number":"217926","establishmentid":"5404","establishment_type":"Food Service Establishment","establishment_status":"Permanently Closed","review_frequency_days":"365.0","most_recent_license_date":"2/9/2017"}},"nearbyList":[{"establishmentid":"51622838","name":"Motor City Pantry/ Detroit Marriott","address":"400 Renaissance Center","zipcode":"48243"},{"establishmentid":"3242","name":"Coffee Beanery","address":"300 Renaissance Center","zipcode":"48226"},{"establishmentid":"5363","name":"McDonalds","address":"100 Renaissance Center","zipcode":"48243"},{"establishmentid":"5162","name":"Granite City Food & Brewery","address":"100 Renaissance Ste 1101","zipcode":"48243"},{"establishmentid":"3389","name":"Andiamo Riverfront","address":"400 Renaissance Center","zipcode":"48243"},{"establishmentid":"5109","name":"Andiamo Concert Venue","address":"400 Renaissance Center","zipcode":"48234"},{"establishmentid":"4279","name":"Andiamo Pizza Pie Company","address":"100 Renassiance Center ","zipcode":"48243"},{"establishmentid":"4335","name":"Joe Muer Seafood","address":"400 Renaissance Center","zipcode":"48243"},{"establishmentid":"1135","name":"Detroit Marriott Main Kitchen Hotel","address":"400 Renaissance Center ","zipcode":"48243"},{"establishmentid":"5127","name":"Panera Bread-RenCen","address":"400 Renaissance Center","zipcode":"48243"}],"inspectionsByEstablishmentidList":[{"inspectionid":"41720","inspectionDate":"2018-03-09T00:00:00","inspectionType":"Routine Inspection","inCompliance":"Yes","violationsByInspectionidList":[{"violationCode":"3-302.11","violationDescription":"(A) FOOD shall be protected from cross contamination by:  \r\n(1) Except as specified in (1)(c) below, separating raw animal FOODS during         storage, preparation, holding, and display from:\r\n(a) Raw READY-TO-EAT FOOD including other raw animal FOOD such as FISH for sushi or MOLLUSCAN SHELLFISH, or other raw READY-TO-EAT FOOD such as fruits and vegetables,(P) and\r\n(b) Cooked READY-TO-EAT FOOD; (P)\r\n(c) Frozen, commercially processed and packaged raw animal FOOD may be          stored or displayed with or above frozen, commercially processed and           packaged, ready-to-eat food.\r\n(2) Except when combined as ingredients, separating types of raw animal FOODS    from each other such as beef, FISH, lamb, pork, and POULTRY during storage,        preparation, holding, and display by:\r\n(a) Using separate EQUIPMENT for each type, (P) or\r\n(b) Arranging each type of FOOD in EQUIPMENT so that cross contamination of one type with another is prevented, (P) and\r\n(c) Preparing each type of FOOD at different times or in separate areas; (P)\r\n","violationType":"Priority","itemDescription":"Raw animal food(s)","subItem":"","problemDescription":"Stored over/next to","subProblem":"Ready-to-eat food(s)","location":"WALK-IN COOLER","subLocation":"","corrected":"Yes","daysToCorrect":"10.0","correctedDate":"2018-03-09T00:00:00","correctionDescription":"Store raw animal foods below and away from foods needing little or no further prep."},{"violationCode":"3-302.12","violationDescription":"Except for containers holding FOOD that can be readily and unmistakably recognized such as dry pasta, working containers holding FOOD or FOOD ingredients that are removed from their original packages for use in the FOOD ESTABLISHMENT, such as cooking oils, flour, herbs, potato flakes, salt, spices, and sugar shall be identified with the common name of the FOOD.","violationType":"Core","itemDescription":"Food item(s)","subItem":"","problemDescription":"Not identified","subProblem":"","location":"DRY STORAGE AREA","subLocation":"","corrected":"Yes","daysToCorrect":"30.0","correctedDate":"2018-03-09T00:00:00","correctionDescription":"Label containers with common name."}]},{"inspectionid":"38134","inspectionDate":"2017-03-01T00:00:00","inspectionType":"Routine Inspection","inCompliance":"Yes","violationsByInspectionidList":[{"violationCode":"4-602.13","violationDescription":"NonFOOD-CONTACT SURFACES of EQUIPMENT shall be cleaned at a frequency necessary to preclude accumulation of soil residues.\r\n","violationType":"Core","itemDescription":"Nonfood contact surface(s)","subItem":"","problemDescription":"Soiled","subProblem":"","location":"FRONT AREA","subLocation":"","corrected":"Not required","daysToCorrect":"30.0","correctedDate":null,"correctionDescription":"Clean."}]},{"inspectionid":"37877","inspectionDate":"2017-02-03T00:00:00","inspectionType":"Plan Review/Pre-Open","inCompliance":"Yes","violationsByInspectionidList":[]}]}],"maxInspectionDate":[{"inspectionDate":"2019-04-30T00:00:00"}]}},"pageContext":{"eid":"5404"}}