{"data":{"site":{"pathPrefix":"/restaurant-inspections"},"postgres":{"establishment":[{"establishmentid":"51623257","name":"Pop Culture Vegan Cafe","address":"15439 Mack Ave","zipcode":"48224","owner":"Brandon K. Thomas","licenseNumber":"PS15439","licenseType":"Fixed Establishment","establishmentType":"Food Service Establishment","establishmentStatus":"Open","riskCategory":null,"reviewFrequencyDays":"365","coords":"-82.94210,42.38852","geojson":{"id":"51623257","type":"Feature","geometry":{"type":"Point","coordinates":[-82.942097336,42.388524785]},"properties":{"name":"Pop Culture Vegan Cafe","owner":"Brandon K. Thomas","address":"15439 Mack Ave","zipcode":"48224","license_type":"Fixed Establishment","risk_category":null,"license_number":"PS15439","establishmentid":"51623257","establishment_type":"Food Service Establishment","establishment_status":"Open","review_frequency_days":"365","most_recent_license_date":"6/29/2020"}},"nearbyList":[{"establishmentid":"51622630","name":"Veggininies Paradise Cafe","address":"15439 Mack Ave","zipcode":"48224"},{"establishmentid":"51622760","name":"Lost River","address":"15421 Mack Ave","zipcode":"48224"},{"establishmentid":"5150","name":"Memories","address":"15421 Mack Ave","zipcode":"48224"},{"establishmentid":"4868","name":"D C's Alabama Style Chicken Fish & Ribs","address":"15401 Mack Ave","zipcode":"48224"},{"establishmentid":"5408","name":"The French Cow (Crepes Shop)","address":"1349 Beaconsfield Ave","zipcode":"4823"},{"establishmentid":"2002","name":"East Bar-Detroit","address":"15045 Mack Ave","zipcode":"48224"},{"establishmentid":"1684","name":"Ye Olde Tap Room","address":"14915 Charlevoix St","zipcode":"48215"},{"establishmentid":"846","name":"Clark Elementary School","address":"15755 Bremen Ave","zipcode":"48224"},{"establishmentid":"51622848","name":"Foodelicious","address":"14845 Mack Ave","zipcode":"48215"},{"establishmentid":"5381","name":"Mack Coney Island","address":"14845 Mack Ave","zipcode":"48215"}],"inspectionsByEstablishmentidList":[{"inspectionid":"51959","inspectionDate":"2020-06-30T00:00:00","inspectionType":"Preopening/COO","inCompliance":"No","violationsByInspectionidList":[{"violationCode":"5-203.14","violationDescription":"A PLUMBING SYSTEM shall be installed to preclude backflow of contaminants into the water supply system at each point of use at the FOOD ESTABLISHMENT by providing an air gap or installing an APPROVED backflow prevention device. (P)\r\n","violationType":"Priority","itemDescription":"Backflow prevention","subItem":"Air gap","problemDescription":"Not provided","subProblem":"","location":"REAR PREP AREA","subLocation":"Behind the Ice machine","corrected":"No","daysToCorrect":"10","correctedDate":null,"correctionDescription":null},{"violationCode":"6-303.11","violationDescription":"Light of the proper intensity shall be provided as specified.\r\n","violationType":"Core","itemDescription":"Lighting intensity","subItem":"at work levels","problemDescription":"Not maintained","subProblem":"","location":"FRONT PREP AREA","subLocation":"At the Light fixture","corrected":"Not required","daysToCorrect":"30","correctedDate":null,"correctionDescription":"Maintain in good repair"},{"violationCode":"4-903.11","violationDescription":"Cleaned EQUIPMENT and UTENSILS, laundered LINENS, and SINGLE-SERVICE and SINGLE-USE ARTICLES shall be stored in an approved manner and location.\r\n","violationType":"Core","itemDescription":"Single-service/single-use article(s)","subItem":"","problemDescription":"Exposed to dust, splash, or other contaminates","subProblem":"Not covered","location":"FRONT PREP AREA","subLocation":"At the Single service items","corrected":"Yes","daysToCorrect":"30","correctedDate":"2020-06-30T00:00:00","correctionDescription":"Store in a protective manner."},{"violationCode":"4-501.11","violationDescription":"EQUIPMENT shall be maintained in a state of repair and condition that meets the requirements of the code.\r\n","violationType":"Core","itemDescription":"Equipment","subItem":"","problemDescription":null,"subProblem":"","location":"WALK-IN FREEZER","subLocation":"At the Door","corrected":"Not required","daysToCorrect":"30","correctedDate":null,"correctionDescription":null}]}]}],"maxInspectionDate":[{"inspectionDate":"2020-10-30T00:00:00"}]}},"pageContext":{"eid":"51623257"}}