{"data":{"site":{"pathPrefix":"/restaurant-inspections"},"postgres":{"establishment":[{"establishmentid":"51622505","name":"Ford Field- Suite Kitchens","address":"2000 Brush St","zipcode":"48201","owner":null,"licenseNumber":"218005","licenseType":"Fixed Establishment","establishmentType":"Food Service Establishment","establishmentStatus":"Open","riskCategory":"Medium","reviewFrequencyDays":"365.0","coords":"-83.04552,42.33984","geojson":{"id":"51622505","type":"Feature","geometry":{"type":"Point","coordinates":[-83.04552239,42.339843494]},"properties":{"name":"Ford Field- Suite Kitchens","owner":null,"address":"2000 Brush St","zipcode":"48201","license_type":"Fixed Establishment","risk_category":"Medium","license_number":"218005","establishmentid":"51622505","establishment_type":"Food Service Establishment","establishment_status":"Open","review_frequency_days":"365.0","most_recent_license_date":"4/30/2018"}},"nearbyList":[{"establishmentid":"2048","name":"Elwood Bar & Grill","address":"300 E Adams","zipcode":"48226"},{"establishmentid":"322","name":"Twentieth Century Club, (Gem Theatre)","address":"333 Madison","zipcode":"48226"},{"establishmentid":"1106","name":"Music Hall Center","address":"350 Madison","zipcode":"48226"},{"establishmentid":"355","name":"Detroit Athletic Club","address":"241 Madison Ave","zipcode":"48226"},{"establishmentid":"3925","name":"La Casa De La Habana Detroit","address":"1502 Randolph","zipcode":"48226"},{"establishmentid":"4217","name":"Comerica Park- Tiger Den/Beer Hall","address":"2100 Woodward Ave","zipcode":"48201"},{"establishmentid":"4845","name":"Comerica Park- New Amsterdam 416","address":"2100 Woodward Ave","zipcode":"48201"},{"establishmentid":"4218","name":"Comerica Park- Kitchens Upper/Lower","address":"2100 Woodward Ave","zipcode":"48201"},{"establishmentid":"5076","name":"Comerica Park- The Corner Tap Room","address":"2100 Woodward Ave","zipcode":"48201"},{"establishmentid":"4220","name":"Comerica Park- Champions Club","address":"2100 Woodward Ave ","zipcode":"48201"},{"establishmentid":"4339","name":"Comerica Park- Mobile Venues","address":"2100 Woodward Ave","zipcode":"48201"},{"establishmentid":"4219","name":"Comerica Park- Tiger Club #300","address":"2100 Woodward Ave","zipcode":"48201"},{"establishmentid":"4221","name":"Comerica Park- Press Box Lounge","address":"2100 Woodward Ave","zipcode":"48201"},{"establishmentid":"4224","name":"Comerica Park- Vending Commissaries","address":"2100 Woodward Ave","zipcode":"48201"},{"establishmentid":"4225","name":"Comerica Park- Concession Stands","address":"2100 Woodward Ave","zipcode":"48201"},{"establishmentid":"4222","name":"Comerica Park- Michigan Craft Beer","address":"2100 Woodward Ave","zipcode":"48201"},{"establishmentid":"4223","name":"Comerica Park- Upper deck Lounge Bar","address":"2100 Woodward Ave","zipcode":"48201"},{"establishmentid":"51622520","name":"Comerica Park- Pitchers Pub","address":"2100 Woodward Ave","zipcode":"48226"},{"establishmentid":"4317","name":"Colors","address":"311 E Grand River Ave","zipcode":"48226"},{"establishmentid":"2007","name":"Subway #44796","address":"1401 Beaubien St","zipcode":"48226"}],"inspectionsByEstablishmentidList":[{"inspectionid":"43681","inspectionDate":"2018-10-07T00:00:00","inspectionType":"Routine Inspection","inCompliance":"No","violationsByInspectionidList":[{"violationCode":"4-302.14","violationDescription":"A test kit or other device that accurately measures the concentration in mg/L of SANITIZING solutions shall be provided. (Pf)\r\n","violationType":"Foundation","itemDescription":"Sanitizer test kit","subItem":"quaternary ammonia","problemDescription":"Not provided","subProblem":"","location":"THREE COMPARTMENT SINK","subLocation":"Above the Test strips","corrected":"No","daysToCorrect":"10.0","correctedDate":null,"correctionDescription":"Provide as required"},{"violationCode":"4-901.11","violationDescription":"After cleaning and SANITIZING, EQUIPMENT and UTENSILS shall be air-dried or used after adequate draining.\r\n","violationType":"Core","itemDescription":"Clean equipment and utensil(s)","subItem":"utensils","problemDescription":"Stored/stacked wet","subProblem":"","location":"DISH ROOM","subLocation":"Utensils","corrected":"Not required","daysToCorrect":"30.0","correctedDate":null,"correctionDescription":"Completely air dry all items prior to storage/use."},{"violationCode":"4-904.11","violationDescription":"(A) SINGLE-SERVICE and SINGLE-USE ARTICLES and cleaned and SANITIZED UTENSILS shall be handled, displayed, and dispensed so that contamination of FOOD- and lip-contact surfaces is prevented.   \r\n(B) Knives, forks, and spoons that are not prewrapped shall be presented so that only the handles are touched by EMPLOYEES and by CONSUMERS if CONSUMER self-service is provided.   \r\n(C) Except as specified under ¶ (B) of this section, SINGLE-SERVICE ARTICLES that are intended for FOOD- or lip-contact shall be furnished for CONSUMER self-service with the original individual wrapper intact or from an APPROVED dispenser.","violationType":"Core","itemDescription":"Kitchenware and tableware","subItem":"sanitized utensils spoons","problemDescription":"Allows for contamination of food-contact/lip-contact surfaces","subProblem":"During dispensing","location":"DISH ROOM","subLocation":"Utensils","corrected":"Yes","daysToCorrect":"30.0","correctedDate":"2018-10-07T00:00:00","correctionDescription":"Handle so as to prevent contamination."},{"violationCode":"6-501.12","violationDescription":"(A) PHYSICAL FACILITIES shall be cleaned as often as necessary to keep them clean.\r\n(B) Except spill cleanup, cleaning shall be done during periods when the least amount of FOOD is exposed such as after closing. ","violationType":"Core","itemDescription":"Physical facilities/structures","subItem":"floors","problemDescription":"With accumulation of debris","subProblem":"","location":"FLOOR","subLocation":"","corrected":"Not required","daysToCorrect":"30.0","correctedDate":null,"correctionDescription":"Keep clean."},{"violationCode":"4-501.11","violationDescription":"EQUIPMENT shall be maintained in a state of repair and condition that meets the requirements of the code.\r\n","violationType":"Core","itemDescription":"Equipment","subItem":"","problemDescription":"In poor repair","subProblem":"","location":"ICE CREAM MACHINE","subLocation":"","corrected":"Not required","daysToCorrect":"30.0","correctedDate":null,"correctionDescription":"Repair"},{"violationCode":"2-402.11","violationDescription":"FOOD EMPLOYEES shall wear hair restraints such as hats, hair coverings or nets, beard restraints, and clothing that covers body hair, that are designed and worn to effectively keep their hair from contacting exposed FOOD; clean EQUIPMENT, UTENSILS, and LINENS; or unwrapped SINGLE-SERVICE or SINGLE-USE ARTICLES.","violationType":"Core","itemDescription":"Hair restraint","subItem":"hair/beard net","problemDescription":"Not worn on head/hair","subProblem":"","location":"EMPLOYEE(S)","subLocation":"Hair Restraints/Covering","corrected":"Not required","daysToCorrect":"30.0","correctedDate":null,"correctionDescription":"Provide hat or hair net."}]},{"inspectionid":"41076","inspectionDate":"2017-12-16T00:00:00","inspectionType":"Routine Inspection","inCompliance":"Yes","violationsByInspectionidList":[{"violationCode":"3-501.16","violationDescription":"Except during preparation, cooking, or cooling, or when time is used as the public health control POTENTIALLY HAZARDOUS FOOD (TIME/TEMPERATURE CONTROL FOR SAFETY FOOD) shall be maintained:\r\n(A)  135ºF or above, except that roasts properly cooked and cooled may be held              at a temperature of 130ºF; or (P)\r\n(B)   At 41ºF or less (P)\r\n","violationType":"Priority","itemDescription":"Hot food item(s)","subItem":"","problemDescription":"Stored below 135 degrees F","subProblem":"","location":"COOK LINE AREA","subLocation":"At the Hot holding temperatures","corrected":"Yes","daysToCorrect":"10.0","correctedDate":"2017-12-16T00:00:00","correctionDescription":"Store above 135 degrees F."},{"violationCode":"6-501.12","violationDescription":"(A) PHYSICAL FACILITIES shall be cleaned as often as necessary to keep them clean.\r\n(B) Except spill cleanup, cleaning shall be done during periods when the least amount of FOOD is exposed such as after closing. ","violationType":"Core","itemDescription":"Physical facilities/structures","subItem":"floors","problemDescription":"With accumulation of debris","subProblem":"","location":"FLOOR","subLocation":"","corrected":"Not required","daysToCorrect":"30.0","correctedDate":null,"correctionDescription":"Keep clean."}]},{"inspectionid":"39593","inspectionDate":"2017-08-14T00:00:00","inspectionType":"Preopening/New","inCompliance":"Yes","violationsByInspectionidList":[]}]}]}},"pageContext":{"eid":"51622505"}}