{"data":{"site":{"pathPrefix":null},"postgres":{"establishment":[{"establishmentid":"51622859","name":"LeCulture Cafe","address":"1428 Gratiot","zipcode":"48207","owner":"Drew Matthews","licenseNumber":"230565","licenseType":"Fixed Establishment","establishmentType":"Food Service Establishment","establishmentStatus":"Open","riskCategory":"High","reviewFrequencyDays":"180.0","coords":"-83.03816,42.34381","geojson":{"id":"51622859","type":"Feature","geometry":{"type":"Point","coordinates":[-83.038160341,42.3438101300001]},"properties":{"name":"LeCulture Cafe","owner":"Drew Matthews","address":"1428 Gratiot","zipcode":"48207","license_type":"Fixed Establishment","risk_category":"High","license_number":"230565","establishmentid":"51622859","establishment_type":"Food Service Establishment","establishment_status":"Open","review_frequency_days":"180.0","most_recent_license_date":null}},"nearbyList":[{"establishmentid":"4461","name":"Antietam","address":"1428 Gratiot Ave","zipcode":"48207"},{"establishmentid":"5397","name":"Gather Detroit LLC","address":"1454 Gratiot Ave","zipcode":"48207"},{"establishmentid":"5024","name":"Trinosophes LLC","address":"1464 Gratiot Ave","zipcode":"48207"},{"establishmentid":"5205","name":"Coriander","address":"1464 Gratiot Ave","zipcode":"48207"},{"establishmentid":"1662","name":"Supino Pizzeria","address":"2457 Russell St","zipcode":"48207"},{"establishmentid":"501","name":"Vivio's Market Center Club","address":"2460 Market St","zipcode":"48207"},{"establishmentid":"4180","name":"Mootown Ice Cream Shoppe","address":"2461 Russell St","zipcode":"48207"},{"establishmentid":"1384","name":"Russell Street Deli","address":"2465 Russell St","zipcode":"48207"},{"establishmentid":"647","name":"Zeff's Coney Island","address":"2469 Russell St","zipcode":"48207"},{"establishmentid":"4964","name":"Detroit City Distillery","address":"2462 Riopelle St","zipcode":"48207"}],"inspectionsByEstablishmentidList":[{"inspectionid":"43793","inspectionDate":"2018-10-17T00:00:00","inspectionType":"Preopening/Other","inCompliance":"Yes","violationsByInspectionidList":[{"violationCode":"6-201.13","violationDescription":"(A) In FOOD ESTABLISHMENTS in which cleaning methods other than water flushing are used for cleaning floors, the floor and wall junctures shall be coved and closed to no larger than one thirty-second inch.\r\n(B) The floors in FOOD ESTABLISHMENTS in which water flush cleaning methods are used shall be provided with drains and be graded to drain, and the floor and wall junctures shall be coved and SEALED.","violationType":"Core","itemDescription":"Floor(s)","subItem":"juncture","problemDescription":"Not coved","subProblem":"","location":"KITCHEN","subLocation":"Coved molding","corrected":"Not required","daysToCorrect":"30.0","correctedDate":null,"correctionDescription":"Provide / install coved molding."},{"violationCode":"6-202.11","violationDescription":"Except as otherwise approved, light bulbs shall be shielded, coated, or otherwise shatter-resistant in areas where there is exposed FOOD; clean EQUIPMENT, UTENSILS, and LINENS; or unwrapped SINGLE-SERVICE and SINGLE-USE ARTICLES.\r\n","violationType":"Core","itemDescription":"Light shielding","subItem":"light shield(s)","problemDescription":"Not provided","subProblem":"In prep area","location":"KITCHEN","subLocation":"Light Shield(s)","corrected":"Not required","daysToCorrect":"30.0","correctedDate":null,"correctionDescription":"Provide adequate light shields and end caps or shatter-proof bulbs."}]}]}]}},"pageContext":{"eid":"51622859"}}