{"componentChunkName":"component---src-templates-establishment-page-js","path":"/establishment/51623485","result":{"data":{"site":{"pathPrefix":"/restaurant-inspections"},"postgres":{"establishment":[{"establishmentid":"51623485","name":"Velle's Grill","address":"15846 Livernois","zipcode":"48238","owner":"Jonell Sears","licenseNumber":"263433","licenseType":"Fixed Establishment","establishmentType":"Food Service Establishment","establishmentStatus":"Plan Review","riskCategory":null,"reviewFrequencyDays":null,"coords":"-83.14014,42.40828","geojson":{"id":"51623485","type":"Feature","geometry":{"type":"Point","coordinates":[-83.140140287,42.408282724]},"properties":{"name":"Velle's Grill","owner":"Jonell Sears","address":"15846 Livernois","zipcode":"48238","license_type":"Fixed Establishment","risk_category":null,"license_number":"263433","establishmentid":"51623485","establishment_type":"Food Service Establishment","establishment_status":"Plan Review","review_frequency_days":null,"most_recent_license_date":null}},"nearbyList":[{"establishmentid":"1210","name":"Rev's Kitchen & Catering","address":"15846 Livernois Ave.","zipcode":"48238"},{"establishmentid":"1556","name":"Uptown Bar B Que","address":"15700 Livernois Ave.","zipcode":"48238"},{"establishmentid":"1144","name":"Church's Fried Chicken #785","address":"16100 Livernois Ave.","zipcode":"48221"},{"establishmentid":"1023","name":"U Of D Coney Island #1","address":"16126 Livernois Ave.","zipcode":"48221"},{"establishmentid":"5164","name":"Burger King #21688","address":"16245 Livernois","zipcode":"48221"},{"establishmentid":"658","name":"Burger King ","address":"16245 Livernois Ave.","zipcode":"48221"},{"establishmentid":"4438","name":"U of Detroit Mercy-Tommy's Smoothies","address":"4001 McNichols Rd. W.","zipcode":"48221"},{"establishmentid":"1577","name":"U of Detroit Mercy-Student Cafe/Poblanos","address":"4001 McNichols Rd. W.","zipcode":"48221"},{"establishmentid":"3067","name":"Variety Vending","address":"4001 McNichols W.","zipcode":"48221"},{"establishmentid":"4143","name":"U of Detroit Mercy-Library Cafe","address":"4001 McNichols Rd. W.","zipcode":"48221"}],"inspectionsByEstablishmentidList":[{"inspectionid":"58304","inspectionDate":"2022-04-14T00:00:00","inspectionType":"Preopening/New","inCompliance":"Yes","violationsByInspectionidList":[{"violationCode":"5-202.13","violationDescription":"An air gap between the water supply inlet and the flood level rim of the PLUMBING FIXTURE, EQUIPMENT, or nonFOOD EQUIPMENT shall be at least twice the diameter of the water supply inlet and may not be less than 1 inch. (P)\n","violationType":"Priority","itemDescription":"Air gap","subItem":null,"problemDescription":"Less than","subProblem":"1 inch","location":"PREP SINK","subLocation":"Not provided (with) AIR GAP","corrected":"True","daysToCorrect":"10","correctedDate":"2022-04-14T00:00:00","correctionDescription":"Provide"},{"violationCode":"4-202.11","violationDescription":"Multiuse FOOD-CONTACT SURFACES shall be:  SMOOTH, be easily cleaned, free of breaks, chips, pits, etc and easily accessible for cleaning and inspection. (Pf)\n","violationType":"Foundation","itemDescription":null,"subItem":null,"problemDescription":null,"subProblem":null,"location":"THREE COMPARTMENT SINK","subLocation":null,"corrected":"True","daysToCorrect":"10","correctedDate":"2022-04-14T00:00:00","correctionDescription":null},{"violationCode":"6-201.16","violationDescription":"(A) Wall and ceiling covering materials shall be attached so that they are EASILY CLEANABLE.\n(B) Except in areas used only for dry storage, concrete, porous blocks, or bricks used for indoor wall construction shall be finished and SEALED to provide a SMOOTH, nonabsorbent, EASILY CLEANABLE surface.\n","violationType":"Core","itemDescription":"Wall/ceiling covering(s)","subItem":null,"problemDescription":"Not attached","subProblem":null,"location":"THREE COMPARTMENT SINK","subLocation":"No","corrected":"True","daysToCorrect":"30","correctedDate":"2022-04-14T00:00:00","correctionDescription":"Securely attach to wall/ceiling."}]}]}],"maxInspectionDate":[{"inspectionDate":"2022-07-25T00:00:00"}]}},"pageContext":{"eid":"51623485"}},"staticQueryHashes":["3649515864","63159454"]}